{"type":"FeatureCollection","features":[{"type":"Feature","geometry":{"type":"Point","coordinates":[107.5347611,-6.8699025]},"properties":{"id":3468354453,"bus":"yes","name":"Jl. Sangkuriang, Cimahi","public_transport":"platform","ref":"Jl. Sangkuriang, Cimahi"}},{"type":"Feature","geometry":{"type":"Point","coordinates":[107.543755,-6.8697985]},"properties":{"id":3468354467,"bus":"yes","name":"Terminal Pasar Atas Cimahi","public_transport":"platform","ref":"Terminal Pasar Atas Cimahi"}},{"type":"Feature","geometry":{"type":"Point","coordinates":[107.5032966,-6.8633214]},"properties":{"id":3468494605,"bus":"yes","highway":"bus_stop","name":"Cimareme","public_transport":"platform","ref":"Cimareme"}},{"type":"Feature","geometry":{"type":"Point","coordinates":[107.5154998,-6.8660042]},"properties":{"id":3468494607,"bus":"yes","highway":"bus_stop","name":"Stasiun Gadobangkong","public_transport":"platform","ref":"Stasiun Gadobangkong"}},{"type":"Feature","geometry":{"type":"Point","coordinates":[107.4972764,-6.8514498]},"properties":{"id":3468494609,"bus":"yes","highway":"bus_stop","name":"Gerbang Tol Padalarang","public_transport":"platform"}},{"type":"Feature","geometry":{"type":"Point","coordinates":[107.497183,-6.8432738]},"properties":{"id":3468494612,"bus":"yes","highway":"bus_stop","name":"Stasiun KAI Padalarang","public_transport":"platform","ref":"Stasiun Padalarang"}}]}