{
  "type": "FeatureCollection",
  "features": [
    {
      "type": "Feature",
      "geometry": {
        "type": "Point",
        "coordinates": [
          107.6049689,
          -6.8635418
        ]
      },
      "properties": {
        "id": "319706142",
        "name": "RSAU dr. Salamun",
        "role": "stop_entry_only",
        "isReal": true,
        "mode": "bus"
      }
    },
    {
      "type": "Feature",
      "geometry": {
        "type": "Point",
        "coordinates": [
          107.60591819999999,
          -6.866872600000001
        ]
      },
      "properties": {
        "id": "virtual_107.6059_-6.8669",
        "name": "Jalan terdekat",
        "role": "virtual",
        "isReal": false,
        "mode": "bus"
      }
    },
    {
      "type": "Feature",
      "geometry": {
        "type": "Point",
        "coordinates": [
          107.6044647,
          -6.8753147
        ]
      },
      "properties": {
        "id": "3462094658",
        "name": "UNPAR",
        "role": "stop",
        "isReal": true,
        "mode": "bus"
      }
    },
    {
      "type": "Feature",
      "geometry": {
        "type": "Point",
        "coordinates": [
          107.6040358,
          -6.8813221
        ]
      },
      "properties": {
        "id": "virtual_107.6040_-6.8813",
        "name": "Jalan Ciumbuleuit",
        "role": "virtual",
        "isReal": false,
        "mode": "bus"
      }
    },
    {
      "type": "Feature",
      "geometry": {
        "type": "Point",
        "coordinates": [
          107.6040408,
          -6.8869867
        ]
      },
      "properties": {
        "id": "12811652377",
        "name": "SDN 065 Cihampelas",
        "role": "stop",
        "isReal": true,
        "mode": "bus"
      }
    },
    {
      "type": "Feature",
      "geometry": {
        "type": "Point",
        "coordinates": [
          107.6038612,
          -6.8916075
        ]
      },
      "properties": {
        "id": "3462094656",
        "name": "RS Advent",
        "role": "stop",
        "isReal": true,
        "mode": "bus"
      }
    },
    {
      "type": "Feature",
      "geometry": {
        "type": "Point",
        "coordinates": [
          107.5989838,
          -6.8941794
        ]
      },
      "properties": {
        "id": "29379371",
        "name": "Makmur",
        "role": "stop",
        "isReal": true,
        "mode": "bus"
      }
    },
    {
      "type": "Feature",
      "geometry": {
        "type": "Point",
        "coordinates": [
          107.5993726,
          -6.8961604
        ]
      },
      "properties": {
        "id": "29379391",
        "name": "RS Hasan Sadikin",
        "role": "stop_exit_only",
        "isReal": true,
        "mode": "bus"
      }
    }
  ]
}