{
  "type": "FeatureCollection",
  "features": [
    {
      "type": "Feature",
      "geometry": {
        "type": "Point",
        "coordinates": [
          107.6049689,
          -6.8635418
        ]
      },
      "properties": {
        "id": "319706142",
        "name": "RSAU dr. Salamun",
        "role": "stop_entry_only",
        "mode": "bus"
      }
    },
    {
      "type": "Feature",
      "geometry": {
        "type": "Point",
        "coordinates": [
          107.6059545,
          -6.8666121
        ]
      },
      "properties": {
        "id": "v_107.605954_-6.866612",
        "name": "Jalan Ciumbuleuit",
        "role": "virtual",
        "mode": "bus"
      }
    },
    {
      "type": "Feature",
      "geometry": {
        "type": "Point",
        "coordinates": [
          107.6055874,
          -6.8701871
        ]
      },
      "properties": {
        "id": "v_107.605587_-6.870187",
        "name": "Jalan Ciumbuleuit",
        "role": "virtual",
        "mode": "bus"
      }
    },
    {
      "type": "Feature",
      "geometry": {
        "type": "Point",
        "coordinates": [
          107.6044647,
          -6.8753147
        ]
      },
      "properties": {
        "id": "3462094658",
        "name": "UNPAR",
        "role": "stop",
        "mode": "bus"
      }
    },
    {
      "type": "Feature",
      "geometry": {
        "type": "Point",
        "coordinates": [
          107.6038662,
          -6.877964
        ]
      },
      "properties": {
        "id": "v_107.603866_-6.877964",
        "name": "Jalan Ciumbuleuit",
        "role": "virtual",
        "mode": "bus"
      }
    },
    {
      "type": "Feature",
      "geometry": {
        "type": "Point",
        "coordinates": [
          107.6038241,
          -6.8806746
        ]
      },
      "properties": {
        "id": "v_107.603824_-6.880675",
        "name": "Jalan Ciumbuleuit",
        "role": "virtual",
        "mode": "bus"
      }
    },
    {
      "type": "Feature",
      "geometry": {
        "type": "Point",
        "coordinates": [
          107.6049395,
          -6.8832608
        ]
      },
      "properties": {
        "id": "v_107.604940_-6.883261",
        "name": "Jalan Ciumbuleuit",
        "role": "virtual",
        "mode": "bus"
      }
    },
    {
      "type": "Feature",
      "geometry": {
        "type": "Point",
        "coordinates": [
          107.6040408,
          -6.8869867
        ]
      },
      "properties": {
        "id": "12811652377",
        "name": "SDN 065 Cihampelas",
        "role": "stop",
        "mode": "bus"
      }
    },
    {
      "type": "Feature",
      "geometry": {
        "type": "Point",
        "coordinates": [
          107.6038612,
          -6.8916075
        ]
      },
      "properties": {
        "id": "3462094656",
        "name": "RS Advent",
        "role": "stop",
        "mode": "bus"
      }
    },
    {
      "type": "Feature",
      "geometry": {
        "type": "Point",
        "coordinates": [
          107.6011493,
          -6.8912796
        ]
      },
      "properties": {
        "id": "v_107.601149_-6.891280",
        "name": "Jalan Sampurna",
        "role": "virtual",
        "mode": "bus"
      }
    },
    {
      "type": "Feature",
      "geometry": {
        "type": "Point",
        "coordinates": [
          107.5989838,
          -6.8941794
        ]
      },
      "properties": {
        "id": "29379371",
        "name": "Makmur",
        "role": "stop",
        "mode": "bus"
      }
    },
    {
      "type": "Feature",
      "geometry": {
        "type": "Point",
        "coordinates": [
          107.5993726,
          -6.8961604
        ]
      },
      "properties": {
        "id": "29379391",
        "name": "RS Hasan Sadikin",
        "role": "stop_exit_only",
        "mode": "bus"
      }
    }
  ]
}