{
  "type": "FeatureCollection",
  "features": [
    {
      "type": "Feature",
      "geometry": {
        "type": "Point",
        "coordinates": [
          107.6049689,
          -6.8635418
        ]
      },
      "properties": {
        "id": "319706142",
        "name": "RSAU dr. Salamun",
        "role": "stop_entry_only",
        "isReal": true,
        "mode": "bus"
      }
    },
    {
      "type": "Feature",
      "geometry": {
        "type": "Point",
        "coordinates": [
          107.60551405000001,
          -6.864904016666666
        ]
      },
      "properties": {
        "id": "virtual_107.6055_-6.8649",
        "name": "Jalan terdekat",
        "role": "virtual",
        "isReal": false,
        "mode": "bus"
      }
    },
    {
      "type": "Feature",
      "geometry": {
        "type": "Point",
        "coordinates": [
          107.60591819999999,
          -6.866872600000001
        ]
      },
      "properties": {
        "id": "virtual_107.6059_-6.8669",
        "name": "Jalan terdekat",
        "role": "virtual",
        "isReal": false,
        "mode": "bus"
      }
    },
    {
      "type": "Feature",
      "geometry": {
        "type": "Point",
        "coordinates": [
          107.60555643333333,
          -6.870317033333333
        ]
      },
      "properties": {
        "id": "virtual_107.6056_-6.8703",
        "name": "Jalan terdekat",
        "role": "virtual",
        "isReal": false,
        "mode": "bus"
      }
    },
    {
      "type": "Feature",
      "geometry": {
        "type": "Point",
        "coordinates": [
          107.60497798333334,
          -6.872928833333334
        ]
      },
      "properties": {
        "id": "virtual_107.6050_-6.8729",
        "name": "Jalan terdekat",
        "role": "virtual",
        "isReal": false,
        "mode": "bus"
      }
    },
    {
      "type": "Feature",
      "geometry": {
        "type": "Point",
        "coordinates": [
          107.6044647,
          -6.8753147
        ]
      },
      "properties": {
        "id": "3462094658",
        "name": "UNPAR",
        "role": "stop",
        "isReal": true,
        "mode": "bus"
      }
    },
    {
      "type": "Feature",
      "geometry": {
        "type": "Point",
        "coordinates": [
          107.60401726666666,
          -6.877296633333334
        ]
      },
      "properties": {
        "id": "virtual_107.6040_-6.8773",
        "name": "Jalan terdekat",
        "role": "virtual",
        "isReal": false,
        "mode": "bus"
      }
    },
    {
      "type": "Feature",
      "geometry": {
        "type": "Point",
        "coordinates": [
          107.6035366,
          -6.879783033333333
        ]
      },
      "properties": {
        "id": "virtual_107.6035_-6.8798",
        "name": "Jalan terdekat",
        "role": "virtual",
        "isReal": false,
        "mode": "bus"
      }
    },
    {
      "type": "Feature",
      "geometry": {
        "type": "Point",
        "coordinates": [
          107.6040358,
          -6.8813221
        ]
      },
      "properties": {
        "id": "virtual_107.6040_-6.8813",
        "name": "Jalan Ciumbuleuit",
        "role": "virtual",
        "isReal": false,
        "mode": "bus"
      }
    },
    {
      "type": "Feature",
      "geometry": {
        "type": "Point",
        "coordinates": [
          107.60468326666667,
          -6.882776866666666
        ]
      },
      "properties": {
        "id": "virtual_107.6047_-6.8828",
        "name": "Jalan terdekat",
        "role": "virtual",
        "isReal": false,
        "mode": "bus"
      }
    },
    {
      "type": "Feature",
      "geometry": {
        "type": "Point",
        "coordinates": [
          107.60466806666666,
          -6.8843885333333334
        ]
      },
      "properties": {
        "id": "virtual_107.6047_-6.8844",
        "name": "Jalan terdekat",
        "role": "virtual",
        "isReal": false,
        "mode": "bus"
      }
    },
    {
      "type": "Feature",
      "geometry": {
        "type": "Point",
        "coordinates": [
          107.6040408,
          -6.8869867
        ]
      },
      "properties": {
        "id": "12811652377",
        "name": "SDN 065 Cihampelas",
        "role": "stop",
        "isReal": true,
        "mode": "bus"
      }
    },
    {
      "type": "Feature",
      "geometry": {
        "type": "Point",
        "coordinates": [
          107.6040179,
          -6.8885512
        ]
      },
      "properties": {
        "id": "virtual_107.6040_-6.8886",
        "name": "Jalan Cihampelas",
        "role": "virtual",
        "isReal": false,
        "mode": "bus"
      }
    },
    {
      "type": "Feature",
      "geometry": {
        "type": "Point",
        "coordinates": [
          107.6041992,
          -6.8900884
        ]
      },
      "properties": {
        "id": "virtual_107.6042_-6.8901",
        "name": "Jalan Cihampelas",
        "role": "virtual",
        "isReal": false,
        "mode": "bus"
      }
    },
    {
      "type": "Feature",
      "geometry": {
        "type": "Point",
        "coordinates": [
          107.6038612,
          -6.8916075
        ]
      },
      "properties": {
        "id": "3462094656",
        "name": "RS Advent",
        "role": "stop",
        "isReal": true,
        "mode": "bus"
      }
    },
    {
      "type": "Feature",
      "geometry": {
        "type": "Point",
        "coordinates": [
          107.6018009,
          -6.8913648
        ]
      },
      "properties": {
        "id": "virtual_107.6018_-6.8914",
        "name": "Jalan Sampurna",
        "role": "virtual",
        "isReal": false,
        "mode": "bus"
      }
    },
    {
      "type": "Feature",
      "geometry": {
        "type": "Point",
        "coordinates": [
          107.5991519,
          -6.8925236
        ]
      },
      "properties": {
        "id": "virtual_107.5992_-6.8925",
        "name": "Jalan Sederhana",
        "role": "virtual",
        "isReal": false,
        "mode": "bus"
      }
    },
    {
      "type": "Feature",
      "geometry": {
        "type": "Point",
        "coordinates": [
          107.5989838,
          -6.8941794
        ]
      },
      "properties": {
        "id": "29379371",
        "name": "Makmur",
        "role": "stop",
        "isReal": true,
        "mode": "bus"
      }
    },
    {
      "type": "Feature",
      "geometry": {
        "type": "Point",
        "coordinates": [
          107.5993726,
          -6.8961604
        ]
      },
      "properties": {
        "id": "29379391",
        "name": "RS Hasan Sadikin",
        "role": "stop_exit_only",
        "isReal": true,
        "mode": "bus"
      }
    }
  ]
}