{
  "type": "FeatureCollection",
  "features": [
    {
      "type": "Feature",
      "geometry": {
        "type": "Point",
        "coordinates": [
          107.6049689,
          -6.8635418
        ]
      },
      "properties": {
        "id": "319706142",
        "name": "RSAU dr. Salamun",
        "role": "stop_entry_only",
        "mode": "bus"
      }
    },
    {
      "type": "Feature",
      "geometry": {
        "type": "Point",
        "coordinates": [
          107.6059103,
          -6.8682113
        ]
      },
      "properties": {
        "id": "v_107.605910_-6.868211",
        "name": "Jalan Ciumbuleuit",
        "role": "virtual",
        "mode": "bus"
      }
    },
    {
      "type": "Feature",
      "geometry": {
        "type": "Point",
        "coordinates": [
          107.6044647,
          -6.8753147
        ]
      },
      "properties": {
        "id": "3462094658",
        "name": "UNPAR",
        "role": "stop",
        "mode": "bus"
      }
    },
    {
      "type": "Feature",
      "geometry": {
        "type": "Point",
        "coordinates": [
          107.603606,
          -6.8800095
        ]
      },
      "properties": {
        "id": "v_107.603606_-6.880009",
        "name": "Jalan Ciumbuleuit",
        "role": "virtual",
        "mode": "bus"
      }
    },
    {
      "type": "Feature",
      "geometry": {
        "type": "Point",
        "coordinates": [
          107.6040408,
          -6.8869867
        ]
      },
      "properties": {
        "id": "12811652377",
        "name": "SDN 065 Cihampelas",
        "role": "stop",
        "mode": "bus"
      }
    },
    {
      "type": "Feature",
      "geometry": {
        "type": "Point",
        "coordinates": [
          107.6038612,
          -6.8916075
        ]
      },
      "properties": {
        "id": "3462094656",
        "name": "RS Advent",
        "role": "stop",
        "mode": "bus"
      }
    },
    {
      "type": "Feature",
      "geometry": {
        "type": "Point",
        "coordinates": [
          107.5989838,
          -6.8941794
        ]
      },
      "properties": {
        "id": "29379371",
        "name": "Makmur",
        "role": "stop",
        "mode": "bus"
      }
    },
    {
      "type": "Feature",
      "geometry": {
        "type": "Point",
        "coordinates": [
          107.5993726,
          -6.8961604
        ]
      },
      "properties": {
        "id": "29379391",
        "name": "RS Hasan Sadikin",
        "role": "stop_exit_only",
        "mode": "bus"
      }
    }
  ]
}