{
  "type": "FeatureCollection",
  "features": [
    {
      "type": "Feature",
      "geometry": {
        "type": "Point",
        "coordinates": [
          107.6659285,
          -6.915304
        ]
      },
      "properties": {
        "id": "3270445565",
        "name": "Terminal Antapani",
        "role": "stop_entry_only",
        "mode": "bus"
      }
    },
    {
      "type": "Feature",
      "geometry": {
        "type": "Point",
        "coordinates": [
          107.6647953,
          -6.9163528
        ]
      },
      "properties": {
        "id": "v_107.664795_-6.916353",
        "name": "Jalan Cibatu",
        "role": "virtual",
        "mode": "bus"
      }
    },
    {
      "type": "Feature",
      "geometry": {
        "type": "Point",
        "coordinates": [
          107.6636633,
          -6.9172021
        ]
      },
      "properties": {
        "id": "v_107.663663_-6.917202",
        "name": "Jalan Cibatu",
        "role": "virtual",
        "mode": "bus"
      }
    },
    {
      "type": "Feature",
      "geometry": {
        "type": "Point",
        "coordinates": [
          107.6619867,
          -6.916927
        ]
      },
      "properties": {
        "id": "v_107.661987_-6.916927",
        "name": "Jalan Kuningan",
        "role": "virtual",
        "mode": "bus"
      }
    },
    {
      "type": "Feature",
      "geometry": {
        "type": "Point",
        "coordinates": [
          107.6607151,
          -6.9174748
        ]
      },
      "properties": {
        "id": "v_107.660715_-6.917475",
        "name": "Jalan Purwakarta",
        "role": "virtual",
        "mode": "bus"
      }
    },
    {
      "type": "Feature",
      "geometry": {
        "type": "Point",
        "coordinates": [
          107.6592266,
          -6.9174037
        ]
      },
      "properties": {
        "id": "v_107.659227_-6.917404",
        "name": "Jalan Purwakarta",
        "role": "virtual",
        "mode": "bus"
      }
    },
    {
      "type": "Feature",
      "geometry": {
        "type": "Point",
        "coordinates": [
          107.657555,
          -6.9173304
        ]
      },
      "properties": {
        "id": "v_107.657555_-6.917330",
        "name": "Jalan Purwakarta",
        "role": "virtual",
        "mode": "bus"
      }
    },
    {
      "type": "Feature",
      "geometry": {
        "type": "Point",
        "coordinates": [
          107.6560398,
          -6.9172635
        ]
      },
      "properties": {
        "id": "v_107.656040_-6.917263",
        "name": "Jalan Purwakarta",
        "role": "virtual",
        "mode": "bus"
      }
    },
    {
      "type": "Feature",
      "geometry": {
        "type": "Point",
        "coordinates": [
          107.6546575,
          -6.9164351
        ]
      },
      "properties": {
        "id": "v_107.654657_-6.916435",
        "name": "Jalan Purwakarta",
        "role": "virtual",
        "mode": "bus"
      }
    },
    {
      "type": "Feature",
      "geometry": {
        "type": "Point",
        "coordinates": [
          107.6549689,
          -6.9148878
        ]
      },
      "properties": {
        "id": "v_107.654969_-6.914888",
        "name": "Jalan Subang",
        "role": "virtual",
        "mode": "bus"
      }
    },
    {
      "type": "Feature",
      "geometry": {
        "type": "Point",
        "coordinates": [
          107.6551351,
          -6.912935
        ]
      },
      "properties": {
        "id": "v_107.655135_-6.912935",
        "name": "Jalan Subang",
        "role": "virtual",
        "mode": "bus"
      }
    },
    {
      "type": "Feature",
      "geometry": {
        "type": "Point",
        "coordinates": [
          107.653817,
          -6.9124678
        ]
      },
      "properties": {
        "id": "v_107.653817_-6.912468",
        "name": "Jalan Terusan Jakarta",
        "role": "virtual",
        "mode": "bus"
      }
    },
    {
      "type": "Feature",
      "geometry": {
        "type": "Point",
        "coordinates": [
          107.6520929,
          -6.9126555
        ]
      },
      "properties": {
        "id": "v_107.652093_-6.912655",
        "name": "Jalan Terusan Jakarta",
        "role": "virtual",
        "mode": "bus"
      }
    },
    {
      "type": "Feature",
      "geometry": {
        "type": "Point",
        "coordinates": [
          107.6492727,
          -6.9130091
        ]
      },
      "properties": {
        "id": "3378630365",
        "name": "Seberang Borma Antapani",
        "role": "stop",
        "mode": "bus"
      }
    },
    {
      "type": "Feature",
      "geometry": {
        "type": "Point",
        "coordinates": [
          107.6477309,
          -6.9132022
        ]
      },
      "properties": {
        "id": "v_107.647731_-6.913202",
        "name": "Jalan Terusan Jakarta",
        "role": "virtual",
        "mode": "bus"
      }
    },
    {
      "type": "Feature",
      "geometry": {
        "type": "Point",
        "coordinates": [
          107.6457897,
          -6.9134653
        ]
      },
      "properties": {
        "id": "v_107.645790_-6.913465",
        "name": "Jalan Terusan Jakarta",
        "role": "virtual",
        "mode": "bus"
      }
    },
    {
      "type": "Feature",
      "geometry": {
        "type": "Point",
        "coordinates": [
          107.6429791,
          -6.9138756
        ]
      },
      "properties": {
        "id": "11735248700",
        "name": "Flyover Antapani",
        "role": "stop",
        "mode": "bus"
      }
    },
    {
      "type": "Feature",
      "geometry": {
        "type": "Point",
        "coordinates": [
          107.641333,
          -6.91402
        ]
      },
      "properties": {
        "id": "v_107.641333_-6.914020",
        "name": "Jalan Jakarta",
        "role": "virtual",
        "mode": "bus"
      }
    },
    {
      "type": "Feature",
      "geometry": {
        "type": "Point",
        "coordinates": [
          107.6399016,
          -6.9142036
        ]
      },
      "properties": {
        "id": "3375793691",
        "name": "WUJ Jalan Banten",
        "role": "stop",
        "mode": "bus"
      }
    },
    {
      "type": "Feature",
      "geometry": {
        "type": "Point",
        "coordinates": [
          107.6381956,
          -6.9144188
        ]
      },
      "properties": {
        "id": "11735248701",
        "name": "STMIK",
        "role": "stop",
        "mode": "bus"
      }
    },
    {
      "type": "Feature",
      "geometry": {
        "type": "Point",
        "coordinates": [
          107.6362469,
          -6.9146627
        ]
      },
      "properties": {
        "id": "11735248702",
        "name": "GOR KONI",
        "role": "stop",
        "mode": "bus"
      }
    },
    {
      "type": "Feature",
      "geometry": {
        "type": "Point",
        "coordinates": [
          107.634859,
          -6.9143394
        ]
      },
      "properties": {
        "id": "v_107.634859_-6.914339",
        "name": "Jalan Jakarta",
        "role": "virtual",
        "mode": "bus"
      }
    },
    {
      "type": "Feature",
      "geometry": {
        "type": "Point",
        "coordinates": [
          107.6342682,
          -6.916856
        ]
      },
      "properties": {
        "id": "3375794694",
        "name": "DPRD Kota Bandung",
        "role": "stop",
        "mode": "bus"
      }
    },
    {
      "type": "Feature",
      "geometry": {
        "type": "Point",
        "coordinates": [
          107.6324739,
          -6.9181019
        ]
      },
      "properties": {
        "id": "3476292190",
        "name": "Dishub Jabar",
        "role": "stop",
        "mode": "bus"
      }
    },
    {
      "type": "Feature",
      "geometry": {
        "type": "Point",
        "coordinates": [
          107.6312506,
          -6.9184177
        ]
      },
      "properties": {
        "id": "11707030859",
        "name": "Bandung Creative Hub B",
        "role": "stop",
        "mode": "bus"
      }
    },
    {
      "type": "Feature",
      "geometry": {
        "type": "Point",
        "coordinates": [
          107.6306282,
          -6.9171247
        ]
      },
      "properties": {
        "id": "v_107.630628_-6.917125",
        "name": "Jalan Laswi",
        "role": "virtual",
        "mode": "bus"
      }
    },
    {
      "type": "Feature",
      "geometry": {
        "type": "Point",
        "coordinates": [
          107.6292904,
          -6.9161976
        ]
      },
      "properties": {
        "id": "11735248690",
        "name": "Stadion Persib Sidolig",
        "role": "stop",
        "mode": "bus"
      }
    },
    {
      "type": "Feature",
      "geometry": {
        "type": "Point",
        "coordinates": [
          107.6274434,
          -6.9171135
        ]
      },
      "properties": {
        "id": "v_107.627443_-6.917114",
        "name": "Jalan Jenderal Ahmad Yani",
        "role": "virtual",
        "mode": "bus"
      }
    },
    {
      "type": "Feature",
      "geometry": {
        "type": "Point",
        "coordinates": [
          107.6259467,
          -6.9168185
        ]
      },
      "properties": {
        "id": "v_107.625947_-6.916818",
        "name": "Jalan Gudang Utara",
        "role": "virtual",
        "mode": "bus"
      }
    },
    {
      "type": "Feature",
      "geometry": {
        "type": "Point",
        "coordinates": [
          107.6244453,
          -6.9164512
        ]
      },
      "properties": {
        "id": "v_107.624445_-6.916451",
        "name": "Jalan Gudang Utara",
        "role": "virtual",
        "mode": "bus"
      }
    },
    {
      "type": "Feature",
      "geometry": {
        "type": "Point",
        "coordinates": [
          107.6229727,
          -6.916095
        ]
      },
      "properties": {
        "id": "v_107.622973_-6.916095",
        "name": "Jalan Gudang Utara",
        "role": "virtual",
        "mode": "bus"
      }
    },
    {
      "type": "Feature",
      "geometry": {
        "type": "Point",
        "coordinates": [
          107.621498,
          -6.9157384
        ]
      },
      "properties": {
        "id": "v_107.621498_-6.915738",
        "name": "Jalan Gudang Utara",
        "role": "virtual",
        "mode": "bus"
      }
    },
    {
      "type": "Feature",
      "geometry": {
        "type": "Point",
        "coordinates": [
          107.6196923,
          -6.9153016
        ]
      },
      "properties": {
        "id": "v_107.619692_-6.915302",
        "name": "Jalan Gudang Utara",
        "role": "virtual",
        "mode": "bus"
      }
    },
    {
      "type": "Feature",
      "geometry": {
        "type": "Point",
        "coordinates": [
          107.6188063,
          -6.9134962
        ]
      },
      "properties": {
        "id": "v_107.618806_-6.913496",
        "name": "Jalan Bangka",
        "role": "virtual",
        "mode": "bus"
      }
    },
    {
      "type": "Feature",
      "geometry": {
        "type": "Point",
        "coordinates": [
          107.6185017,
          -6.911999
        ]
      },
      "properties": {
        "id": "v_107.618502_-6.911999",
        "name": "Jalan Bangka",
        "role": "virtual",
        "mode": "bus"
      }
    },
    {
      "type": "Feature",
      "geometry": {
        "type": "Point",
        "coordinates": [
          107.6172179,
          -6.9115348
        ]
      },
      "properties": {
        "id": "v_107.617218_-6.911535",
        "name": "Jalan Belitung",
        "role": "virtual",
        "mode": "bus"
      }
    },
    {
      "type": "Feature",
      "geometry": {
        "type": "Point",
        "coordinates": [
          107.6150207,
          -6.9119682
        ]
      },
      "properties": {
        "id": "3374033495",
        "name": "SMAN 3 dan 5",
        "role": "stop",
        "mode": "bus"
      }
    },
    {
      "type": "Feature",
      "geometry": {
        "type": "Point",
        "coordinates": [
          107.6138205,
          -6.9124068
        ]
      },
      "properties": {
        "id": "12809521950",
        "name": "Taman Lalu Lintas",
        "role": "stop",
        "mode": "bus"
      }
    },
    {
      "type": "Feature",
      "geometry": {
        "type": "Point",
        "coordinates": [
          107.6126673,
          -6.9116438
        ]
      },
      "properties": {
        "id": "v_107.612667_-6.911644",
        "name": "Jalan Sumatra",
        "role": "virtual",
        "mode": "bus"
      }
    },
    {
      "type": "Feature",
      "geometry": {
        "type": "Point",
        "coordinates": [
          107.6124686,
          -6.9102774
        ]
      },
      "properties": {
        "id": "v_107.612469_-6.910277",
        "name": "Jalan Sumatra",
        "role": "virtual",
        "mode": "bus"
      }
    },
    {
      "type": "Feature",
      "geometry": {
        "type": "Point",
        "coordinates": [
          107.6106101,
          -6.9103764
        ]
      },
      "properties": {
        "id": "3376669065",
        "name": "Taman Sejarah Balai Kota Bandung",
        "role": "stop",
        "mode": "bus"
      }
    },
    {
      "type": "Feature",
      "geometry": {
        "type": "Point",
        "coordinates": [
          107.6104548,
          -6.9125343
        ]
      },
      "properties": {
        "id": "11739021637",
        "name": "Merdeka",
        "role": "stop",
        "mode": "bus"
      }
    },
    {
      "type": "Feature",
      "geometry": {
        "type": "Point",
        "coordinates": [
          107.6099856,
          -6.9139284
        ]
      },
      "properties": {
        "id": "12825997248",
        "name": "Taman Vanda",
        "role": "stop",
        "mode": "bus"
      }
    },
    {
      "type": "Feature",
      "geometry": {
        "type": "Point",
        "coordinates": [
          107.609039,
          -6.9130013
        ]
      },
      "properties": {
        "id": "11739064594",
        "name": "SMK Negeri 1 Bandung",
        "role": "stop",
        "mode": "bus"
      }
    },
    {
      "type": "Feature",
      "geometry": {
        "type": "Point",
        "coordinates": [
          107.6090912,
          -6.9111612
        ]
      },
      "properties": {
        "id": "12809274346",
        "name": "Masjid Al-Ukhuwwah",
        "role": "stop",
        "mode": "bus"
      }
    },
    {
      "type": "Feature",
      "geometry": {
        "type": "Point",
        "coordinates": [
          107.6079826,
          -6.9088722
        ]
      },
      "properties": {
        "id": "12809274348",
        "name": "Wastukencana Purnawarman",
        "role": "stop",
        "mode": "bus"
      }
    },
    {
      "type": "Feature",
      "geometry": {
        "type": "Point",
        "coordinates": [
          107.6073442,
          -6.9076324
        ]
      },
      "properties": {
        "id": "v_107.607344_-6.907632",
        "name": "Jalan Pajajaran",
        "role": "virtual",
        "mode": "bus"
      }
    },
    {
      "type": "Feature",
      "geometry": {
        "type": "Point",
        "coordinates": [
          107.6047535,
          -6.9071527
        ]
      },
      "properties": {
        "id": "12809237527",
        "name": "Pajajaran Timur",
        "role": "stop",
        "mode": "bus"
      }
    },
    {
      "type": "Feature",
      "geometry": {
        "type": "Point",
        "coordinates": [
          107.6044661,
          -6.9077123
        ]
      },
      "properties": {
        "id": "3376669069",
        "name": "Kimia Farma",
        "role": "stop",
        "mode": "bus"
      }
    },
    {
      "type": "Feature",
      "geometry": {
        "type": "Point",
        "coordinates": [
          107.6044333,
          -6.9091247
        ]
      },
      "properties": {
        "id": "v_107.604433_-6.909125",
        "name": "Jalan Cicendo",
        "role": "virtual",
        "mode": "bus"
      }
    },
    {
      "type": "Feature",
      "geometry": {
        "type": "Point",
        "coordinates": [
          107.6040749,
          -6.9106747
        ]
      },
      "properties": {
        "id": "v_107.604075_-6.910675",
        "name": "Jalan Cicendo",
        "role": "virtual",
        "mode": "bus"
      }
    },
    {
      "type": "Feature",
      "geometry": {
        "type": "Point",
        "coordinates": [
          107.6029303,
          -6.9125954
        ]
      },
      "properties": {
        "id": "293384756",
        "name": "Stasiun Bandung",
        "role": "stop",
        "mode": "bus"
      }
    },
    {
      "type": "Feature",
      "geometry": {
        "type": "Point",
        "coordinates": [
          107.6007223,
          -6.9124771
        ]
      },
      "properties": {
        "id": "12806120204",
        "name": "Haji Mesri",
        "role": "stop",
        "mode": "bus"
      }
    },
    {
      "type": "Feature",
      "geometry": {
        "type": "Point",
        "coordinates": [
          107.5990408,
          -6.912374
        ]
      },
      "properties": {
        "id": "v_107.599041_-6.912374",
        "name": "Jalan Kebon Kawung",
        "role": "virtual",
        "mode": "bus"
      }
    },
    {
      "type": "Feature",
      "geometry": {
        "type": "Point",
        "coordinates": [
          107.5979188,
          -6.9114098
        ]
      },
      "properties": {
        "id": "11739021629",
        "name": "SMAN 6 Bandung",
        "role": "stop",
        "mode": "bus"
      }
    },
    {
      "type": "Feature",
      "geometry": {
        "type": "Point",
        "coordinates": [
          107.5978086,
          -6.909947
        ]
      },
      "properties": {
        "id": "v_107.597809_-6.909947",
        "name": "Jalan HOS. Cokroaminoto",
        "role": "virtual",
        "mode": "bus"
      }
    },
    {
      "type": "Feature",
      "geometry": {
        "type": "Point",
        "coordinates": [
          107.5976849,
          -6.9081059
        ]
      },
      "properties": {
        "id": "12806120202",
        "name": "SDN 013 Pajajaran",
        "role": "stop",
        "mode": "bus"
      }
    },
    {
      "type": "Feature",
      "geometry": {
        "type": "Point",
        "coordinates": [
          107.5975322,
          -6.9065723
        ]
      },
      "properties": {
        "id": "v_107.597532_-6.906572",
        "name": "Jalan HOS. Cokroaminoto",
        "role": "virtual",
        "mode": "bus"
      }
    },
    {
      "type": "Feature",
      "geometry": {
        "type": "Point",
        "coordinates": [
          107.5961119,
          -6.9066005
        ]
      },
      "properties": {
        "id": "v_107.596112_-6.906600",
        "name": "Jalan Pajajaran",
        "role": "virtual",
        "mode": "bus"
      }
    },
    {
      "type": "Feature",
      "geometry": {
        "type": "Point",
        "coordinates": [
          107.5939013,
          -6.9068851
        ]
      },
      "properties": {
        "id": "11138593907",
        "name": "Padjajaran 2",
        "role": "stop",
        "mode": "bus"
      }
    },
    {
      "type": "Feature",
      "geometry": {
        "type": "Point",
        "coordinates": [
          107.5925401,
          -6.9070991
        ]
      },
      "properties": {
        "id": "v_107.592540_-6.907099",
        "name": "Jalan Pajajaran",
        "role": "virtual",
        "mode": "bus"
      }
    },
    {
      "type": "Feature",
      "geometry": {
        "type": "Point",
        "coordinates": [
          107.5910708,
          -6.9070787
        ]
      },
      "properties": {
        "id": "v_107.591071_-6.907079",
        "name": "Jalan Pajajaran",
        "role": "virtual",
        "mode": "bus"
      }
    },
    {
      "type": "Feature",
      "geometry": {
        "type": "Point",
        "coordinates": [
          107.588209,
          -6.9068423
        ]
      },
      "properties": {
        "id": "3377329064",
        "name": "Husein Pajajaran",
        "role": "stop",
        "mode": "bus"
      }
    },
    {
      "type": "Feature",
      "geometry": {
        "type": "Point",
        "coordinates": [
          107.588219,
          -6.9067739
        ]
      },
      "properties": {
        "id": "3377321681",
        "name": "Pintu Masuk Bandara Husein Sastranegara",
        "role": "stop_exit_only",
        "mode": "bus"
      }
    }
  ]
}