{
  "type": "FeatureCollection",
  "features": [
    {
      "type": "Feature",
      "geometry": {
        "type": "Point",
        "coordinates": [
          107.6659285,
          -6.915304
        ]
      },
      "properties": {
        "id": "3270445565",
        "name": "Terminal Antapani",
        "role": "stop_entry_only",
        "isReal": true,
        "mode": "bus"
      }
    },
    {
      "type": "Feature",
      "geometry": {
        "type": "Point",
        "coordinates": [
          107.66270724285714,
          -6.917877557142857
        ]
      },
      "properties": {
        "id": "virtual_107.6627_-6.9179",
        "name": "Jalan terdekat",
        "role": "virtual",
        "isReal": false,
        "mode": "bus"
      }
    },
    {
      "type": "Feature",
      "geometry": {
        "type": "Point",
        "coordinates": [
          107.66113677142857,
          -6.9175056
        ]
      },
      "properties": {
        "id": "virtual_107.6611_-6.9175",
        "name": "Jalan terdekat",
        "role": "virtual",
        "isReal": false,
        "mode": "bus"
      }
    },
    {
      "type": "Feature",
      "geometry": {
        "type": "Point",
        "coordinates": [
          107.65848851428571,
          -6.9173729
        ]
      },
      "properties": {
        "id": "virtual_107.6585_-6.9174",
        "name": "Jalan terdekat",
        "role": "virtual",
        "isReal": false,
        "mode": "bus"
      }
    },
    {
      "type": "Feature",
      "geometry": {
        "type": "Point",
        "coordinates": [
          107.65426635714286,
          -6.916063142857142
        ]
      },
      "properties": {
        "id": "virtual_107.6543_-6.9161",
        "name": "Jalan terdekat",
        "role": "virtual",
        "isReal": false,
        "mode": "bus"
      }
    },
    {
      "type": "Feature",
      "geometry": {
        "type": "Point",
        "coordinates": [
          107.6540624,
          -6.912463257142857
        ]
      },
      "properties": {
        "id": "virtual_107.6541_-6.9125",
        "name": "Jalan terdekat",
        "role": "virtual",
        "isReal": false,
        "mode": "bus"
      }
    },
    {
      "type": "Feature",
      "geometry": {
        "type": "Point",
        "coordinates": [
          107.6492727,
          -6.9130091
        ]
      },
      "properties": {
        "id": "3378630365",
        "name": "Seberang Borma Antapani",
        "role": "stop",
        "isReal": true,
        "mode": "bus"
      }
    },
    {
      "type": "Feature",
      "geometry": {
        "type": "Point",
        "coordinates": [
          107.64731893333334,
          -6.913258933333333
        ]
      },
      "properties": {
        "id": "virtual_107.6473_-6.9133",
        "name": "Jalan terdekat",
        "role": "virtual",
        "isReal": false,
        "mode": "bus"
      }
    },
    {
      "type": "Feature",
      "geometry": {
        "type": "Point",
        "coordinates": [
          107.6429791,
          -6.9138756
        ]
      },
      "properties": {
        "id": "11735248700",
        "name": "Flyover Antapani",
        "role": "stop",
        "isReal": true,
        "mode": "bus"
      }
    },
    {
      "type": "Feature",
      "geometry": {
        "type": "Point",
        "coordinates": [
          107.6399016,
          -6.9142036
        ]
      },
      "properties": {
        "id": "3375793691",
        "name": "WUJ Jalan Banten",
        "role": "stop",
        "isReal": true,
        "mode": "bus"
      }
    },
    {
      "type": "Feature",
      "geometry": {
        "type": "Point",
        "coordinates": [
          107.6381956,
          -6.9144188
        ]
      },
      "properties": {
        "id": "11735248701",
        "name": "STMIK",
        "role": "stop",
        "isReal": true,
        "mode": "bus"
      }
    },
    {
      "type": "Feature",
      "geometry": {
        "type": "Point",
        "coordinates": [
          107.6362469,
          -6.9146627
        ]
      },
      "properties": {
        "id": "11735248702",
        "name": "GOR KONI",
        "role": "stop",
        "isReal": true,
        "mode": "bus"
      }
    },
    {
      "type": "Feature",
      "geometry": {
        "type": "Point",
        "coordinates": [
          107.634859,
          -6.9143394
        ]
      },
      "properties": {
        "id": "virtual_107.6349_-6.9143",
        "name": "Jalan Jakarta",
        "role": "virtual",
        "isReal": false,
        "mode": "bus"
      }
    },
    {
      "type": "Feature",
      "geometry": {
        "type": "Point",
        "coordinates": [
          107.6342682,
          -6.916856
        ]
      },
      "properties": {
        "id": "3375794694",
        "name": "DPRD Kota Bandung",
        "role": "stop",
        "isReal": true,
        "mode": "bus"
      }
    },
    {
      "type": "Feature",
      "geometry": {
        "type": "Point",
        "coordinates": [
          107.6324739,
          -6.9181019
        ]
      },
      "properties": {
        "id": "3476292190",
        "name": "Dishub Jabar",
        "role": "stop",
        "isReal": true,
        "mode": "bus"
      }
    },
    {
      "type": "Feature",
      "geometry": {
        "type": "Point",
        "coordinates": [
          107.6312506,
          -6.9184177
        ]
      },
      "properties": {
        "id": "11707030859",
        "name": "Bandung Creative Hub B",
        "role": "stop",
        "isReal": true,
        "mode": "bus"
      }
    },
    {
      "type": "Feature",
      "geometry": {
        "type": "Point",
        "coordinates": [
          107.6292904,
          -6.9161976
        ]
      },
      "properties": {
        "id": "11735248690",
        "name": "Stadion Persib Sidolig",
        "role": "stop",
        "isReal": true,
        "mode": "bus"
      }
    },
    {
      "type": "Feature",
      "geometry": {
        "type": "Point",
        "coordinates": [
          107.62728343333333,
          -6.91713775
        ]
      },
      "properties": {
        "id": "virtual_107.6273_-6.9171",
        "name": "Jalan terdekat",
        "role": "virtual",
        "isReal": false,
        "mode": "bus"
      }
    },
    {
      "type": "Feature",
      "geometry": {
        "type": "Point",
        "coordinates": [
          107.62287216666667,
          -6.916070700000001
        ]
      },
      "properties": {
        "id": "virtual_107.6229_-6.9161",
        "name": "Jalan terdekat",
        "role": "virtual",
        "isReal": false,
        "mode": "bus"
      }
    },
    {
      "type": "Feature",
      "geometry": {
        "type": "Point",
        "coordinates": [
          107.61937555,
          -6.91522495
        ]
      },
      "properties": {
        "id": "virtual_107.6194_-6.9152",
        "name": "Jalan terdekat",
        "role": "virtual",
        "isReal": false,
        "mode": "bus"
      }
    },
    {
      "type": "Feature",
      "geometry": {
        "type": "Point",
        "coordinates": [
          107.61867766666667,
          -6.912569433333333
        ]
      },
      "properties": {
        "id": "virtual_107.6187_-6.9126",
        "name": "Jalan terdekat",
        "role": "virtual",
        "isReal": false,
        "mode": "bus"
      }
    },
    {
      "type": "Feature",
      "geometry": {
        "type": "Point",
        "coordinates": [
          107.61727565,
          -6.91153075
        ]
      },
      "properties": {
        "id": "virtual_107.6173_-6.9115",
        "name": "Jalan terdekat",
        "role": "virtual",
        "isReal": false,
        "mode": "bus"
      }
    },
    {
      "type": "Feature",
      "geometry": {
        "type": "Point",
        "coordinates": [
          107.6150207,
          -6.9119682
        ]
      },
      "properties": {
        "id": "3374033495",
        "name": "SMAN 3 dan 5",
        "role": "stop",
        "isReal": true,
        "mode": "bus"
      }
    },
    {
      "type": "Feature",
      "geometry": {
        "type": "Point",
        "coordinates": [
          107.6138205,
          -6.9124068
        ]
      },
      "properties": {
        "id": "12809521950",
        "name": "Taman Lalu Lintas",
        "role": "stop",
        "isReal": true,
        "mode": "bus"
      }
    },
    {
      "type": "Feature",
      "geometry": {
        "type": "Point",
        "coordinates": [
          107.61243719999999,
          -6.91005865
        ]
      },
      "properties": {
        "id": "virtual_107.6124_-6.9101",
        "name": "Jalan terdekat",
        "role": "virtual",
        "isReal": false,
        "mode": "bus"
      }
    },
    {
      "type": "Feature",
      "geometry": {
        "type": "Point",
        "coordinates": [
          107.6106101,
          -6.9103764
        ]
      },
      "properties": {
        "id": "3376669065",
        "name": "Taman Sejarah Balai Kota Bandung",
        "role": "stop",
        "isReal": true,
        "mode": "bus"
      }
    },
    {
      "type": "Feature",
      "geometry": {
        "type": "Point",
        "coordinates": [
          107.6104548,
          -6.9125343
        ]
      },
      "properties": {
        "id": "11739021637",
        "name": "Merdeka",
        "role": "stop",
        "isReal": true,
        "mode": "bus"
      }
    },
    {
      "type": "Feature",
      "geometry": {
        "type": "Point",
        "coordinates": [
          107.6099856,
          -6.9139284
        ]
      },
      "properties": {
        "id": "12825997248",
        "name": "Taman Vanda",
        "role": "stop",
        "isReal": true,
        "mode": "bus"
      }
    },
    {
      "type": "Feature",
      "geometry": {
        "type": "Point",
        "coordinates": [
          107.609039,
          -6.9130013
        ]
      },
      "properties": {
        "id": "11739064594",
        "name": "SMK Negeri 1 Bandung",
        "role": "stop",
        "isReal": true,
        "mode": "bus"
      }
    },
    {
      "type": "Feature",
      "geometry": {
        "type": "Point",
        "coordinates": [
          107.6090912,
          -6.9111612
        ]
      },
      "properties": {
        "id": "12809274346",
        "name": "Masjid Al-Ukhuwwah",
        "role": "stop",
        "isReal": true,
        "mode": "bus"
      }
    },
    {
      "type": "Feature",
      "geometry": {
        "type": "Point",
        "coordinates": [
          107.6079826,
          -6.9088722
        ]
      },
      "properties": {
        "id": "12809274348",
        "name": "Wastukencana Purnawarman",
        "role": "stop",
        "isReal": true,
        "mode": "bus"
      }
    },
    {
      "type": "Feature",
      "geometry": {
        "type": "Point",
        "coordinates": [
          107.6072754,
          -6.9075859
        ]
      },
      "properties": {
        "id": "virtual_107.6073_-6.9076",
        "name": "Jalan Pajajaran",
        "role": "virtual",
        "isReal": false,
        "mode": "bus"
      }
    },
    {
      "type": "Feature",
      "geometry": {
        "type": "Point",
        "coordinates": [
          107.6047535,
          -6.9071527
        ]
      },
      "properties": {
        "id": "12809237527",
        "name": "Pajajaran Timur",
        "role": "stop",
        "isReal": true,
        "mode": "bus"
      }
    },
    {
      "type": "Feature",
      "geometry": {
        "type": "Point",
        "coordinates": [
          107.6044661,
          -6.9077123
        ]
      },
      "properties": {
        "id": "3376669069",
        "name": "Kimia Farma",
        "role": "stop",
        "isReal": true,
        "mode": "bus"
      }
    },
    {
      "type": "Feature",
      "geometry": {
        "type": "Point",
        "coordinates": [
          107.60408495,
          -6.91053895
        ]
      },
      "properties": {
        "id": "virtual_107.6041_-6.9105",
        "name": "Jalan terdekat",
        "role": "virtual",
        "isReal": false,
        "mode": "bus"
      }
    },
    {
      "type": "Feature",
      "geometry": {
        "type": "Point",
        "coordinates": [
          107.6029303,
          -6.9125954
        ]
      },
      "properties": {
        "id": "293384756",
        "name": "Stasiun Bandung",
        "role": "stop",
        "isReal": true,
        "mode": "bus"
      }
    },
    {
      "type": "Feature",
      "geometry": {
        "type": "Point",
        "coordinates": [
          107.6007223,
          -6.9124771
        ]
      },
      "properties": {
        "id": "12806120204",
        "name": "Haji Mesri",
        "role": "stop",
        "isReal": true,
        "mode": "bus"
      }
    },
    {
      "type": "Feature",
      "geometry": {
        "type": "Point",
        "coordinates": [
          107.5979188,
          -6.9114098
        ]
      },
      "properties": {
        "id": "11739021629",
        "name": "SMAN 6 Bandung",
        "role": "stop",
        "isReal": true,
        "mode": "bus"
      }
    },
    {
      "type": "Feature",
      "geometry": {
        "type": "Point",
        "coordinates": [
          107.5977774,
          -6.9094546
        ]
      },
      "properties": {
        "id": "virtual_107.5978_-6.9095",
        "name": "Jalan HOS. Cokroaminoto",
        "role": "virtual",
        "isReal": false,
        "mode": "bus"
      }
    },
    {
      "type": "Feature",
      "geometry": {
        "type": "Point",
        "coordinates": [
          107.5976849,
          -6.9081059
        ]
      },
      "properties": {
        "id": "12806120202",
        "name": "SDN 013 Pajajaran",
        "role": "stop",
        "isReal": true,
        "mode": "bus"
      }
    },
    {
      "type": "Feature",
      "geometry": {
        "type": "Point",
        "coordinates": [
          107.5965099,
          -6.90653265
        ]
      },
      "properties": {
        "id": "virtual_107.5965_-6.9065",
        "name": "Jalan terdekat",
        "role": "virtual",
        "isReal": false,
        "mode": "bus"
      }
    },
    {
      "type": "Feature",
      "geometry": {
        "type": "Point",
        "coordinates": [
          107.5939013,
          -6.9068851
        ]
      },
      "properties": {
        "id": "11138593907",
        "name": "Padjajaran 2",
        "role": "stop",
        "isReal": true,
        "mode": "bus"
      }
    },
    {
      "type": "Feature",
      "geometry": {
        "type": "Point",
        "coordinates": [
          107.5921264,
          -6.907141666666667
        ]
      },
      "properties": {
        "id": "virtual_107.5921_-6.9071",
        "name": "Jalan terdekat",
        "role": "virtual",
        "isReal": false,
        "mode": "bus"
      }
    },
    {
      "type": "Feature",
      "geometry": {
        "type": "Point",
        "coordinates": [
          107.59041073333334,
          -6.907062566666666
        ]
      },
      "properties": {
        "id": "virtual_107.5904_-6.9071",
        "name": "Jalan terdekat",
        "role": "virtual",
        "isReal": false,
        "mode": "bus"
      }
    },
    {
      "type": "Feature",
      "geometry": {
        "type": "Point",
        "coordinates": [
          107.588209,
          -6.9068423
        ]
      },
      "properties": {
        "id": "3377329064",
        "name": "Husein Pajajaran",
        "role": "stop",
        "isReal": true,
        "mode": "bus"
      }
    },
    {
      "type": "Feature",
      "geometry": {
        "type": "Point",
        "coordinates": [
          107.588219,
          -6.9067739
        ]
      },
      "properties": {
        "id": "3377321681",
        "name": "Pintu Masuk Bandara Husein Sastranegara",
        "role": "stop_exit_only",
        "isReal": true,
        "mode": "bus"
      }
    }
  ]
}