{
  "type": "FeatureCollection",
  "features": [
    {
      "type": "Feature",
      "geometry": {
        "type": "Point",
        "coordinates": [
          107.6992861,
          -6.9158662
        ]
      },
      "properties": {
        "id": "12638331186",
        "name": "RSUD Ujungberung",
        "role": "stop_entry_only",
        "isReal": true,
        "mode": "bus"
      }
    },
    {
      "type": "Feature",
      "geometry": {
        "type": "Point",
        "coordinates": [
          107.69639643333333,
          -6.923577133333334
        ]
      },
      "properties": {
        "id": "virtual_107.6964_-6.9236",
        "name": "Jalan terdekat",
        "role": "virtual",
        "isReal": false,
        "mode": "bus"
      }
    },
    {
      "type": "Feature",
      "geometry": {
        "type": "Point",
        "coordinates": [
          107.69329333333333,
          -6.931560566666667
        ]
      },
      "properties": {
        "id": "virtual_107.6933_-6.9316",
        "name": "Jalan terdekat",
        "role": "virtual",
        "isReal": false,
        "mode": "bus"
      }
    },
    {
      "type": "Feature",
      "geometry": {
        "type": "Point",
        "coordinates": [
          107.6918125,
          -6.9372117
        ]
      },
      "properties": {
        "id": "12806516344",
        "name": "Barat Simpang Gedebage",
        "role": "stop",
        "isReal": true,
        "mode": "bus"
      }
    },
    {
      "type": "Feature",
      "geometry": {
        "type": "Point",
        "coordinates": [
          107.6871235,
          -6.937537
        ]
      },
      "properties": {
        "id": "virtual_107.6871_-6.9375",
        "name": "Jalan Soekarno-Hatta",
        "role": "virtual",
        "isReal": false,
        "mode": "bus"
      }
    },
    {
      "type": "Feature",
      "geometry": {
        "type": "Point",
        "coordinates": [
          107.6794141,
          -6.9380944
        ]
      },
      "properties": {
        "id": "12806868621",
        "name": "SMKN 6 Bandung",
        "role": "stop",
        "isReal": true,
        "mode": "bus"
      }
    },
    {
      "type": "Feature",
      "geometry": {
        "type": "Point",
        "coordinates": [
          107.6768401,
          -6.9382789
        ]
      },
      "properties": {
        "id": "12806868622",
        "name": "Cipamokolan",
        "role": "stop",
        "isReal": true,
        "mode": "bus"
      }
    },
    {
      "type": "Feature",
      "geometry": {
        "type": "Point",
        "coordinates": [
          107.6729122,
          -6.9385626
        ]
      },
      "properties": {
        "id": "12806868623",
        "name": "Aria Graha",
        "role": "stop",
        "isReal": true,
        "mode": "bus"
      }
    },
    {
      "type": "Feature",
      "geometry": {
        "type": "Point",
        "coordinates": [
          107.6692698,
          -6.9388175
        ]
      },
      "properties": {
        "id": "3375689668",
        "name": "RS Al Islam",
        "role": "stop",
        "isReal": true,
        "mode": "bus"
      }
    },
    {
      "type": "Feature",
      "geometry": {
        "type": "Point",
        "coordinates": [
          107.6665574,
          -6.93901
        ]
      },
      "properties": {
        "id": "12806868625",
        "name": "Metro",
        "role": "stop",
        "isReal": true,
        "mode": "bus"
      }
    },
    {
      "type": "Feature",
      "geometry": {
        "type": "Point",
        "coordinates": [
          107.6633094,
          -6.9392635
        ]
      },
      "properties": {
        "id": "12806868626",
        "name": "Rancabolang",
        "role": "stop",
        "isReal": true,
        "mode": "bus"
      }
    },
    {
      "type": "Feature",
      "geometry": {
        "type": "Point",
        "coordinates": [
          107.6598099,
          -6.939893
        ]
      },
      "properties": {
        "id": "12806868627",
        "name": "SMKN 7 Bandung",
        "role": "stop",
        "isReal": true,
        "mode": "bus"
      }
    },
    {
      "type": "Feature",
      "geometry": {
        "type": "Point",
        "coordinates": [
          107.6590642,
          -6.9400797
        ]
      },
      "properties": {
        "id": "12806868632",
        "name": "Gagak Rimang",
        "role": "stop",
        "isReal": true,
        "mode": "bus"
      }
    },
    {
      "type": "Feature",
      "geometry": {
        "type": "Point",
        "coordinates": [
          107.6580268,
          -6.9403972
        ]
      },
      "properties": {
        "id": "3272226033",
        "name": "Metro Indah Mall",
        "role": "stop",
        "isReal": true,
        "mode": "bus"
      }
    },
    {
      "type": "Feature",
      "geometry": {
        "type": "Point",
        "coordinates": [
          107.6570876,
          -6.9406892
        ]
      },
      "properties": {
        "id": "12806868633",
        "name": "BPN Kanwil Jabar",
        "role": "stop",
        "isReal": true,
        "mode": "bus"
      }
    },
    {
      "type": "Feature",
      "geometry": {
        "type": "Point",
        "coordinates": [
          107.6529256,
          -6.9420012
        ]
      },
      "properties": {
        "id": "12806851397",
        "name": "Cidurian Selatan",
        "role": "stop",
        "isReal": true,
        "mode": "bus"
      }
    },
    {
      "type": "Feature",
      "geometry": {
        "type": "Point",
        "coordinates": [
          107.6506763,
          -6.9427159
        ]
      },
      "properties": {
        "id": "12806868637",
        "name": "Kantor Pos Sekejati",
        "role": "stop",
        "isReal": true,
        "mode": "bus"
      }
    },
    {
      "type": "Feature",
      "geometry": {
        "type": "Point",
        "coordinates": [
          107.646481,
          -6.944058
        ]
      },
      "properties": {
        "id": "12806868639",
        "name": "Disnaker Jabar",
        "role": "stop",
        "isReal": true,
        "mode": "bus"
      }
    },
    {
      "type": "Feature",
      "geometry": {
        "type": "Point",
        "coordinates": [
          107.6441008,
          -6.9448492
        ]
      },
      "properties": {
        "id": "12806868640",
        "name": "UNINUS",
        "role": "stop",
        "isReal": true,
        "mode": "bus"
      }
    },
    {
      "type": "Feature",
      "geometry": {
        "type": "Point",
        "coordinates": [
          107.6408496,
          -6.9458361
        ]
      },
      "properties": {
        "id": "12806868670",
        "name": "Tenth Avenue",
        "role": "stop",
        "isReal": true,
        "mode": "bus"
      }
    },
    {
      "type": "Feature",
      "geometry": {
        "type": "Point",
        "coordinates": [
          107.6381159,
          -6.9466415
        ]
      },
      "properties": {
        "id": "12806868674",
        "name": "Sekelimus Tengah",
        "role": "stop",
        "isReal": true,
        "mode": "bus"
      }
    },
    {
      "type": "Feature",
      "geometry": {
        "type": "Point",
        "coordinates": [
          107.6353065,
          -6.9475072
        ]
      },
      "properties": {
        "id": "12806868677",
        "name": "Sekelimus Barat",
        "role": "stop",
        "isReal": true,
        "mode": "bus"
      }
    },
    {
      "type": "Feature",
      "geometry": {
        "type": "Point",
        "coordinates": [
          107.6323136,
          -6.9484371
        ]
      },
      "properties": {
        "id": "2614138793",
        "name": "Medal Sekarwangi",
        "role": "stop",
        "isReal": true,
        "mode": "bus"
      }
    },
    {
      "type": "Feature",
      "geometry": {
        "type": "Point",
        "coordinates": [
          107.6281496,
          -6.9494451
        ]
      },
      "properties": {
        "id": "12626499697",
        "name": "Bangunan Mart A",
        "role": "stop",
        "isReal": true,
        "mode": "bus"
      }
    },
    {
      "type": "Feature",
      "geometry": {
        "type": "Point",
        "coordinates": [
          107.6242225,
          -6.9495008
        ]
      },
      "properties": {
        "id": "12626499700",
        "name": "LPKIA A",
        "role": "stop",
        "isReal": true,
        "mode": "bus"
      }
    },
    {
      "type": "Feature",
      "geometry": {
        "type": "Point",
        "coordinates": [
          107.6227995,
          -6.9493807
        ]
      },
      "properties": {
        "id": "12808867752",
        "name": "STIE Inaba",
        "role": "stop",
        "isReal": true,
        "mode": "bus"
      }
    },
    {
      "type": "Feature",
      "geometry": {
        "type": "Point",
        "coordinates": [
          107.62094733333333,
          -6.943829466666667
        ]
      },
      "properties": {
        "id": "virtual_107.6209_-6.9438",
        "name": "Jalan terdekat",
        "role": "virtual",
        "isReal": false,
        "mode": "bus"
      }
    },
    {
      "type": "Feature",
      "geometry": {
        "type": "Point",
        "coordinates": [
          107.61600913333334,
          -6.941217866666666
        ]
      },
      "properties": {
        "id": "virtual_107.6160_-6.9412",
        "name": "Jalan terdekat",
        "role": "virtual",
        "isReal": false,
        "mode": "bus"
      }
    },
    {
      "type": "Feature",
      "geometry": {
        "type": "Point",
        "coordinates": [
          107.6084233,
          -6.9376849
        ]
      },
      "properties": {
        "id": "3376171471",
        "name": "Masjid An Nur PT INTI",
        "role": "stop",
        "isReal": true,
        "mode": "bus"
      }
    },
    {
      "type": "Feature",
      "geometry": {
        "type": "Point",
        "coordinates": [
          107.6055097,
          -6.9375586
        ]
      },
      "properties": {
        "id": "10815723012",
        "name": "Simpang Mohamad Toha Biddokkes",
        "role": "stop",
        "isReal": true,
        "mode": "bus"
      }
    },
    {
      "type": "Feature",
      "geometry": {
        "type": "Point",
        "coordinates": [
          107.6030596,
          -6.9365059
        ]
      },
      "properties": {
        "id": "11739021646",
        "name": "Taman Tegallega",
        "role": "stop",
        "isReal": true,
        "mode": "bus"
      }
    },
    {
      "type": "Feature",
      "geometry": {
        "type": "Point",
        "coordinates": [
          107.6024577,
          -6.9338521
        ]
      },
      "properties": {
        "id": "11739021654",
        "name": "Pintu Masuk Terminal Tegallega",
        "role": "stop",
        "isReal": true,
        "mode": "bus"
      }
    },
    {
      "type": "Feature",
      "geometry": {
        "type": "Point",
        "coordinates": [
          107.601334,
          -6.9306827
        ]
      },
      "properties": {
        "id": "3383341282",
        "name": "Pasar Astana Anyar",
        "role": "stop",
        "isReal": true,
        "mode": "bus"
      }
    },
    {
      "type": "Feature",
      "geometry": {
        "type": "Point",
        "coordinates": [
          107.5917633,
          -6.9260265
        ]
      },
      "properties": {
        "id": "virtual_107.5918_-6.9260",
        "name": "Jalan Pasir Koja",
        "role": "virtual",
        "isReal": false,
        "mode": "bus"
      }
    },
    {
      "type": "Feature",
      "geometry": {
        "type": "Point",
        "coordinates": [
          107.5859557,
          -6.9219839
        ]
      },
      "properties": {
        "id": "2325452491",
        "name": "Unknown",
        "role": "stop",
        "isReal": true,
        "mode": "bus"
      }
    },
    {
      "type": "Feature",
      "geometry": {
        "type": "Point",
        "coordinates": [
          107.5855198,
          -6.9186067
        ]
      },
      "properties": {
        "id": "11711275757",
        "name": "Toko Ambon",
        "role": "stop",
        "isReal": true,
        "mode": "bus"
      }
    },
    {
      "type": "Feature",
      "geometry": {
        "type": "Point",
        "coordinates": [
          107.5819763,
          -6.9181852
        ]
      },
      "properties": {
        "id": "11954573588",
        "name": "SDN Raya Barat",
        "role": "stop",
        "isReal": true,
        "mode": "bus"
      }
    },
    {
      "type": "Feature",
      "geometry": {
        "type": "Point",
        "coordinates": [
          107.5771136,
          -6.9176018
        ]
      },
      "properties": {
        "id": "11711275763",
        "name": "Kemenag Kanwil Jabar",
        "role": "stop",
        "isReal": true,
        "mode": "bus"
      }
    },
    {
      "type": "Feature",
      "geometry": {
        "type": "Point",
        "coordinates": [
          107.5753136,
          -6.9144895
        ]
      },
      "properties": {
        "id": "12013198354",
        "name": "Terminal Elang",
        "role": "stop_exit_only",
        "isReal": true,
        "mode": "bus"
      }
    }
  ]
}