{
  "type": "FeatureCollection",
  "features": [
    {
      "type": "Feature",
      "geometry": {
        "type": "Point",
        "coordinates": [
          107.6992861,
          -6.9158662
        ]
      },
      "properties": {
        "id": "12638331186",
        "name": "RSUD Ujungberung",
        "role": "stop_entry_only",
        "isReal": true,
        "mode": "bus"
      }
    },
    {
      "type": "Feature",
      "geometry": {
        "type": "Point",
        "coordinates": [
          107.69861552222223,
          -6.918102522222222
        ]
      },
      "properties": {
        "id": "virtual_107.6986_-6.9181",
        "name": "Jalan terdekat",
        "role": "virtual",
        "isReal": false,
        "mode": "bus"
      }
    },
    {
      "type": "Feature",
      "geometry": {
        "type": "Point",
        "coordinates": [
          107.69747667777777,
          -6.921400644444445
        ]
      },
      "properties": {
        "id": "virtual_107.6975_-6.9214",
        "name": "Jalan terdekat",
        "role": "virtual",
        "isReal": false,
        "mode": "bus"
      }
    },
    {
      "type": "Feature",
      "geometry": {
        "type": "Point",
        "coordinates": [
          107.69639643333333,
          -6.923577133333334
        ]
      },
      "properties": {
        "id": "virtual_107.6964_-6.9236",
        "name": "Jalan terdekat",
        "role": "virtual",
        "isReal": false,
        "mode": "bus"
      }
    },
    {
      "type": "Feature",
      "geometry": {
        "type": "Point",
        "coordinates": [
          107.69552167777778,
          -6.9254884
        ]
      },
      "properties": {
        "id": "virtual_107.6955_-6.9255",
        "name": "Jalan terdekat",
        "role": "virtual",
        "isReal": false,
        "mode": "bus"
      }
    },
    {
      "type": "Feature",
      "geometry": {
        "type": "Point",
        "coordinates": [
          107.69370442222223,
          -6.930353033333334
        ]
      },
      "properties": {
        "id": "virtual_107.6937_-6.9304",
        "name": "Jalan terdekat",
        "role": "virtual",
        "isReal": false,
        "mode": "bus"
      }
    },
    {
      "type": "Feature",
      "geometry": {
        "type": "Point",
        "coordinates": [
          107.6928614,
          -6.934258322222222
        ]
      },
      "properties": {
        "id": "virtual_107.6929_-6.9343",
        "name": "Jalan terdekat",
        "role": "virtual",
        "isReal": false,
        "mode": "bus"
      }
    },
    {
      "type": "Feature",
      "geometry": {
        "type": "Point",
        "coordinates": [
          107.6918125,
          -6.9372117
        ]
      },
      "properties": {
        "id": "12806516344",
        "name": "Barat Simpang Gedebage",
        "role": "stop",
        "isReal": true,
        "mode": "bus"
      }
    },
    {
      "type": "Feature",
      "geometry": {
        "type": "Point",
        "coordinates": [
          107.68863454,
          -6.9374358
        ]
      },
      "properties": {
        "id": "virtual_107.6886_-6.9374",
        "name": "Jalan terdekat",
        "role": "virtual",
        "isReal": false,
        "mode": "bus"
      }
    },
    {
      "type": "Feature",
      "geometry": {
        "type": "Point",
        "coordinates": [
          107.6858581,
          -6.93764194
        ]
      },
      "properties": {
        "id": "virtual_107.6859_-6.9376",
        "name": "Jalan terdekat",
        "role": "virtual",
        "isReal": false,
        "mode": "bus"
      }
    },
    {
      "type": "Feature",
      "geometry": {
        "type": "Point",
        "coordinates": [
          107.68328732,
          -6.93782362
        ]
      },
      "properties": {
        "id": "virtual_107.6833_-6.9378",
        "name": "Jalan terdekat",
        "role": "virtual",
        "isReal": false,
        "mode": "bus"
      }
    },
    {
      "type": "Feature",
      "geometry": {
        "type": "Point",
        "coordinates": [
          107.6794141,
          -6.9380944
        ]
      },
      "properties": {
        "id": "12806868621",
        "name": "SMKN 6 Bandung",
        "role": "stop",
        "isReal": true,
        "mode": "bus"
      }
    },
    {
      "type": "Feature",
      "geometry": {
        "type": "Point",
        "coordinates": [
          107.6768401,
          -6.9382789
        ]
      },
      "properties": {
        "id": "12806868622",
        "name": "Cipamokolan",
        "role": "stop",
        "isReal": true,
        "mode": "bus"
      }
    },
    {
      "type": "Feature",
      "geometry": {
        "type": "Point",
        "coordinates": [
          107.67441170000001,
          -6.938455299999999
        ]
      },
      "properties": {
        "id": "virtual_107.6744_-6.9385",
        "name": "Jalan terdekat",
        "role": "virtual",
        "isReal": false,
        "mode": "bus"
      }
    },
    {
      "type": "Feature",
      "geometry": {
        "type": "Point",
        "coordinates": [
          107.6729122,
          -6.9385626
        ]
      },
      "properties": {
        "id": "12806868623",
        "name": "Aria Graha",
        "role": "stop",
        "isReal": true,
        "mode": "bus"
      }
    },
    {
      "type": "Feature",
      "geometry": {
        "type": "Point",
        "coordinates": [
          107.6706693,
          -6.93871945
        ]
      },
      "properties": {
        "id": "virtual_107.6707_-6.9387",
        "name": "Jalan terdekat",
        "role": "virtual",
        "isReal": false,
        "mode": "bus"
      }
    },
    {
      "type": "Feature",
      "geometry": {
        "type": "Point",
        "coordinates": [
          107.6692698,
          -6.9388175
        ]
      },
      "properties": {
        "id": "3375689668",
        "name": "RS Al Islam",
        "role": "stop",
        "isReal": true,
        "mode": "bus"
      }
    },
    {
      "type": "Feature",
      "geometry": {
        "type": "Point",
        "coordinates": [
          107.6665574,
          -6.93901
        ]
      },
      "properties": {
        "id": "12806868625",
        "name": "Metro",
        "role": "stop",
        "isReal": true,
        "mode": "bus"
      }
    },
    {
      "type": "Feature",
      "geometry": {
        "type": "Point",
        "coordinates": [
          107.6650224,
          -6.9391212
        ]
      },
      "properties": {
        "id": "virtual_107.6650_-6.9391",
        "name": "Jalan Soekarno-Hatta",
        "role": "virtual",
        "isReal": false,
        "mode": "bus"
      }
    },
    {
      "type": "Feature",
      "geometry": {
        "type": "Point",
        "coordinates": [
          107.6633094,
          -6.9392635
        ]
      },
      "properties": {
        "id": "12806868626",
        "name": "Rancabolang",
        "role": "stop",
        "isReal": true,
        "mode": "bus"
      }
    },
    {
      "type": "Feature",
      "geometry": {
        "type": "Point",
        "coordinates": [
          107.66184530000001,
          -6.9394575
        ]
      },
      "properties": {
        "id": "virtual_107.6618_-6.9395",
        "name": "Jalan terdekat",
        "role": "virtual",
        "isReal": false,
        "mode": "bus"
      }
    },
    {
      "type": "Feature",
      "geometry": {
        "type": "Point",
        "coordinates": [
          107.6598099,
          -6.939893
        ]
      },
      "properties": {
        "id": "12806868627",
        "name": "SMKN 7 Bandung",
        "role": "stop",
        "isReal": true,
        "mode": "bus"
      }
    },
    {
      "type": "Feature",
      "geometry": {
        "type": "Point",
        "coordinates": [
          107.6590642,
          -6.9400797
        ]
      },
      "properties": {
        "id": "12806868632",
        "name": "Gagak Rimang",
        "role": "stop",
        "isReal": true,
        "mode": "bus"
      }
    },
    {
      "type": "Feature",
      "geometry": {
        "type": "Point",
        "coordinates": [
          107.6580268,
          -6.9403972
        ]
      },
      "properties": {
        "id": "3272226033",
        "name": "Metro Indah Mall",
        "role": "stop",
        "isReal": true,
        "mode": "bus"
      }
    },
    {
      "type": "Feature",
      "geometry": {
        "type": "Point",
        "coordinates": [
          107.6570876,
          -6.9406892
        ]
      },
      "properties": {
        "id": "12806868633",
        "name": "BPN Kanwil Jabar",
        "role": "stop",
        "isReal": true,
        "mode": "bus"
      }
    },
    {
      "type": "Feature",
      "geometry": {
        "type": "Point",
        "coordinates": [
          107.65476125,
          -6.94143105
        ]
      },
      "properties": {
        "id": "virtual_107.6548_-6.9414",
        "name": "Jalan terdekat",
        "role": "virtual",
        "isReal": false,
        "mode": "bus"
      }
    },
    {
      "type": "Feature",
      "geometry": {
        "type": "Point",
        "coordinates": [
          107.6529256,
          -6.9420012
        ]
      },
      "properties": {
        "id": "12806851397",
        "name": "Cidurian Selatan",
        "role": "stop",
        "isReal": true,
        "mode": "bus"
      }
    },
    {
      "type": "Feature",
      "geometry": {
        "type": "Point",
        "coordinates": [
          107.6506763,
          -6.9427159
        ]
      },
      "properties": {
        "id": "12806868637",
        "name": "Kantor Pos Sekejati",
        "role": "stop",
        "isReal": true,
        "mode": "bus"
      }
    },
    {
      "type": "Feature",
      "geometry": {
        "type": "Point",
        "coordinates": [
          107.64914775,
          -6.9432114
        ]
      },
      "properties": {
        "id": "virtual_107.6491_-6.9432",
        "name": "Jalan terdekat",
        "role": "virtual",
        "isReal": false,
        "mode": "bus"
      }
    },
    {
      "type": "Feature",
      "geometry": {
        "type": "Point",
        "coordinates": [
          107.646481,
          -6.944058
        ]
      },
      "properties": {
        "id": "12806868639",
        "name": "Disnaker Jabar",
        "role": "stop",
        "isReal": true,
        "mode": "bus"
      }
    },
    {
      "type": "Feature",
      "geometry": {
        "type": "Point",
        "coordinates": [
          107.6441008,
          -6.9448492
        ]
      },
      "properties": {
        "id": "12806868640",
        "name": "UNINUS",
        "role": "stop",
        "isReal": true,
        "mode": "bus"
      }
    },
    {
      "type": "Feature",
      "geometry": {
        "type": "Point",
        "coordinates": [
          107.64220265,
          -6.9454492
        ]
      },
      "properties": {
        "id": "virtual_107.6422_-6.9454",
        "name": "Jalan terdekat",
        "role": "virtual",
        "isReal": false,
        "mode": "bus"
      }
    },
    {
      "type": "Feature",
      "geometry": {
        "type": "Point",
        "coordinates": [
          107.6408496,
          -6.9458361
        ]
      },
      "properties": {
        "id": "12806868670",
        "name": "Tenth Avenue",
        "role": "stop",
        "isReal": true,
        "mode": "bus"
      }
    },
    {
      "type": "Feature",
      "geometry": {
        "type": "Point",
        "coordinates": [
          107.6381159,
          -6.9466415
        ]
      },
      "properties": {
        "id": "12806868674",
        "name": "Sekelimus Tengah",
        "role": "stop",
        "isReal": true,
        "mode": "bus"
      }
    },
    {
      "type": "Feature",
      "geometry": {
        "type": "Point",
        "coordinates": [
          107.63674595,
          -6.9470548
        ]
      },
      "properties": {
        "id": "virtual_107.6367_-6.9471",
        "name": "Jalan terdekat",
        "role": "virtual",
        "isReal": false,
        "mode": "bus"
      }
    },
    {
      "type": "Feature",
      "geometry": {
        "type": "Point",
        "coordinates": [
          107.6353065,
          -6.9475072
        ]
      },
      "properties": {
        "id": "12806868677",
        "name": "Sekelimus Barat",
        "role": "stop",
        "isReal": true,
        "mode": "bus"
      }
    },
    {
      "type": "Feature",
      "geometry": {
        "type": "Point",
        "coordinates": [
          107.6323136,
          -6.9484371
        ]
      },
      "properties": {
        "id": "2614138793",
        "name": "Medal Sekarwangi",
        "role": "stop",
        "isReal": true,
        "mode": "bus"
      }
    },
    {
      "type": "Feature",
      "geometry": {
        "type": "Point",
        "coordinates": [
          107.6296209,
          -6.9491718
        ]
      },
      "properties": {
        "id": "virtual_107.6296_-6.9492",
        "name": "Jalan Soekarno-Hatta",
        "role": "virtual",
        "isReal": false,
        "mode": "bus"
      }
    },
    {
      "type": "Feature",
      "geometry": {
        "type": "Point",
        "coordinates": [
          107.6281496,
          -6.9494451
        ]
      },
      "properties": {
        "id": "12626499697",
        "name": "Bangunan Mart A",
        "role": "stop",
        "isReal": true,
        "mode": "bus"
      }
    },
    {
      "type": "Feature",
      "geometry": {
        "type": "Point",
        "coordinates": [
          107.62637219999999,
          -6.949560399999999
        ]
      },
      "properties": {
        "id": "virtual_107.6264_-6.9496",
        "name": "Jalan terdekat",
        "role": "virtual",
        "isReal": false,
        "mode": "bus"
      }
    },
    {
      "type": "Feature",
      "geometry": {
        "type": "Point",
        "coordinates": [
          107.6242225,
          -6.9495008
        ]
      },
      "properties": {
        "id": "12626499700",
        "name": "LPKIA A",
        "role": "stop",
        "isReal": true,
        "mode": "bus"
      }
    },
    {
      "type": "Feature",
      "geometry": {
        "type": "Point",
        "coordinates": [
          107.6227995,
          -6.9493807
        ]
      },
      "properties": {
        "id": "12808867752",
        "name": "STIE Inaba",
        "role": "stop",
        "isReal": true,
        "mode": "bus"
      }
    },
    {
      "type": "Feature",
      "geometry": {
        "type": "Point",
        "coordinates": [
          107.61981737142858,
          -6.9490351
        ]
      },
      "properties": {
        "id": "virtual_107.6198_-6.9490",
        "name": "Jalan terdekat",
        "role": "virtual",
        "isReal": false,
        "mode": "bus"
      }
    },
    {
      "type": "Feature",
      "geometry": {
        "type": "Point",
        "coordinates": [
          107.6210748,
          -6.944356114285714
        ]
      },
      "properties": {
        "id": "virtual_107.6211_-6.9444",
        "name": "Jalan terdekat",
        "role": "virtual",
        "isReal": false,
        "mode": "bus"
      }
    },
    {
      "type": "Feature",
      "geometry": {
        "type": "Point",
        "coordinates": [
          107.61978958571429,
          -6.943709328571429
        ]
      },
      "properties": {
        "id": "virtual_107.6198_-6.9437",
        "name": "Jalan terdekat",
        "role": "virtual",
        "isReal": false,
        "mode": "bus"
      }
    },
    {
      "type": "Feature",
      "geometry": {
        "type": "Point",
        "coordinates": [
          107.61656112857142,
          -6.943491328571429
        ]
      },
      "properties": {
        "id": "virtual_107.6166_-6.9435",
        "name": "Jalan terdekat",
        "role": "virtual",
        "isReal": false,
        "mode": "bus"
      }
    },
    {
      "type": "Feature",
      "geometry": {
        "type": "Point",
        "coordinates": [
          107.61604551428572,
          -6.939413028571429
        ]
      },
      "properties": {
        "id": "virtual_107.6160_-6.9394",
        "name": "Jalan terdekat",
        "role": "virtual",
        "isReal": false,
        "mode": "bus"
      }
    },
    {
      "type": "Feature",
      "geometry": {
        "type": "Point",
        "coordinates": [
          107.61277834285714,
          -6.937837485714286
        ]
      },
      "properties": {
        "id": "virtual_107.6128_-6.9378",
        "name": "Jalan terdekat",
        "role": "virtual",
        "isReal": false,
        "mode": "bus"
      }
    },
    {
      "type": "Feature",
      "geometry": {
        "type": "Point",
        "coordinates": [
          107.6084233,
          -6.9376849
        ]
      },
      "properties": {
        "id": "3376171471",
        "name": "Masjid An Nur PT INTI",
        "role": "stop",
        "isReal": true,
        "mode": "bus"
      }
    },
    {
      "type": "Feature",
      "geometry": {
        "type": "Point",
        "coordinates": [
          107.6055097,
          -6.9375586
        ]
      },
      "properties": {
        "id": "10815723012",
        "name": "Simpang Mohamad Toha Biddokkes",
        "role": "stop",
        "isReal": true,
        "mode": "bus"
      }
    },
    {
      "type": "Feature",
      "geometry": {
        "type": "Point",
        "coordinates": [
          107.6030596,
          -6.9365059
        ]
      },
      "properties": {
        "id": "11739021646",
        "name": "Taman Tegallega",
        "role": "stop",
        "isReal": true,
        "mode": "bus"
      }
    },
    {
      "type": "Feature",
      "geometry": {
        "type": "Point",
        "coordinates": [
          107.6024577,
          -6.9338521
        ]
      },
      "properties": {
        "id": "11739021654",
        "name": "Pintu Masuk Terminal Tegallega",
        "role": "stop",
        "isReal": true,
        "mode": "bus"
      }
    },
    {
      "type": "Feature",
      "geometry": {
        "type": "Point",
        "coordinates": [
          107.60203455,
          -6.9320079
        ]
      },
      "properties": {
        "id": "virtual_107.6020_-6.9320",
        "name": "Jalan terdekat",
        "role": "virtual",
        "isReal": false,
        "mode": "bus"
      }
    },
    {
      "type": "Feature",
      "geometry": {
        "type": "Point",
        "coordinates": [
          107.601334,
          -6.9306827
        ]
      },
      "properties": {
        "id": "3383341282",
        "name": "Pasar Astana Anyar",
        "role": "stop",
        "isReal": true,
        "mode": "bus"
      }
    },
    {
      "type": "Feature",
      "geometry": {
        "type": "Point",
        "coordinates": [
          107.59976197142858,
          -6.9301255
        ]
      },
      "properties": {
        "id": "virtual_107.5998_-6.9301",
        "name": "Jalan terdekat",
        "role": "virtual",
        "isReal": false,
        "mode": "bus"
      }
    },
    {
      "type": "Feature",
      "geometry": {
        "type": "Point",
        "coordinates": [
          107.59819401428571,
          -6.926728014285715
        ]
      },
      "properties": {
        "id": "virtual_107.5982_-6.9267",
        "name": "Jalan terdekat",
        "role": "virtual",
        "isReal": false,
        "mode": "bus"
      }
    },
    {
      "type": "Feature",
      "geometry": {
        "type": "Point",
        "coordinates": [
          107.59331977142857,
          -6.926188014285714
        ]
      },
      "properties": {
        "id": "virtual_107.5933_-6.9262",
        "name": "Jalan terdekat",
        "role": "virtual",
        "isReal": false,
        "mode": "bus"
      }
    },
    {
      "type": "Feature",
      "geometry": {
        "type": "Point",
        "coordinates": [
          107.5897583,
          -6.925816357142857
        ]
      },
      "properties": {
        "id": "virtual_107.5898_-6.9258",
        "name": "Jalan terdekat",
        "role": "virtual",
        "isReal": false,
        "mode": "bus"
      }
    },
    {
      "type": "Feature",
      "geometry": {
        "type": "Point",
        "coordinates": [
          107.58743064285714,
          -6.926067785714286
        ]
      },
      "properties": {
        "id": "virtual_107.5874_-6.9261",
        "name": "Jalan terdekat",
        "role": "virtual",
        "isReal": false,
        "mode": "bus"
      }
    },
    {
      "type": "Feature",
      "geometry": {
        "type": "Point",
        "coordinates": [
          107.58548254285714,
          -6.926396185714286
        ]
      },
      "properties": {
        "id": "virtual_107.5855_-6.9264",
        "name": "Jalan terdekat",
        "role": "virtual",
        "isReal": false,
        "mode": "bus"
      }
    },
    {
      "type": "Feature",
      "geometry": {
        "type": "Point",
        "coordinates": [
          107.5859557,
          -6.9219839
        ]
      },
      "properties": {
        "id": "2325452491",
        "name": "Unknown",
        "role": "stop",
        "isReal": true,
        "mode": "bus"
      }
    },
    {
      "type": "Feature",
      "geometry": {
        "type": "Point",
        "coordinates": [
          107.5855198,
          -6.9186067
        ]
      },
      "properties": {
        "id": "11711275757",
        "name": "Toko Ambon",
        "role": "stop",
        "isReal": true,
        "mode": "bus"
      }
    },
    {
      "type": "Feature",
      "geometry": {
        "type": "Point",
        "coordinates": [
          107.5840062,
          -6.9184165
        ]
      },
      "properties": {
        "id": "virtual_107.5840_-6.9184",
        "name": "Jalan Jendral Sudirman",
        "role": "virtual",
        "isReal": false,
        "mode": "bus"
      }
    },
    {
      "type": "Feature",
      "geometry": {
        "type": "Point",
        "coordinates": [
          107.5819763,
          -6.9181852
        ]
      },
      "properties": {
        "id": "11954573588",
        "name": "SDN Raya Barat",
        "role": "stop",
        "isReal": true,
        "mode": "bus"
      }
    },
    {
      "type": "Feature",
      "geometry": {
        "type": "Point",
        "coordinates": [
          107.57905685,
          -6.9178194
        ]
      },
      "properties": {
        "id": "virtual_107.5791_-6.9178",
        "name": "Jalan terdekat",
        "role": "virtual",
        "isReal": false,
        "mode": "bus"
      }
    },
    {
      "type": "Feature",
      "geometry": {
        "type": "Point",
        "coordinates": [
          107.5771136,
          -6.9176018
        ]
      },
      "properties": {
        "id": "11711275763",
        "name": "Kemenag Kanwil Jabar",
        "role": "stop",
        "isReal": true,
        "mode": "bus"
      }
    },
    {
      "type": "Feature",
      "geometry": {
        "type": "Point",
        "coordinates": [
          107.57457445,
          -6.9171572
        ]
      },
      "properties": {
        "id": "virtual_107.5746_-6.9172",
        "name": "Jalan terdekat",
        "role": "virtual",
        "isReal": false,
        "mode": "bus"
      }
    },
    {
      "type": "Feature",
      "geometry": {
        "type": "Point",
        "coordinates": [
          107.5753136,
          -6.9144895
        ]
      },
      "properties": {
        "id": "12013198354",
        "name": "Terminal Elang",
        "role": "stop_exit_only",
        "isReal": true,
        "mode": "bus"
      }
    }
  ]
}