{
  "type": "FeatureCollection",
  "features": [
    {
      "type": "Feature",
      "geometry": {
        "type": "Point",
        "coordinates": [
          107.6992861,
          -6.9158662
        ]
      },
      "properties": {
        "id": "12638331186",
        "name": "RSUD Ujungberung",
        "role": "stop_entry_only",
        "mode": "bus"
      }
    },
    {
      "type": "Feature",
      "geometry": {
        "type": "Point",
        "coordinates": [
          107.6985608,
          -6.9182368
        ]
      },
      "properties": {
        "id": "v_107.698561_-6.918237",
        "name": "Jalan Rumah Sakit",
        "role": "virtual",
        "mode": "bus"
      }
    },
    {
      "type": "Feature",
      "geometry": {
        "type": "Point",
        "coordinates": [
          107.6976627,
          -6.9208368
        ]
      },
      "properties": {
        "id": "v_107.697663_-6.920837",
        "name": "Jalan Rumah Sakit",
        "role": "virtual",
        "mode": "bus"
      }
    },
    {
      "type": "Feature",
      "geometry": {
        "type": "Point",
        "coordinates": [
          107.6967262,
          -6.9229736
        ]
      },
      "properties": {
        "id": "v_107.696726_-6.922974",
        "name": "Jalan Rumah Sakit",
        "role": "virtual",
        "mode": "bus"
      }
    },
    {
      "type": "Feature",
      "geometry": {
        "type": "Point",
        "coordinates": [
          107.6956949,
          -6.925036
        ]
      },
      "properties": {
        "id": "v_107.695695_-6.925036",
        "name": "Jalan Rumah Sakit",
        "role": "virtual",
        "mode": "bus"
      }
    },
    {
      "type": "Feature",
      "geometry": {
        "type": "Point",
        "coordinates": [
          107.6945747,
          -6.9280103
        ]
      },
      "properties": {
        "id": "v_107.694575_-6.928010",
        "name": "Jalan Rumah Sakit",
        "role": "virtual",
        "mode": "bus"
      }
    },
    {
      "type": "Feature",
      "geometry": {
        "type": "Point",
        "coordinates": [
          107.6937198,
          -6.9303085
        ]
      },
      "properties": {
        "id": "v_107.693720_-6.930308",
        "name": "Jalan Rumah Sakit",
        "role": "virtual",
        "mode": "bus"
      }
    },
    {
      "type": "Feature",
      "geometry": {
        "type": "Point",
        "coordinates": [
          107.6930017,
          -6.9325813
        ]
      },
      "properties": {
        "id": "v_107.693002_-6.932581",
        "name": "Jalan Rumah Sakit",
        "role": "virtual",
        "mode": "bus"
      }
    },
    {
      "type": "Feature",
      "geometry": {
        "type": "Point",
        "coordinates": [
          107.6927921,
          -6.9349278
        ]
      },
      "properties": {
        "id": "v_107.692792_-6.934928",
        "name": "Jalan Rumah Sakit",
        "role": "virtual",
        "mode": "bus"
      }
    },
    {
      "type": "Feature",
      "geometry": {
        "type": "Point",
        "coordinates": [
          107.6918125,
          -6.9372117
        ]
      },
      "properties": {
        "id": "12806516344",
        "name": "Barat Simpang Gedebage",
        "role": "stop",
        "mode": "bus"
      }
    },
    {
      "type": "Feature",
      "geometry": {
        "type": "Point",
        "coordinates": [
          107.6883969,
          -6.9374526
        ]
      },
      "properties": {
        "id": "v_107.688397_-6.937453",
        "name": "Jalan Soekarno-Hatta",
        "role": "virtual",
        "mode": "bus"
      }
    },
    {
      "type": "Feature",
      "geometry": {
        "type": "Point",
        "coordinates": [
          107.686101,
          -6.9376237
        ]
      },
      "properties": {
        "id": "v_107.686101_-6.937624",
        "name": "Jalan Soekarno-Hatta",
        "role": "virtual",
        "mode": "bus"
      }
    },
    {
      "type": "Feature",
      "geometry": {
        "type": "Point",
        "coordinates": [
          107.6824446,
          -6.9378809
        ]
      },
      "properties": {
        "id": "v_107.682445_-6.937881",
        "name": "Jalan Soekarno-Hatta",
        "role": "virtual",
        "mode": "bus"
      }
    },
    {
      "type": "Feature",
      "geometry": {
        "type": "Point",
        "coordinates": [
          107.6794141,
          -6.9380944
        ]
      },
      "properties": {
        "id": "12806868621",
        "name": "SMKN 6 Bandung",
        "role": "stop",
        "mode": "bus"
      }
    },
    {
      "type": "Feature",
      "geometry": {
        "type": "Point",
        "coordinates": [
          107.6768401,
          -6.9382789
        ]
      },
      "properties": {
        "id": "12806868622",
        "name": "Cipamokolan",
        "role": "stop",
        "mode": "bus"
      }
    },
    {
      "type": "Feature",
      "geometry": {
        "type": "Point",
        "coordinates": [
          107.6729122,
          -6.9385626
        ]
      },
      "properties": {
        "id": "12806868623",
        "name": "Aria Graha",
        "role": "stop",
        "mode": "bus"
      }
    },
    {
      "type": "Feature",
      "geometry": {
        "type": "Point",
        "coordinates": [
          107.6692698,
          -6.9388175
        ]
      },
      "properties": {
        "id": "3375689668",
        "name": "RS Al Islam",
        "role": "stop",
        "mode": "bus"
      }
    },
    {
      "type": "Feature",
      "geometry": {
        "type": "Point",
        "coordinates": [
          107.6665574,
          -6.93901
        ]
      },
      "properties": {
        "id": "12806868625",
        "name": "Metro",
        "role": "stop",
        "mode": "bus"
      }
    },
    {
      "type": "Feature",
      "geometry": {
        "type": "Point",
        "coordinates": [
          107.6633094,
          -6.9392635
        ]
      },
      "properties": {
        "id": "12806868626",
        "name": "Rancabolang",
        "role": "stop",
        "mode": "bus"
      }
    },
    {
      "type": "Feature",
      "geometry": {
        "type": "Point",
        "coordinates": [
          107.6598099,
          -6.939893
        ]
      },
      "properties": {
        "id": "12806868627",
        "name": "SMKN 7 Bandung",
        "role": "stop",
        "mode": "bus"
      }
    },
    {
      "type": "Feature",
      "geometry": {
        "type": "Point",
        "coordinates": [
          107.6590642,
          -6.9400797
        ]
      },
      "properties": {
        "id": "12806868632",
        "name": "Gagak Rimang",
        "role": "stop",
        "mode": "bus"
      }
    },
    {
      "type": "Feature",
      "geometry": {
        "type": "Point",
        "coordinates": [
          107.6580268,
          -6.9403972
        ]
      },
      "properties": {
        "id": "3272226033",
        "name": "Metro Indah Mall",
        "role": "stop",
        "mode": "bus"
      }
    },
    {
      "type": "Feature",
      "geometry": {
        "type": "Point",
        "coordinates": [
          107.6570876,
          -6.9406892
        ]
      },
      "properties": {
        "id": "12806868633",
        "name": "BPN Kanwil Jabar",
        "role": "stop",
        "mode": "bus"
      }
    },
    {
      "type": "Feature",
      "geometry": {
        "type": "Point",
        "coordinates": [
          107.6529256,
          -6.9420012
        ]
      },
      "properties": {
        "id": "12806851397",
        "name": "Cidurian Selatan",
        "role": "stop",
        "mode": "bus"
      }
    },
    {
      "type": "Feature",
      "geometry": {
        "type": "Point",
        "coordinates": [
          107.6506763,
          -6.9427159
        ]
      },
      "properties": {
        "id": "12806868637",
        "name": "Kantor Pos Sekejati",
        "role": "stop",
        "mode": "bus"
      }
    },
    {
      "type": "Feature",
      "geometry": {
        "type": "Point",
        "coordinates": [
          107.646481,
          -6.944058
        ]
      },
      "properties": {
        "id": "12806868639",
        "name": "Disnaker Jabar",
        "role": "stop",
        "mode": "bus"
      }
    },
    {
      "type": "Feature",
      "geometry": {
        "type": "Point",
        "coordinates": [
          107.6441008,
          -6.9448492
        ]
      },
      "properties": {
        "id": "12806868640",
        "name": "UNINUS",
        "role": "stop",
        "mode": "bus"
      }
    },
    {
      "type": "Feature",
      "geometry": {
        "type": "Point",
        "coordinates": [
          107.6408496,
          -6.9458361
        ]
      },
      "properties": {
        "id": "12806868670",
        "name": "Tenth Avenue",
        "role": "stop",
        "mode": "bus"
      }
    },
    {
      "type": "Feature",
      "geometry": {
        "type": "Point",
        "coordinates": [
          107.6381159,
          -6.9466415
        ]
      },
      "properties": {
        "id": "12806868674",
        "name": "Sekelimus Tengah",
        "role": "stop",
        "mode": "bus"
      }
    },
    {
      "type": "Feature",
      "geometry": {
        "type": "Point",
        "coordinates": [
          107.6353065,
          -6.9475072
        ]
      },
      "properties": {
        "id": "12806868677",
        "name": "Sekelimus Barat",
        "role": "stop",
        "mode": "bus"
      }
    },
    {
      "type": "Feature",
      "geometry": {
        "type": "Point",
        "coordinates": [
          107.6323136,
          -6.9484371
        ]
      },
      "properties": {
        "id": "2614138793",
        "name": "Medal Sekarwangi",
        "role": "stop",
        "mode": "bus"
      }
    },
    {
      "type": "Feature",
      "geometry": {
        "type": "Point",
        "coordinates": [
          107.6281496,
          -6.9494451
        ]
      },
      "properties": {
        "id": "12626499697",
        "name": "Bangunan Mart A",
        "role": "stop",
        "mode": "bus"
      }
    },
    {
      "type": "Feature",
      "geometry": {
        "type": "Point",
        "coordinates": [
          107.6242225,
          -6.9495008
        ]
      },
      "properties": {
        "id": "12626499700",
        "name": "LPKIA A",
        "role": "stop",
        "mode": "bus"
      }
    },
    {
      "type": "Feature",
      "geometry": {
        "type": "Point",
        "coordinates": [
          107.6227995,
          -6.9493807
        ]
      },
      "properties": {
        "id": "12808867752",
        "name": "STIE Inaba",
        "role": "stop",
        "mode": "bus"
      }
    },
    {
      "type": "Feature",
      "geometry": {
        "type": "Point",
        "coordinates": [
          107.6203693,
          -6.9491853
        ]
      },
      "properties": {
        "id": "v_107.620369_-6.949185",
        "name": "Jalan Soekarno-Hatta",
        "role": "virtual",
        "mode": "bus"
      }
    },
    {
      "type": "Feature",
      "geometry": {
        "type": "Point",
        "coordinates": [
          107.6211978,
          -6.9457709
        ]
      },
      "properties": {
        "id": "v_107.621198_-6.945771",
        "name": "Jalan Pasir Salam",
        "role": "virtual",
        "mode": "bus"
      }
    },
    {
      "type": "Feature",
      "geometry": {
        "type": "Point",
        "coordinates": [
          107.6201767,
          -6.943697
        ]
      },
      "properties": {
        "id": "v_107.620177_-6.943697",
        "name": "Jalan Pasir Salam",
        "role": "virtual",
        "mode": "bus"
      }
    },
    {
      "type": "Feature",
      "geometry": {
        "type": "Point",
        "coordinates": [
          107.6177533,
          -6.943647
        ]
      },
      "properties": {
        "id": "v_107.617753_-6.943647",
        "name": "Jalan Pasir Salam",
        "role": "virtual",
        "mode": "bus"
      }
    },
    {
      "type": "Feature",
      "geometry": {
        "type": "Point",
        "coordinates": [
          107.6160002,
          -6.9418508
        ]
      },
      "properties": {
        "id": "v_107.616000_-6.941851",
        "name": "Jalan Pasirluyu Barat",
        "role": "virtual",
        "mode": "bus"
      }
    },
    {
      "type": "Feature",
      "geometry": {
        "type": "Point",
        "coordinates": [
          107.6160438,
          -6.9394735
        ]
      },
      "properties": {
        "id": "v_107.616044_-6.939474",
        "name": "Jalan Pasirluyu Barat",
        "role": "virtual",
        "mode": "bus"
      }
    },
    {
      "type": "Feature",
      "geometry": {
        "type": "Point",
        "coordinates": [
          107.6138239,
          -6.9378694
        ]
      },
      "properties": {
        "id": "v_107.613824_-6.937869",
        "name": "Jalan BKR",
        "role": "virtual",
        "mode": "bus"
      }
    },
    {
      "type": "Feature",
      "geometry": {
        "type": "Point",
        "coordinates": [
          107.6084233,
          -6.9376849
        ]
      },
      "properties": {
        "id": "3376171471",
        "name": "Masjid An Nur PT INTI",
        "role": "stop",
        "mode": "bus"
      }
    },
    {
      "type": "Feature",
      "geometry": {
        "type": "Point",
        "coordinates": [
          107.6055097,
          -6.9375586
        ]
      },
      "properties": {
        "id": "10815723012",
        "name": "Simpang Mohamad Toha Biddokkes",
        "role": "stop",
        "mode": "bus"
      }
    },
    {
      "type": "Feature",
      "geometry": {
        "type": "Point",
        "coordinates": [
          107.6030596,
          -6.9365059
        ]
      },
      "properties": {
        "id": "11739021646",
        "name": "Taman Tegallega",
        "role": "stop",
        "mode": "bus"
      }
    },
    {
      "type": "Feature",
      "geometry": {
        "type": "Point",
        "coordinates": [
          107.6024577,
          -6.9338521
        ]
      },
      "properties": {
        "id": "11739021654",
        "name": "Pintu Masuk Terminal Tegallega",
        "role": "stop",
        "mode": "bus"
      }
    },
    {
      "type": "Feature",
      "geometry": {
        "type": "Point",
        "coordinates": [
          107.601334,
          -6.9306827
        ]
      },
      "properties": {
        "id": "3383341282",
        "name": "Pasar Astana Anyar",
        "role": "stop",
        "mode": "bus"
      }
    },
    {
      "type": "Feature",
      "geometry": {
        "type": "Point",
        "coordinates": [
          107.5986352,
          -6.9299972
        ]
      },
      "properties": {
        "id": "v_107.598635_-6.929997",
        "name": "Jalan Panjunan",
        "role": "virtual",
        "mode": "bus"
      }
    },
    {
      "type": "Feature",
      "geometry": {
        "type": "Point",
        "coordinates": [
          107.5979226,
          -6.9278179
        ]
      },
      "properties": {
        "id": "v_107.597923_-6.927818",
        "name": "Jalan Kopo",
        "role": "virtual",
        "mode": "bus"
      }
    },
    {
      "type": "Feature",
      "geometry": {
        "type": "Point",
        "coordinates": [
          107.5960199,
          -6.9264972
        ]
      },
      "properties": {
        "id": "v_107.596020_-6.926497",
        "name": "Jalan Pasir Koja",
        "role": "virtual",
        "mode": "bus"
      }
    },
    {
      "type": "Feature",
      "geometry": {
        "type": "Point",
        "coordinates": [
          107.5933578,
          -6.9261911
        ]
      },
      "properties": {
        "id": "v_107.593358_-6.926191",
        "name": "Jalan Pasir Koja",
        "role": "virtual",
        "mode": "bus"
      }
    },
    {
      "type": "Feature",
      "geometry": {
        "type": "Point",
        "coordinates": [
          107.5907126,
          -6.9259066
        ]
      },
      "properties": {
        "id": "v_107.590713_-6.925907",
        "name": "Jalan Pasir Koja",
        "role": "virtual",
        "mode": "bus"
      }
    },
    {
      "type": "Feature",
      "geometry": {
        "type": "Point",
        "coordinates": [
          107.5882726,
          -6.9258633
        ]
      },
      "properties": {
        "id": "v_107.588273_-6.925863",
        "name": "Jalan Pasir Koja",
        "role": "virtual",
        "mode": "bus"
      }
    },
    {
      "type": "Feature",
      "geometry": {
        "type": "Point",
        "coordinates": [
          107.5858295,
          -6.9267077
        ]
      },
      "properties": {
        "id": "v_107.585830_-6.926708",
        "name": "Jalan Pasir Koja",
        "role": "virtual",
        "mode": "bus"
      }
    },
    {
      "type": "Feature",
      "geometry": {
        "type": "Point",
        "coordinates": [
          107.5856433,
          -6.924304
        ]
      },
      "properties": {
        "id": "v_107.585643_-6.924304",
        "name": "Jalan Jamika",
        "role": "virtual",
        "mode": "bus"
      }
    },
    {
      "type": "Feature",
      "geometry": {
        "type": "Point",
        "coordinates": [
          107.5859557,
          -6.9219839
        ]
      },
      "properties": {
        "id": "2325452491",
        "name": "Unknown",
        "role": "stop",
        "mode": "bus"
      }
    },
    {
      "type": "Feature",
      "geometry": {
        "type": "Point",
        "coordinates": [
          107.5855198,
          -6.9186067
        ]
      },
      "properties": {
        "id": "11711275757",
        "name": "Toko Ambon",
        "role": "stop",
        "mode": "bus"
      }
    },
    {
      "type": "Feature",
      "geometry": {
        "type": "Point",
        "coordinates": [
          107.5819763,
          -6.9181852
        ]
      },
      "properties": {
        "id": "11954573588",
        "name": "SDN Raya Barat",
        "role": "stop",
        "mode": "bus"
      }
    },
    {
      "type": "Feature",
      "geometry": {
        "type": "Point",
        "coordinates": [
          107.5771136,
          -6.9176018
        ]
      },
      "properties": {
        "id": "11711275763",
        "name": "Kemenag Kanwil Jabar",
        "role": "stop",
        "mode": "bus"
      }
    },
    {
      "type": "Feature",
      "geometry": {
        "type": "Point",
        "coordinates": [
          107.5748109,
          -6.9172338
        ]
      },
      "properties": {
        "id": "v_107.574811_-6.917234",
        "name": "Jalan Jendral Sudirman",
        "role": "virtual",
        "mode": "bus"
      }
    },
    {
      "type": "Feature",
      "geometry": {
        "type": "Point",
        "coordinates": [
          107.5753136,
          -6.9144895
        ]
      },
      "properties": {
        "id": "12013198354",
        "name": "Terminal Elang",
        "role": "stop_exit_only",
        "mode": "bus"
      }
    }
  ]
}