{
  "type": "FeatureCollection",
  "features": [
    {
      "type": "Feature",
      "geometry": {
        "type": "Point",
        "coordinates": [
          107.5753136,
          -6.9144895
        ]
      },
      "properties": {
        "id": "12013198354",
        "name": "Terminal Elang",
        "role": "stop_entry_only",
        "bus": "yes",
        "public_transport": "stop_position"
      }
    },
    {
      "type": "Feature",
      "geometry": {
        "type": "Point",
        "coordinates": [
          107.575247,
          -6.9252035
        ]
      },
      "properties": {
        "id": "12808867767",
        "name": "Holis 1",
        "role": "stop",
        "bus": "yes",
        "public_transport": "stop_position"
      }
    },
    {
      "type": "Feature",
      "geometry": {
        "type": "Point",
        "coordinates": [
          107.5763049,
          -6.9313117
        ]
      },
      "properties": {
        "id": "12808867765",
        "name": "Sumbersari 1",
        "role": "stop",
        "bus": "yes",
        "public_transport": "stop_position"
      }
    },
    {
      "type": "Feature",
      "geometry": {
        "type": "Point",
        "coordinates": [
          107.576671,
          -6.9323901
        ]
      },
      "properties": {
        "id": "12626357398",
        "name": "Sumber Sari Junction",
        "role": "stop",
        "bus": "yes",
        "public_transport": "stop_position"
      }
    },
    {
      "type": "Feature",
      "geometry": {
        "type": "Point",
        "coordinates": [
          107.5831212,
          -6.9419015
        ]
      },
      "properties": {
        "id": "12626357399",
        "name": "Pasar Induk Caringin",
        "role": "stop",
        "bus": "yes",
        "public_transport": "stop_position"
      }
    },
    {
      "type": "Feature",
      "geometry": {
        "type": "Point",
        "coordinates": [
          107.5850407,
          -6.9434372
        ]
      },
      "properties": {
        "id": "12808867764",
        "name": "Simpang Caringin",
        "role": "stop",
        "bus": "yes",
        "public_transport": "stop_position"
      }
    },
    {
      "type": "Feature",
      "geometry": {
        "type": "Point",
        "coordinates": [
          107.5934341,
          -6.9468277
        ]
      },
      "properties": {
        "id": "11295303565",
        "name": "Leuwipanjang Soekarno Hatta",
        "role": "stop",
        "bus": "yes",
        "public_transport": "stop_position"
      }
    },
    {
      "type": "Feature",
      "geometry": {
        "type": "Point",
        "coordinates": [
          107.6022466,
          -6.9478017
        ]
      },
      "properties": {
        "id": "12808867762",
        "name": "Inhoftank",
        "role": "stop",
        "bus": "yes",
        "public_transport": "stop_position"
      }
    },
    {
      "type": "Feature",
      "geometry": {
        "type": "Point",
        "coordinates": [
          107.6051379,
          -6.9479853
        ]
      },
      "properties": {
        "id": "12808867760",
        "name": "Seberang Ampera Soekarno Hatta",
        "role": "stop",
        "bus": "yes",
        "public_transport": "stop_position"
      }
    },
    {
      "type": "Feature",
      "geometry": {
        "type": "Point",
        "coordinates": [
          107.6067107,
          -6.9480912
        ]
      },
      "properties": {
        "id": "12808867756",
        "name": "Karasak Utara",
        "role": "stop",
        "bus": "yes",
        "public_transport": "stop_position"
      }
    },
    {
      "type": "Feature",
      "geometry": {
        "type": "Point",
        "coordinates": [
          107.6115168,
          -6.954618
        ]
      },
      "properties": {
        "id": "11711185184",
        "name": "SPBU Moh. Toha",
        "role": "stop",
        "bus": "yes",
        "public_transport": "stop_position"
      }
    },
    {
      "type": "Feature",
      "geometry": {
        "type": "Point",
        "coordinates": [
          107.7541846,
          -6.9410603
        ]
      },
      "properties": {
        "id": "11711185187",
        "name": "Cileunyi A",
        "role": "stop",
        "bus": "yes",
        "public_transport": "stop_position"
      }
    },
    {
      "type": "Feature",
      "geometry": {
        "type": "Point",
        "coordinates": [
          107.7537453,
          -6.9404081
        ]
      },
      "properties": {
        "id": "6473170574",
        "name": "Pasar Cileunyi",
        "role": "stop",
        "bus": "yes",
        "public_transport": "stop_position"
      }
    },
    {
      "type": "Feature",
      "geometry": {
        "type": "Point",
        "coordinates": [
          107.7642048,
          -6.9358995
        ]
      },
      "properties": {
        "id": "10771913963",
        "name": "Gerbang IPDN Jatinangor",
        "role": "stop",
        "bus": "yes",
        "public_transport": "stop_position"
      }
    },
    {
      "type": "Feature",
      "geometry": {
        "type": "Point",
        "coordinates": [
          107.7652049,
          -6.9356267
        ]
      },
      "properties": {
        "id": "1966499313",
        "name": "IPDN A",
        "role": "stop",
        "bus": "yes",
        "highway": "bus_stop",
        "public_transport": "stop_position",
        "ref": "IPDN A"
      }
    },
    {
      "type": "Feature",
      "geometry": {
        "type": "Point",
        "coordinates": [
          107.7732585,
          -6.9323545
        ]
      },
      "properties": {
        "id": "12013198353",
        "name": "UNPAD Jatinangor",
        "role": "stop_exit_only",
        "bus": "yes",
        "public_transport": "stop_position"
      }
    }
  ]
}