{"type":"FeatureCollection","features":[{"type":"Feature","geometry":{"type":"Point","coordinates":[107.613435,-6.8948767]},"properties":{"id":25448775,"bench":"no","bin":"no","bus":"yes","departures_board":"no","highway":"bus_stop","name":"Rumah Sakit Santo Borromeus B","public_transport":"platform","ref":"Hasanudin","route_ref":"4","shelter":"no"}},{"type":"Feature","geometry":{"type":"Point","coordinates":[107.6045276,-6.9164456]},"properties":{"id":3476230982,"bus":"yes","highway":"bus_stop","name":"Pasar Baru","public_transport":"platform","ref":"Pasar Baru","route_ref":"4","shelter":"no"}},{"type":"Feature","geometry":{"type":"Point","coordinates":[107.6178302,-6.8923042]},"properties":{"id":3797907525,"bench":"yes","bus":"yes","covered":"no","departures_board":"no","highway":"bus_stop","image":"https://commons.wikimedia.org/wiki/File:Halte_UNPAD_Dipatiukur.jpg","name":"UNPAD Dipatiukur (4D)","operator":"DAMRI","public_transport":"platform","ramp":"no","route_ref":"4","shelter":"no","tactile_paving":"yes","wheelchair":"no"}},{"type":"Feature","geometry":{"type":"Point","coordinates":[107.6107066,-6.9088987]},"properties":{"id":10778322184,"bus":"yes","highway":"bus_stop","name":"Bandung Indah Plaza","public_transport":"platform","route_ref":"4","shelter":"no"}},{"type":"Feature","geometry":{"type":"Point","coordinates":[107.6105067,-6.9125289]},"properties":{"id":10778322185,"alt_name":"Santa Angela","bench":"yes","bus":"yes","highway":"bus_stop","name":"Merdeka","public_transport":"platform","ramp":"no","route_ref":"3;4","shelter":"yes","tactile_paving":"yes","wheelchair":"no"}},{"type":"Feature","geometry":{"type":"Point","coordinates":[107.6090686,-6.9145193]},"properties":{"id":10778322186,"bench":"yes","bus":"yes","departures_board":"no","description":"Terdapat Bangunan Halte Beratap Terdapat plang bus stop","highway":"bus_stop","image":"https://commons.wikimedia.org/wiki/File:Halte_Trans_Metro_Pasundan_Bank_Indonesia.jpg","name":"Bank Indonesia","public_transport":"platform","ramp":"no","route_ref":"4","shelter":"yes","tactile_paving":"yes","wheelchair":"no"}},{"type":"Feature","geometry":{"type":"Point","coordinates":[107.6129141,-6.8975176]},"properties":{"id":11104718109,"bench":"no","bus":"yes","departures_board":"no","highway":"bus_stop","name":"Kartikasari B","public_transport":"platform","route_ref":"4","shelter":"no"}},{"type":"Feature","geometry":{"type":"Point","coordinates":[107.6063222,-6.9368521]},"properties":{"id":11181449064,"bus":"yes","highway":"bus_stop","image":"https://commons.wikimedia.org/wiki/File:Halte_Trans_Metro_Pasundan_Pasar_Tegalega.jpg","name":"Pasar Tegalega","public_transport":"platform","ramp":"no","route_ref":"4","shelter":"yes","tactile_paving":"no","wheelchair":"no"}},{"type":"Feature","geometry":{"type":"Point","coordinates":[107.6040641,-6.9219917]},"properties":{"id":11346470613,"bus":"yes","description":"Tidak terdapat bangunan halte Tidak terdapat plang bus stop","highway":"bus_stop","image":"https://commons.wikimedia.org/wiki/File:Halte_Jalan_Dalem_Kaum_Alun-Alun.jpg","name":"Dalem Kaum","public_transport":"platform","ramp":"no","route_ref":"4","shelter":"no","tactile_paving":"yes","wheelchair":"no"}},{"type":"Feature","geometry":{"type":"Point","coordinates":[107.6039255,-6.9314493]},"properties":{"id":11690863390,"bus":"yes","highway":"bus_stop","image":"https://commons.wikimedia.org/wiki/File:Halte_Trans_Metro_Pasundan_Jalan_Ibu_Inggit_Garnasih.jpg","name":"Jalan Ibu Inggit Garnasih","public_transport":"platform","ramp":"no","route_ref":"4","shelter":"no","tactile_paving":"no","wheelchair":"no"}},{"type":"Feature","geometry":{"type":"Point","coordinates":[107.6055293,-6.9375952]},"properties":{"id":11690907978,"bus":"yes","highway":"bus_stop","image":"https://commons.wikimedia.org/wiki/File:HALTE_SIMPANG_M._TOHA.jpg","name":"Simpang Mohamad Toha Biddokkes","public_transport":"platform","ramp":"no","route_ref":"4;6","tactile_paving":"no","wheelchair":"no"}},{"type":"Feature","geometry":{"type":"Point","coordinates":[107.5955215,-6.9373737]},"properties":{"id":11690921606,"bus":"yes","highway":"bus_stop","image":"https://commons.wikimedia.org/wiki/File:HALTE_RS_IMMANUEL_B.jpg","name":"Rumah Sakit Immanuel B","public_transport":"platform","ramp":"no","route_ref":"4","tactile_paving":"no","wheelchair":"no"}},{"type":"Feature","geometry":{"type":"Point","coordinates":[107.6106928,-6.9065967]},"properties":{"id":11739021636,"bench":"no","bin":"no","bus":"yes","highway":"bus_stop","name":"The-One-O-One B","public_transport":"platform","route_ref":"4","shelter":"no"}},{"type":"Feature","geometry":{"type":"Point","coordinates":[107.6116276,-6.9025294]},"properties":{"id":11944002067,"bus":"yes","highway":"bus_stop","name":"Taman Radio B","public_transport":"platform","route_ref":"4"}},{"type":"Feature","geometry":{"type":"Point","coordinates":[107.5931658,-6.9459528]},"properties":{"id":11953687683,"bus":"yes","highway":"bus_stop","name":"Terminal Leuwipanjang","public_transport":"platform","route_ref":"1;4;6"}}]}