{"type":"FeatureCollection","features":[{"type":"Feature","geometry":{"type":"Point","coordinates":[107.6144408,-6.8833892]},"properties":{"id":3373712068,"name":"Tubagus Ismail Depan","public_transport":"platform","ref":"Tubagus Ismail Depan"}},{"type":"Feature","geometry":{"type":"Point","coordinates":[107.6166092,-6.8900838]},"properties":{"id":3375793675,"bus":"yes","covered":"no","name":"Sekeloa","public_transport":"platform","ref":"Sekeloa","shelter":"no"}},{"type":"Feature","geometry":{"type":"Point","coordinates":[107.6180829,-6.892885]},"properties":{"id":3375793676,"addr:city":"Bandung","addr:street":"Jalan Dipatiukur","amenity":"bus_station","bus":"yes","name":"UNPAD DIpatiukur","public_transport":"station","route_ref":"5","shelter":"yes","source":"S2City_POI_2022","wheelchair":"no"}},{"type":"Feature","geometry":{"type":"Point","coordinates":[107.6285986,-6.9129624]},"properties":{"id":3375793688,"name":"Anggrek","public_transport":"platform"}},{"type":"Feature","geometry":{"type":"Point","coordinates":[107.6185616,-6.911506]},"properties":{"id":3375794697,"name":"Graha Tirta Siliwangi","public_transport":"platform"}},{"type":"Feature","geometry":{"type":"Point","coordinates":[107.616888,-6.9063132]},"properties":{"id":3375794700,"name":"Jl. Banda/Riau","public_transport":"platform"}}]}