{"type":"FeatureCollection","features":[{"type":"Feature","geometry":{"type":"Point","coordinates":[107.5973491,-6.9007986]},"properties":{"id":3377322396,"bus":"yes","highway":"bus_stop","name":"Pasteur","public_transport":"platform","ref":"Pasteur"}},{"type":"Feature","geometry":{"type":"Point","coordinates":[107.6562115,-6.9024362]},"properties":{"id":10814583285,"amenity":"bus_station","bus":"yes","name":"Terminal Angkot Cicaheum","public_transport":"station","shelter":"yes","source":"POI_WRI_Survey_2023","wheelchair":"no"}},{"type":"Feature","geometry":{"type":"Point","coordinates":[107.597447,-6.8966324]},"properties":{"id":11876087250,"bus":"yes","highway":"bus_stop","name":"RS Hasan Sadikin","public_transport":"platform"}},{"type":"Feature","geometry":{"type":"Point","coordinates":[107.6139339,-6.8852391]},"properties":{"id":11876087251,"bus":"yes","highway":"bus_stop","name":"Simpang Dago","public_transport":"platform"}},{"type":"Feature","geometry":{"type":"Point","coordinates":[107.6204455,-6.8991573]},"properties":{"id":11876087252,"bus":"yes","highway":"bus_stop","name":"Jalan Merak","public_transport":"platform"}},{"type":"Feature","geometry":{"type":"Point","coordinates":[107.6337526,-6.8979234]},"properties":{"id":11876087254,"bus":"yes","highway":"bus_stop","name":"Pahlawan","public_transport":"platform"}}]}