{
  "type": "FeatureCollection",
  "features": [
    {
      "type": "Feature",
      "geometry": {
        "type": "Point",
        "coordinates": [
          107.578425,
          -6.8816653
        ]
      },
      "properties": {
        "id": "12628813986",
        "name": "Sarijadi",
        "role": "stop_entry_only",
        "bus": "yes",
        "public_transport": "stop_position"
      }
    },
    {
      "type": "Feature",
      "geometry": {
        "type": "Point",
        "coordinates": [
          107.5814944,
          -6.8821984
        ]
      },
      "properties": {
        "id": "12628813990",
        "name": "Setrasari",
        "role": "stop",
        "bus": "yes",
        "public_transport": "stop_position"
      }
    },
    {
      "type": "Feature",
      "geometry": {
        "type": "Point",
        "coordinates": [
          107.5849478,
          -6.8925604
        ]
      },
      "properties": {
        "id": "12013144935",
        "name": "Mall d'Botanica",
        "role": "stop",
        "bus": "yes",
        "public_transport": "stop_position"
      }
    },
    {
      "type": "Feature",
      "geometry": {
        "type": "Point",
        "coordinates": [
          107.5883918,
          -6.8948914
        ]
      },
      "properties": {
        "id": "12628813992",
        "name": "Griya Pasteur 2",
        "role": "stop",
        "bus": "yes",
        "public_transport": "stop_position"
      }
    },
    {
      "type": "Feature",
      "geometry": {
        "type": "Point",
        "coordinates": [
          107.610121,
          -6.8982089
        ]
      },
      "properties": {
        "id": "12628813995",
        "name": "Tamansari Cikapayang",
        "role": "stop",
        "bus": "yes",
        "public_transport": "stop_position"
      }
    },
    {
      "type": "Feature",
      "geometry": {
        "type": "Point",
        "coordinates": [
          107.6135004,
          -6.898852
        ]
      },
      "properties": {
        "id": "5832170587",
        "name": "Cikapayang Dago 2",
        "role": "stop",
        "bus": "yes",
        "public_transport": "stop_position"
      }
    },
    {
      "type": "Feature",
      "geometry": {
        "type": "Point",
        "coordinates": [
          107.6179657,
          -6.8992842
        ]
      },
      "properties": {
        "id": "1660289593",
        "name": "Gasibu",
        "role": "stop",
        "bus": "yes",
        "public_transport": "stop_position"
      }
    },
    {
      "type": "Feature",
      "geometry": {
        "type": "Point",
        "coordinates": [
          107.6227599,
          -6.8992307
        ]
      },
      "properties": {
        "id": "12628813998",
        "name": "Distan Jabar",
        "role": "stop",
        "bus": "yes",
        "public_transport": "stop_position"
      }
    },
    {
      "type": "Feature",
      "geometry": {
        "type": "Point",
        "coordinates": [
          107.6285873,
          -6.8998503
        ]
      },
      "properties": {
        "id": "12628814000",
        "name": "Dapen Telkom",
        "role": "stop",
        "bus": "yes",
        "public_transport": "stop_position"
      }
    },
    {
      "type": "Feature",
      "geometry": {
        "type": "Point",
        "coordinates": [
          107.6321413,
          -6.8983546
        ]
      },
      "properties": {
        "id": "12628835702",
        "name": "Jalaprang",
        "role": "stop",
        "bus": "yes",
        "public_transport": "stop_position"
      }
    },
    {
      "type": "Feature",
      "geometry": {
        "type": "Point",
        "coordinates": [
          107.6362093,
          -6.8982483
        ]
      },
      "properties": {
        "id": "12013144934",
        "name": "ITENAS",
        "role": "stop",
        "bus": "yes",
        "public_transport": "stop_position"
      }
    },
    {
      "type": "Feature",
      "geometry": {
        "type": "Point",
        "coordinates": [
          107.6370787,
          -6.8984458
        ]
      },
      "properties": {
        "id": "5832220656",
        "name": "Sukasenang Raya 2",
        "role": "stop",
        "bus": "yes",
        "public_transport": "stop_position"
      }
    },
    {
      "type": "Feature",
      "geometry": {
        "type": "Point",
        "coordinates": [
          107.6404383,
          -6.8992417
        ]
      },
      "properties": {
        "id": "12628835705",
        "name": "Sekolah Pribadi",
        "role": "stop",
        "bus": "yes",
        "public_transport": "stop_position"
      }
    },
    {
      "type": "Feature",
      "geometry": {
        "type": "Point",
        "coordinates": [
          107.6439328,
          -6.9000256
        ]
      },
      "properties": {
        "id": "5832221887",
        "name": "Sukapada",
        "role": "stop",
        "bus": "yes",
        "public_transport": "stop_position",
        "ref": "Cikutra"
      }
    },
    {
      "type": "Feature",
      "geometry": {
        "type": "Point",
        "coordinates": [
          107.6525276,
          -6.9018908
        ]
      },
      "properties": {
        "id": "12628835709",
        "name": "Surapati Core",
        "role": "stop",
        "bus": "yes",
        "public_transport": "stop_position"
      }
    },
    {
      "type": "Feature",
      "geometry": {
        "type": "Point",
        "coordinates": [
          107.6567969,
          -6.9021302
        ]
      },
      "properties": {
        "id": "5832221935",
        "name": "Seberang Terminal Cicaheum",
        "role": "stop",
        "bus": "yes",
        "public_transport": "stop_position"
      }
    },
    {
      "type": "Feature",
      "geometry": {
        "type": "Point",
        "coordinates": [
          107.6565637,
          -6.902329
        ]
      },
      "properties": {
        "id": "6460801785",
        "name": "Terminal Cicaheum",
        "role": "stop_exit_only",
        "bus": "yes",
        "network": "Trans Metro Bandung",
        "operator": "Dinas Perhubungan Kota Bandung",
        "public_transport": "stop_position"
      }
    }
  ]
}