{
  "type": "FeatureCollection",
  "features": [
    {
      "type": "Feature",
      "geometry": {
        "type": "Point",
        "coordinates": [
          107.6437793,
          -6.9142126
        ]
      },
      "properties": {
        "id": "12633822765",
        "name": "Seberang Kiara Artha",
        "role": "stop_entry_only",
        "mode": "bus"
      }
    },
    {
      "type": "Feature",
      "geometry": {
        "type": "Point",
        "coordinates": [
          107.6442909,
          -6.9196178
        ]
      },
      "properties": {
        "id": "12806853454",
        "name": "SDN 083 Babakan Surabaya Selatan",
        "role": "stop",
        "mode": "bus"
      }
    },
    {
      "type": "Feature",
      "geometry": {
        "type": "Point",
        "coordinates": [
          107.6444041,
          -6.9221685
        ]
      },
      "properties": {
        "id": "12806853450",
        "name": "Griya Kiaracondong",
        "role": "stop",
        "mode": "bus"
      }
    },
    {
      "type": "Feature",
      "geometry": {
        "type": "Point",
        "coordinates": [
          107.6444424,
          -6.9274017
        ]
      },
      "properties": {
        "id": "12806853449",
        "name": "Jalan PSM",
        "role": "stop",
        "mode": "bus"
      }
    },
    {
      "type": "Feature",
      "geometry": {
        "type": "Point",
        "coordinates": [
          107.642917,
          -6.9333993
        ]
      },
      "properties": {
        "id": "12806853446",
        "name": "SDN 38 Kiaracondong",
        "role": "stop",
        "mode": "bus"
      }
    },
    {
      "type": "Feature",
      "geometry": {
        "type": "Point",
        "coordinates": [
          107.6424362,
          -6.9380472
        ]
      },
      "properties": {
        "id": "12806853442",
        "name": "Kebon Kangkung 11",
        "role": "stop",
        "mode": "bus"
      }
    },
    {
      "type": "Feature",
      "geometry": {
        "type": "Point",
        "coordinates": [
          107.6423227,
          -6.9397848
        ]
      },
      "properties": {
        "id": "12806853440",
        "name": "Den Jasa Ang",
        "role": "stop",
        "mode": "bus"
      }
    },
    {
      "type": "Feature",
      "geometry": {
        "type": "Point",
        "coordinates": [
          107.6421057,
          -6.9428602
        ]
      },
      "properties": {
        "id": "12806853435",
        "name": "SPBU Kebon Kangkung",
        "role": "stop",
        "mode": "bus"
      }
    },
    {
      "type": "Feature",
      "geometry": {
        "type": "Point",
        "coordinates": [
          107.6428119,
          -6.9450226
        ]
      },
      "properties": {
        "id": "5825209951",
        "name": "Simpang Samsat Kiaracondong",
        "role": "stop",
        "mode": "bus"
      }
    },
    {
      "type": "Feature",
      "geometry": {
        "type": "Point",
        "coordinates": [
          107.6438888,
          -6.944662
        ]
      },
      "properties": {
        "id": "12806851389",
        "name": "STT Mandala",
        "role": "stop",
        "mode": "bus"
      }
    },
    {
      "type": "Feature",
      "geometry": {
        "type": "Point",
        "coordinates": [
          107.6464874,
          -6.9438278
        ]
      },
      "properties": {
        "id": "12806851390",
        "name": "SMK Medika Com",
        "role": "stop",
        "mode": "bus"
      }
    },
    {
      "type": "Feature",
      "geometry": {
        "type": "Point",
        "coordinates": [
          107.6505153,
          -6.9425403
        ]
      },
      "properties": {
        "id": "12806851392",
        "name": "Unibi",
        "role": "stop",
        "mode": "bus"
      }
    },
    {
      "type": "Feature",
      "geometry": {
        "type": "Point",
        "coordinates": [
          107.6528692,
          -6.941787
        ]
      },
      "properties": {
        "id": "12806851396",
        "name": "Cidurian Utara",
        "role": "stop",
        "mode": "bus"
      }
    },
    {
      "type": "Feature",
      "geometry": {
        "type": "Point",
        "coordinates": [
          107.6569119,
          -6.9405212
        ]
      },
      "properties": {
        "id": "12806851393",
        "name": "SMKN 9 Bandung",
        "role": "stop",
        "mode": "bus"
      }
    },
    {
      "type": "Feature",
      "geometry": {
        "type": "Point",
        "coordinates": [
          107.6582639,
          -6.9400924
        ]
      },
      "properties": {
        "id": "3375689664",
        "name": "Jasa Raharja Jabar",
        "role": "stop",
        "mode": "bus"
      }
    },
    {
      "type": "Feature",
      "geometry": {
        "type": "Point",
        "coordinates": [
          107.6601512,
          -6.9395718
        ]
      },
      "properties": {
        "id": "12806851400",
        "name": "Suparma",
        "role": "stop",
        "mode": "bus"
      }
    },
    {
      "type": "Feature",
      "geometry": {
        "type": "Point",
        "coordinates": [
          107.6635594,
          -6.9390207
        ]
      },
      "properties": {
        "id": "12806868601",
        "name": "Kawaluyaan",
        "role": "stop",
        "mode": "bus"
      }
    },
    {
      "type": "Feature",
      "geometry": {
        "type": "Point",
        "coordinates": [
          107.6672726,
          -6.938728
        ]
      },
      "properties": {
        "id": "12806868603",
        "name": "Sanggar Hurip",
        "role": "stop",
        "mode": "bus"
      }
    },
    {
      "type": "Feature",
      "geometry": {
        "type": "Point",
        "coordinates": [
          107.671913,
          -6.9383912
        ]
      },
      "properties": {
        "id": "v_107.671913_-6.938391",
        "name": "Jalan Soekarno-Hatta",
        "role": "virtual",
        "mode": "bus"
      }
    },
    {
      "type": "Feature",
      "geometry": {
        "type": "Point",
        "coordinates": [
          107.6775339,
          -6.9379974
        ]
      },
      "properties": {
        "id": "12806868618",
        "name": "Cisaranten Kulon",
        "role": "stop",
        "mode": "bus"
      }
    },
    {
      "type": "Feature",
      "geometry": {
        "type": "Point",
        "coordinates": [
          107.6794352,
          -6.9378628
        ]
      },
      "properties": {
        "id": "12806868620",
        "name": "KPP Pratama Cicadas",
        "role": "stop",
        "mode": "bus"
      }
    },
    {
      "type": "Feature",
      "geometry": {
        "type": "Point",
        "coordinates": [
          107.6844521,
          -6.937515
        ]
      },
      "properties": {
        "id": "v_107.684452_-6.937515",
        "name": "Jalan Soekarno-Hatta",
        "role": "virtual",
        "mode": "bus"
      }
    },
    {
      "type": "Feature",
      "geometry": {
        "type": "Point",
        "coordinates": [
          107.6890078,
          -6.9371718
        ]
      },
      "properties": {
        "id": "v_107.689008_-6.937172",
        "name": "Jalan Soekarno-Hatta",
        "role": "virtual",
        "mode": "bus"
      }
    },
    {
      "type": "Feature",
      "geometry": {
        "type": "Point",
        "coordinates": [
          107.6973063,
          -6.9365674
        ]
      },
      "properties": {
        "id": "12814754658",
        "name": "Depan Pasar Gedebage",
        "role": "stop",
        "mode": "bus"
      }
    },
    {
      "type": "Feature",
      "geometry": {
        "type": "Point",
        "coordinates": [
          107.702019,
          -6.9362066
        ]
      },
      "properties": {
        "id": "v_107.702019_-6.936207",
        "name": "Jalan Soekarno-Hatta",
        "role": "virtual",
        "mode": "bus"
      }
    },
    {
      "type": "Feature",
      "geometry": {
        "type": "Point",
        "coordinates": [
          107.7099558,
          -6.9356286
        ]
      },
      "properties": {
        "id": "12806516348",
        "name": "Universitas Bhakti Kencana",
        "role": "stop",
        "mode": "bus"
      }
    },
    {
      "type": "Feature",
      "geometry": {
        "type": "Point",
        "coordinates": [
          107.7175908,
          -6.9352673
        ]
      },
      "properties": {
        "id": "35131593",
        "name": "Bundaran Cibiru",
        "role": "stop",
        "mode": "bus"
      }
    },
    {
      "type": "Feature",
      "geometry": {
        "type": "Point",
        "coordinates": [
          107.7136482,
          -6.9386251
        ]
      },
      "properties": {
        "id": "v_107.713648_-6.938625",
        "name": "Jalan Raya Bumi Panyileukan",
        "role": "virtual",
        "mode": "bus"
      }
    },
    {
      "type": "Feature",
      "geometry": {
        "type": "Point",
        "coordinates": [
          107.712912,
          -6.9466584
        ]
      },
      "properties": {
        "id": "10991362712",
        "name": "Pangkalan Angkot Bumi Panyileukan",
        "role": "stop_exit_only",
        "mode": "bus"
      }
    }
  ]
}