{
  "type": "FeatureCollection",
  "features": [
    {
      "type": "Feature",
      "geometry": {
        "type": "Point",
        "coordinates": [
          107.6437793,
          -6.9142126
        ]
      },
      "properties": {
        "id": "12633822765",
        "name": "Seberang Kiara Artha",
        "role": "stop_entry_only",
        "isReal": true,
        "mode": "bus"
      }
    },
    {
      "type": "Feature",
      "geometry": {
        "type": "Point",
        "coordinates": [
          107.64419296666667,
          -6.918090733333333
        ]
      },
      "properties": {
        "id": "virtual_107.6442_-6.9181",
        "name": "Jalan terdekat",
        "role": "virtual",
        "isReal": false,
        "mode": "bus"
      }
    },
    {
      "type": "Feature",
      "geometry": {
        "type": "Point",
        "coordinates": [
          107.6442909,
          -6.9196178
        ]
      },
      "properties": {
        "id": "12806853454",
        "name": "SDN 083 Babakan Surabaya Selatan",
        "role": "stop",
        "isReal": true,
        "mode": "bus"
      }
    },
    {
      "type": "Feature",
      "geometry": {
        "type": "Point",
        "coordinates": [
          107.6444041,
          -6.9221685
        ]
      },
      "properties": {
        "id": "12806853450",
        "name": "Griya Kiaracondong",
        "role": "stop",
        "isReal": true,
        "mode": "bus"
      }
    },
    {
      "type": "Feature",
      "geometry": {
        "type": "Point",
        "coordinates": [
          107.644489,
          -6.9241129
        ]
      },
      "properties": {
        "id": "virtual_107.6445_-6.9241",
        "name": "Jalan H. Ibrahim Adjie",
        "role": "virtual",
        "isReal": false,
        "mode": "bus"
      }
    },
    {
      "type": "Feature",
      "geometry": {
        "type": "Point",
        "coordinates": [
          107.6444424,
          -6.9274017
        ]
      },
      "properties": {
        "id": "12806853449",
        "name": "Jalan PSM",
        "role": "stop",
        "isReal": true,
        "mode": "bus"
      }
    },
    {
      "type": "Feature",
      "geometry": {
        "type": "Point",
        "coordinates": [
          107.64426993333333,
          -6.928887666666666
        ]
      },
      "properties": {
        "id": "virtual_107.6443_-6.9289",
        "name": "Jalan terdekat",
        "role": "virtual",
        "isReal": false,
        "mode": "bus"
      }
    },
    {
      "type": "Feature",
      "geometry": {
        "type": "Point",
        "coordinates": [
          107.64388196666667,
          -6.930985533333334
        ]
      },
      "properties": {
        "id": "virtual_107.6439_-6.9310",
        "name": "Jalan terdekat",
        "role": "virtual",
        "isReal": false,
        "mode": "bus"
      }
    },
    {
      "type": "Feature",
      "geometry": {
        "type": "Point",
        "coordinates": [
          107.642917,
          -6.9333993
        ]
      },
      "properties": {
        "id": "12806853446",
        "name": "SDN 38 Kiaracondong",
        "role": "stop",
        "isReal": true,
        "mode": "bus"
      }
    },
    {
      "type": "Feature",
      "geometry": {
        "type": "Point",
        "coordinates": [
          107.642669,
          -6.9347772
        ]
      },
      "properties": {
        "id": "virtual_107.6427_-6.9348",
        "name": "Jalan H. Ibrahim Adjie",
        "role": "virtual",
        "isReal": false,
        "mode": "bus"
      }
    },
    {
      "type": "Feature",
      "geometry": {
        "type": "Point",
        "coordinates": [
          107.6425277,
          -6.9366887
        ]
      },
      "properties": {
        "id": "virtual_107.6425_-6.9367",
        "name": "Jalan H. Ibrahim Adjie",
        "role": "virtual",
        "isReal": false,
        "mode": "bus"
      }
    },
    {
      "type": "Feature",
      "geometry": {
        "type": "Point",
        "coordinates": [
          107.6424362,
          -6.9380472
        ]
      },
      "properties": {
        "id": "12806853442",
        "name": "Kebon Kangkung 11",
        "role": "stop",
        "isReal": true,
        "mode": "bus"
      }
    },
    {
      "type": "Feature",
      "geometry": {
        "type": "Point",
        "coordinates": [
          107.6423227,
          -6.9397848
        ]
      },
      "properties": {
        "id": "12806853440",
        "name": "Den Jasa Ang",
        "role": "stop",
        "isReal": true,
        "mode": "bus"
      }
    },
    {
      "type": "Feature",
      "geometry": {
        "type": "Point",
        "coordinates": [
          107.6422079,
          -6.9415102
        ]
      },
      "properties": {
        "id": "virtual_107.6422_-6.9415",
        "name": "Jalan H. Ibrahim Adjie",
        "role": "virtual",
        "isReal": false,
        "mode": "bus"
      }
    },
    {
      "type": "Feature",
      "geometry": {
        "type": "Point",
        "coordinates": [
          107.6421057,
          -6.9428602
        ]
      },
      "properties": {
        "id": "12806853435",
        "name": "SPBU Kebon Kangkung",
        "role": "stop",
        "isReal": true,
        "mode": "bus"
      }
    },
    {
      "type": "Feature",
      "geometry": {
        "type": "Point",
        "coordinates": [
          107.6428119,
          -6.9450226
        ]
      },
      "properties": {
        "id": "5825209951",
        "name": "Simpang Samsat Kiaracondong",
        "role": "stop",
        "isReal": true,
        "mode": "bus"
      }
    },
    {
      "type": "Feature",
      "geometry": {
        "type": "Point",
        "coordinates": [
          107.6438888,
          -6.944662
        ]
      },
      "properties": {
        "id": "12806851389",
        "name": "STT Mandala",
        "role": "stop",
        "isReal": true,
        "mode": "bus"
      }
    },
    {
      "type": "Feature",
      "geometry": {
        "type": "Point",
        "coordinates": [
          107.6464874,
          -6.9438278
        ]
      },
      "properties": {
        "id": "12806851390",
        "name": "SMK Medika Com",
        "role": "stop",
        "isReal": true,
        "mode": "bus"
      }
    },
    {
      "type": "Feature",
      "geometry": {
        "type": "Point",
        "coordinates": [
          107.64797635,
          -6.9433506000000005
        ]
      },
      "properties": {
        "id": "virtual_107.6480_-6.9434",
        "name": "Jalan terdekat",
        "role": "virtual",
        "isReal": false,
        "mode": "bus"
      }
    },
    {
      "type": "Feature",
      "geometry": {
        "type": "Point",
        "coordinates": [
          107.6505153,
          -6.9425403
        ]
      },
      "properties": {
        "id": "12806851392",
        "name": "Unibi",
        "role": "stop",
        "isReal": true,
        "mode": "bus"
      }
    },
    {
      "type": "Feature",
      "geometry": {
        "type": "Point",
        "coordinates": [
          107.6528692,
          -6.941787
        ]
      },
      "properties": {
        "id": "12806851396",
        "name": "Cidurian Utara",
        "role": "stop",
        "isReal": true,
        "mode": "bus"
      }
    },
    {
      "type": "Feature",
      "geometry": {
        "type": "Point",
        "coordinates": [
          107.65494724999999,
          -6.9411421
        ]
      },
      "properties": {
        "id": "virtual_107.6549_-6.9411",
        "name": "Jalan terdekat",
        "role": "virtual",
        "isReal": false,
        "mode": "bus"
      }
    },
    {
      "type": "Feature",
      "geometry": {
        "type": "Point",
        "coordinates": [
          107.6569119,
          -6.9405212
        ]
      },
      "properties": {
        "id": "12806851393",
        "name": "SMKN 9 Bandung",
        "role": "stop",
        "isReal": true,
        "mode": "bus"
      }
    },
    {
      "type": "Feature",
      "geometry": {
        "type": "Point",
        "coordinates": [
          107.6582639,
          -6.9400924
        ]
      },
      "properties": {
        "id": "3375689664",
        "name": "Jasa Raharja Jabar",
        "role": "stop",
        "isReal": true,
        "mode": "bus"
      }
    },
    {
      "type": "Feature",
      "geometry": {
        "type": "Point",
        "coordinates": [
          107.6601512,
          -6.9395718
        ]
      },
      "properties": {
        "id": "12806851400",
        "name": "Suparma",
        "role": "stop",
        "isReal": true,
        "mode": "bus"
      }
    },
    {
      "type": "Feature",
      "geometry": {
        "type": "Point",
        "coordinates": [
          107.6635594,
          -6.9390207
        ]
      },
      "properties": {
        "id": "12806868601",
        "name": "Kawaluyaan",
        "role": "stop",
        "isReal": true,
        "mode": "bus"
      }
    },
    {
      "type": "Feature",
      "geometry": {
        "type": "Point",
        "coordinates": [
          107.6659038,
          -6.9388221
        ]
      },
      "properties": {
        "id": "virtual_107.6659_-6.9388",
        "name": "Jalan Soekarno-Hatta",
        "role": "virtual",
        "isReal": false,
        "mode": "bus"
      }
    },
    {
      "type": "Feature",
      "geometry": {
        "type": "Point",
        "coordinates": [
          107.6672726,
          -6.938728
        ]
      },
      "properties": {
        "id": "12806868603",
        "name": "Sanggar Hurip",
        "role": "stop",
        "isReal": true,
        "mode": "bus"
      }
    },
    {
      "type": "Feature",
      "geometry": {
        "type": "Point",
        "coordinates": [
          107.66926594,
          -6.938583159999999
        ]
      },
      "properties": {
        "id": "virtual_107.6693_-6.9386",
        "name": "Jalan terdekat",
        "role": "virtual",
        "isReal": false,
        "mode": "bus"
      }
    },
    {
      "type": "Feature",
      "geometry": {
        "type": "Point",
        "coordinates": [
          107.6716842,
          -6.9384085
        ]
      },
      "properties": {
        "id": "virtual_107.6717_-6.9384",
        "name": "Jalan terdekat",
        "role": "virtual",
        "isReal": false,
        "mode": "bus"
      }
    },
    {
      "type": "Feature",
      "geometry": {
        "type": "Point",
        "coordinates": [
          107.67362412,
          -6.93827072
        ]
      },
      "properties": {
        "id": "virtual_107.6736_-6.9383",
        "name": "Jalan terdekat",
        "role": "virtual",
        "isReal": false,
        "mode": "bus"
      }
    },
    {
      "type": "Feature",
      "geometry": {
        "type": "Point",
        "coordinates": [
          107.6775339,
          -6.9379974
        ]
      },
      "properties": {
        "id": "12806868618",
        "name": "Cisaranten Kulon",
        "role": "stop",
        "isReal": true,
        "mode": "bus"
      }
    },
    {
      "type": "Feature",
      "geometry": {
        "type": "Point",
        "coordinates": [
          107.6794352,
          -6.9378628
        ]
      },
      "properties": {
        "id": "12806868620",
        "name": "KPP Pratama Cicadas",
        "role": "stop",
        "isReal": true,
        "mode": "bus"
      }
    },
    {
      "type": "Feature",
      "geometry": {
        "type": "Point",
        "coordinates": [
          107.68300401249999,
          -6.9376146
        ]
      },
      "properties": {
        "id": "virtual_107.6830_-6.9376",
        "name": "Jalan terdekat",
        "role": "virtual",
        "isReal": false,
        "mode": "bus"
      }
    },
    {
      "type": "Feature",
      "geometry": {
        "type": "Point",
        "coordinates": [
          107.685556625,
          -6.9374308
        ]
      },
      "properties": {
        "id": "virtual_107.6856_-6.9374",
        "name": "Jalan terdekat",
        "role": "virtual",
        "isReal": false,
        "mode": "bus"
      }
    },
    {
      "type": "Feature",
      "geometry": {
        "type": "Point",
        "coordinates": [
          107.688070775,
          -6.9372427125
        ]
      },
      "properties": {
        "id": "virtual_107.6881_-6.9372",
        "name": "Jalan terdekat",
        "role": "virtual",
        "isReal": false,
        "mode": "bus"
      }
    },
    {
      "type": "Feature",
      "geometry": {
        "type": "Point",
        "coordinates": [
          107.68987005,
          -6.9371065
        ]
      },
      "properties": {
        "id": "virtual_107.6899_-6.9371",
        "name": "Jalan terdekat",
        "role": "virtual",
        "isReal": false,
        "mode": "bus"
      }
    },
    {
      "type": "Feature",
      "geometry": {
        "type": "Point",
        "coordinates": [
          107.691762275,
          -6.936964687500001
        ]
      },
      "properties": {
        "id": "virtual_107.6918_-6.9370",
        "name": "Jalan terdekat",
        "role": "virtual",
        "isReal": false,
        "mode": "bus"
      }
    },
    {
      "type": "Feature",
      "geometry": {
        "type": "Point",
        "coordinates": [
          107.693234075,
          -6.9368543874999995
        ]
      },
      "properties": {
        "id": "virtual_107.6932_-6.9369",
        "name": "Jalan terdekat",
        "role": "virtual",
        "isReal": false,
        "mode": "bus"
      }
    },
    {
      "type": "Feature",
      "geometry": {
        "type": "Point",
        "coordinates": [
          107.6973063,
          -6.9365674
        ]
      },
      "properties": {
        "id": "12814754658",
        "name": "Depan Pasar Gedebage",
        "role": "stop",
        "isReal": true,
        "mode": "bus"
      }
    },
    {
      "type": "Feature",
      "geometry": {
        "type": "Point",
        "coordinates": [
          107.6994076,
          -6.93640915
        ]
      },
      "properties": {
        "id": "virtual_107.6994_-6.9364",
        "name": "Jalan terdekat",
        "role": "virtual",
        "isReal": false,
        "mode": "bus"
      }
    },
    {
      "type": "Feature",
      "geometry": {
        "type": "Point",
        "coordinates": [
          107.7021352,
          -6.9361992
        ]
      },
      "properties": {
        "id": "virtual_107.7021_-6.9362",
        "name": "Jalan terdekat",
        "role": "virtual",
        "isReal": false,
        "mode": "bus"
      }
    },
    {
      "type": "Feature",
      "geometry": {
        "type": "Point",
        "coordinates": [
          107.705129,
          -6.93597475
        ]
      },
      "properties": {
        "id": "virtual_107.7051_-6.9360",
        "name": "Jalan terdekat",
        "role": "virtual",
        "isReal": false,
        "mode": "bus"
      }
    },
    {
      "type": "Feature",
      "geometry": {
        "type": "Point",
        "coordinates": [
          107.7099558,
          -6.9356286
        ]
      },
      "properties": {
        "id": "12806516348",
        "name": "Universitas Bhakti Kencana",
        "role": "stop",
        "isReal": true,
        "mode": "bus"
      }
    },
    {
      "type": "Feature",
      "geometry": {
        "type": "Point",
        "coordinates": [
          107.7157511,
          -6.93522055
        ]
      },
      "properties": {
        "id": "virtual_107.7158_-6.9352",
        "name": "Jalan terdekat",
        "role": "virtual",
        "isReal": false,
        "mode": "bus"
      }
    },
    {
      "type": "Feature",
      "geometry": {
        "type": "Point",
        "coordinates": [
          107.7175908,
          -6.9352673
        ]
      },
      "properties": {
        "id": "35131593",
        "name": "Bundaran Cibiru",
        "role": "stop",
        "isReal": true,
        "mode": "bus"
      }
    },
    {
      "type": "Feature",
      "geometry": {
        "type": "Point",
        "coordinates": [
          107.71271598333333,
          -6.9356878166666664
        ]
      },
      "properties": {
        "id": "virtual_107.7127_-6.9357",
        "name": "Jalan terdekat",
        "role": "virtual",
        "isReal": false,
        "mode": "bus"
      }
    },
    {
      "type": "Feature",
      "geometry": {
        "type": "Point",
        "coordinates": [
          107.71225076666667,
          -6.937980233333333
        ]
      },
      "properties": {
        "id": "virtual_107.7123_-6.9380",
        "name": "Jalan terdekat",
        "role": "virtual",
        "isReal": false,
        "mode": "bus"
      }
    },
    {
      "type": "Feature",
      "geometry": {
        "type": "Point",
        "coordinates": [
          107.7149853,
          -6.9396957
        ]
      },
      "properties": {
        "id": "virtual_107.7150_-6.9397",
        "name": "Jalan terdekat",
        "role": "virtual",
        "isReal": false,
        "mode": "bus"
      }
    },
    {
      "type": "Feature",
      "geometry": {
        "type": "Point",
        "coordinates": [
          107.71468526666668,
          -6.942683766666667
        ]
      },
      "properties": {
        "id": "virtual_107.7147_-6.9427",
        "name": "Jalan terdekat",
        "role": "virtual",
        "isReal": false,
        "mode": "bus"
      }
    },
    {
      "type": "Feature",
      "geometry": {
        "type": "Point",
        "coordinates": [
          107.71379970000001,
          -6.944906
        ]
      },
      "properties": {
        "id": "virtual_107.7138_-6.9449",
        "name": "Jalan terdekat",
        "role": "virtual",
        "isReal": false,
        "mode": "bus"
      }
    },
    {
      "type": "Feature",
      "geometry": {
        "type": "Point",
        "coordinates": [
          107.712912,
          -6.9466584
        ]
      },
      "properties": {
        "id": "10991362712",
        "name": "Pangkalan Angkot Bumi Panyileukan",
        "role": "stop_exit_only",
        "isReal": true,
        "mode": "bus"
      }
    }
  ]
}