{
  "type": "FeatureCollection",
  "features": [
    {
      "type": "Feature",
      "geometry": {
        "type": "Point",
        "coordinates": [
          107.6434825,
          -6.911388
        ]
      },
      "properties": {
        "id": "v_107.643483_-6.911388",
        "name": "Jalan H. Ibrahim Adjie",
        "role": "virtual",
        "mode": "bus"
      }
    },
    {
      "type": "Feature",
      "geometry": {
        "type": "Point",
        "coordinates": [
          107.6437793,
          -6.9142126
        ]
      },
      "properties": {
        "id": "12633822765",
        "name": "Seberang Kiara Artha",
        "role": "stop_entry_only",
        "mode": "bus"
      }
    },
    {
      "type": "Feature",
      "geometry": {
        "type": "Point",
        "coordinates": [
          107.6440375,
          -6.9165764
        ]
      },
      "properties": {
        "id": "v_107.644037_-6.916576",
        "name": "Jalan H. Ibrahim Adjie",
        "role": "virtual",
        "mode": "bus"
      }
    },
    {
      "type": "Feature",
      "geometry": {
        "type": "Point",
        "coordinates": [
          107.6442909,
          -6.9196178
        ]
      },
      "properties": {
        "id": "12806853454",
        "name": "SDN 083 Babakan Surabaya Selatan",
        "role": "stop",
        "mode": "bus"
      }
    },
    {
      "type": "Feature",
      "geometry": {
        "type": "Point",
        "coordinates": [
          107.6444041,
          -6.9221685
        ]
      },
      "properties": {
        "id": "12806853450",
        "name": "Griya Kiaracondong",
        "role": "stop",
        "mode": "bus"
      }
    },
    {
      "type": "Feature",
      "geometry": {
        "type": "Point",
        "coordinates": [
          107.6445077,
          -6.9245514
        ]
      },
      "properties": {
        "id": "v_107.644508_-6.924551",
        "name": "Jalan H. Ibrahim Adjie",
        "role": "virtual",
        "mode": "bus"
      }
    },
    {
      "type": "Feature",
      "geometry": {
        "type": "Point",
        "coordinates": [
          107.6444424,
          -6.9274017
        ]
      },
      "properties": {
        "id": "12806853449",
        "name": "Jalan PSM",
        "role": "stop",
        "mode": "bus"
      }
    },
    {
      "type": "Feature",
      "geometry": {
        "type": "Point",
        "coordinates": [
          107.6440799,
          -6.9296313
        ]
      },
      "properties": {
        "id": "v_107.644080_-6.929631",
        "name": "Jalan H. Ibrahim Adjie",
        "role": "virtual",
        "mode": "bus"
      }
    },
    {
      "type": "Feature",
      "geometry": {
        "type": "Point",
        "coordinates": [
          107.642917,
          -6.9333993
        ]
      },
      "properties": {
        "id": "12806853446",
        "name": "SDN 38 Kiaracondong",
        "role": "stop",
        "mode": "bus"
      }
    },
    {
      "type": "Feature",
      "geometry": {
        "type": "Point",
        "coordinates": [
          107.6425875,
          -6.9357551
        ]
      },
      "properties": {
        "id": "v_107.642588_-6.935755",
        "name": "Jalan H. Ibrahim Adjie",
        "role": "virtual",
        "mode": "bus"
      }
    },
    {
      "type": "Feature",
      "geometry": {
        "type": "Point",
        "coordinates": [
          107.6424362,
          -6.9380472
        ]
      },
      "properties": {
        "id": "12806853442",
        "name": "Kebon Kangkung 11",
        "role": "stop",
        "mode": "bus"
      }
    },
    {
      "type": "Feature",
      "geometry": {
        "type": "Point",
        "coordinates": [
          107.6423227,
          -6.9397848
        ]
      },
      "properties": {
        "id": "12806853440",
        "name": "Den Jasa Ang",
        "role": "stop",
        "mode": "bus"
      }
    },
    {
      "type": "Feature",
      "geometry": {
        "type": "Point",
        "coordinates": [
          107.6421057,
          -6.9428602
        ]
      },
      "properties": {
        "id": "12806853435",
        "name": "SPBU Kebon Kangkung",
        "role": "stop",
        "mode": "bus"
      }
    },
    {
      "type": "Feature",
      "geometry": {
        "type": "Point",
        "coordinates": [
          107.6428119,
          -6.9450226
        ]
      },
      "properties": {
        "id": "5825209951",
        "name": "Simpang Samsat Kiaracondong",
        "role": "stop",
        "mode": "bus"
      }
    },
    {
      "type": "Feature",
      "geometry": {
        "type": "Point",
        "coordinates": [
          107.6438888,
          -6.944662
        ]
      },
      "properties": {
        "id": "12806851389",
        "name": "STT Mandala",
        "role": "stop",
        "mode": "bus"
      }
    },
    {
      "type": "Feature",
      "geometry": {
        "type": "Point",
        "coordinates": [
          107.6464874,
          -6.9438278
        ]
      },
      "properties": {
        "id": "12806851390",
        "name": "SMK Medika Com",
        "role": "stop",
        "mode": "bus"
      }
    },
    {
      "type": "Feature",
      "geometry": {
        "type": "Point",
        "coordinates": [
          107.6505153,
          -6.9425403
        ]
      },
      "properties": {
        "id": "12806851392",
        "name": "Unibi",
        "role": "stop",
        "mode": "bus"
      }
    },
    {
      "type": "Feature",
      "geometry": {
        "type": "Point",
        "coordinates": [
          107.6528692,
          -6.941787
        ]
      },
      "properties": {
        "id": "12806851396",
        "name": "Cidurian Utara",
        "role": "stop",
        "mode": "bus"
      }
    },
    {
      "type": "Feature",
      "geometry": {
        "type": "Point",
        "coordinates": [
          107.6569119,
          -6.9405212
        ]
      },
      "properties": {
        "id": "12806851393",
        "name": "SMKN 9 Bandung",
        "role": "stop",
        "mode": "bus"
      }
    },
    {
      "type": "Feature",
      "geometry": {
        "type": "Point",
        "coordinates": [
          107.6582639,
          -6.9400924
        ]
      },
      "properties": {
        "id": "3375689664",
        "name": "Jasa Raharja Jabar",
        "role": "stop",
        "mode": "bus"
      }
    },
    {
      "type": "Feature",
      "geometry": {
        "type": "Point",
        "coordinates": [
          107.6601512,
          -6.9395718
        ]
      },
      "properties": {
        "id": "12806851400",
        "name": "Suparma",
        "role": "stop",
        "mode": "bus"
      }
    },
    {
      "type": "Feature",
      "geometry": {
        "type": "Point",
        "coordinates": [
          107.6635594,
          -6.9390207
        ]
      },
      "properties": {
        "id": "12806868601",
        "name": "Kawaluyaan",
        "role": "stop",
        "mode": "bus"
      }
    },
    {
      "type": "Feature",
      "geometry": {
        "type": "Point",
        "coordinates": [
          107.6672726,
          -6.938728
        ]
      },
      "properties": {
        "id": "12806868603",
        "name": "Sanggar Hurip",
        "role": "stop",
        "mode": "bus"
      }
    },
    {
      "type": "Feature",
      "geometry": {
        "type": "Point",
        "coordinates": [
          107.6696239,
          -6.9385543
        ]
      },
      "properties": {
        "id": "v_107.669624_-6.938554",
        "name": "Jalan Soekarno-Hatta",
        "role": "virtual",
        "mode": "bus"
      }
    },
    {
      "type": "Feature",
      "geometry": {
        "type": "Point",
        "coordinates": [
          107.671913,
          -6.9383912
        ]
      },
      "properties": {
        "id": "v_107.671913_-6.938391",
        "name": "Jalan Soekarno-Hatta",
        "role": "virtual",
        "mode": "bus"
      }
    },
    {
      "type": "Feature",
      "geometry": {
        "type": "Point",
        "coordinates": [
          107.6742333,
          -6.9382279
        ]
      },
      "properties": {
        "id": "v_107.674233_-6.938228",
        "name": "Jalan Soekarno-Hatta",
        "role": "virtual",
        "mode": "bus"
      }
    },
    {
      "type": "Feature",
      "geometry": {
        "type": "Point",
        "coordinates": [
          107.6775339,
          -6.9379974
        ]
      },
      "properties": {
        "id": "12806868618",
        "name": "Cisaranten Kulon",
        "role": "stop",
        "mode": "bus"
      }
    },
    {
      "type": "Feature",
      "geometry": {
        "type": "Point",
        "coordinates": [
          107.6794352,
          -6.9378628
        ]
      },
      "properties": {
        "id": "12806868620",
        "name": "KPP Pratama Cicadas",
        "role": "stop",
        "mode": "bus"
      }
    },
    {
      "type": "Feature",
      "geometry": {
        "type": "Point",
        "coordinates": [
          107.6816983,
          -6.9377012
        ]
      },
      "properties": {
        "id": "v_107.681698_-6.937701",
        "name": "Jalan Soekarno-Hatta",
        "role": "virtual",
        "mode": "bus"
      }
    },
    {
      "type": "Feature",
      "geometry": {
        "type": "Point",
        "coordinates": [
          107.6844521,
          -6.937515
        ]
      },
      "properties": {
        "id": "v_107.684452_-6.937515",
        "name": "Jalan Soekarno-Hatta",
        "role": "virtual",
        "mode": "bus"
      }
    },
    {
      "type": "Feature",
      "geometry": {
        "type": "Point",
        "coordinates": [
          107.6869969,
          -6.9373231
        ]
      },
      "properties": {
        "id": "v_107.686997_-6.937323",
        "name": "Jalan Soekarno-Hatta",
        "role": "virtual",
        "mode": "bus"
      }
    },
    {
      "type": "Feature",
      "geometry": {
        "type": "Point",
        "coordinates": [
          107.689552,
          -6.9371306
        ]
      },
      "properties": {
        "id": "v_107.689552_-6.937131",
        "name": "Jalan Soekarno-Hatta",
        "role": "virtual",
        "mode": "bus"
      }
    },
    {
      "type": "Feature",
      "geometry": {
        "type": "Point",
        "coordinates": [
          107.691841,
          -6.9369664
        ]
      },
      "properties": {
        "id": "v_107.691841_-6.936966",
        "name": "Jalan Soekarno-Hatta",
        "role": "virtual",
        "mode": "bus"
      }
    },
    {
      "type": "Feature",
      "geometry": {
        "type": "Point",
        "coordinates": [
          107.6943211,
          -6.9367804
        ]
      },
      "properties": {
        "id": "v_107.694321_-6.936780",
        "name": "Jalan Soekarno-Hatta",
        "role": "virtual",
        "mode": "bus"
      }
    },
    {
      "type": "Feature",
      "geometry": {
        "type": "Point",
        "coordinates": [
          107.6973063,
          -6.9365674
        ]
      },
      "properties": {
        "id": "12814754658",
        "name": "Depan Pasar Gedebage",
        "role": "stop",
        "mode": "bus"
      }
    },
    {
      "type": "Feature",
      "geometry": {
        "type": "Point",
        "coordinates": [
          107.6996008,
          -6.9363931
        ]
      },
      "properties": {
        "id": "v_107.699601_-6.936393",
        "name": "Jalan Soekarno-Hatta",
        "role": "virtual",
        "mode": "bus"
      }
    },
    {
      "type": "Feature",
      "geometry": {
        "type": "Point",
        "coordinates": [
          107.702019,
          -6.9362066
        ]
      },
      "properties": {
        "id": "v_107.702019_-6.936207",
        "name": "Jalan Soekarno-Hatta",
        "role": "virtual",
        "mode": "bus"
      }
    },
    {
      "type": "Feature",
      "geometry": {
        "type": "Point",
        "coordinates": [
          107.7044273,
          -6.9360277
        ]
      },
      "properties": {
        "id": "v_107.704427_-6.936028",
        "name": "Jalan Soekarno-Hatta",
        "role": "virtual",
        "mode": "bus"
      }
    },
    {
      "type": "Feature",
      "geometry": {
        "type": "Point",
        "coordinates": [
          107.7099558,
          -6.9356286
        ]
      },
      "properties": {
        "id": "12806516348",
        "name": "Universitas Bhakti Kencana",
        "role": "stop",
        "mode": "bus"
      }
    },
    {
      "type": "Feature",
      "geometry": {
        "type": "Point",
        "coordinates": [
          107.7133258,
          -6.9353812
        ]
      },
      "properties": {
        "id": "v_107.713326_-6.935381",
        "name": "Jalan Soekarno-Hatta",
        "role": "virtual",
        "mode": "bus"
      }
    },
    {
      "type": "Feature",
      "geometry": {
        "type": "Point",
        "coordinates": [
          107.7175908,
          -6.9352673
        ]
      },
      "properties": {
        "id": "35131593",
        "name": "Bundaran Cibiru",
        "role": "stop",
        "mode": "bus"
      }
    },
    {
      "type": "Feature",
      "geometry": {
        "type": "Point",
        "coordinates": [
          107.7145981,
          -6.9355575
        ]
      },
      "properties": {
        "id": "v_107.714598_-6.935557",
        "name": "Jalan Soekarno-Hatta",
        "role": "virtual",
        "mode": "bus"
      }
    },
    {
      "type": "Feature",
      "geometry": {
        "type": "Point",
        "coordinates": [
          107.7123571,
          -6.9364668
        ]
      },
      "properties": {
        "id": "v_107.712357_-6.936467",
        "name": "Jalan Raya Panyileukan",
        "role": "virtual",
        "mode": "bus"
      }
    },
    {
      "type": "Feature",
      "geometry": {
        "type": "Point",
        "coordinates": [
          107.7133988,
          -6.9384954
        ]
      },
      "properties": {
        "id": "v_107.713399_-6.938495",
        "name": "Jalan Raya Bumi Panyileukan",
        "role": "virtual",
        "mode": "bus"
      }
    },
    {
      "type": "Feature",
      "geometry": {
        "type": "Point",
        "coordinates": [
          107.7145939,
          -6.9405759
        ]
      },
      "properties": {
        "id": "v_107.714594_-6.940576",
        "name": "Jalan Raya Bumi Panyileukan",
        "role": "virtual",
        "mode": "bus"
      }
    },
    {
      "type": "Feature",
      "geometry": {
        "type": "Point",
        "coordinates": [
          107.7145505,
          -6.9429855
        ]
      },
      "properties": {
        "id": "v_107.714551_-6.942985",
        "name": "Jalan Raya Bumi Panyileukan",
        "role": "virtual",
        "mode": "bus"
      }
    },
    {
      "type": "Feature",
      "geometry": {
        "type": "Point",
        "coordinates": [
          107.712912,
          -6.9466584
        ]
      },
      "properties": {
        "id": "10991362712",
        "name": "Pangkalan Angkot Bumi Panyileukan",
        "role": "stop_exit_only",
        "mode": "bus"
      }
    }
  ]
}