{
  "type": "FeatureCollection",
  "features": [
    {
      "type": "Feature",
      "geometry": {
        "type": "Point",
        "coordinates": [
          107.6437793,
          -6.9142126
        ]
      },
      "properties": {
        "id": "12633822765",
        "name": "Seberang Kiara Artha",
        "role": "stop_entry_only",
        "isReal": true,
        "mode": "bus"
      }
    },
    {
      "type": "Feature",
      "geometry": {
        "type": "Point",
        "coordinates": [
          107.64419296666667,
          -6.918090733333333
        ]
      },
      "properties": {
        "id": "virtual_107.6442_-6.9181",
        "name": "Jalan terdekat",
        "role": "virtual",
        "isReal": false,
        "mode": "bus"
      }
    },
    {
      "type": "Feature",
      "geometry": {
        "type": "Point",
        "coordinates": [
          107.6442909,
          -6.9196178
        ]
      },
      "properties": {
        "id": "12806853454",
        "name": "SDN 083 Babakan Surabaya Selatan",
        "role": "stop",
        "isReal": true,
        "mode": "bus"
      }
    },
    {
      "type": "Feature",
      "geometry": {
        "type": "Point",
        "coordinates": [
          107.6444041,
          -6.9221685
        ]
      },
      "properties": {
        "id": "12806853450",
        "name": "Griya Kiaracondong",
        "role": "stop",
        "isReal": true,
        "mode": "bus"
      }
    },
    {
      "type": "Feature",
      "geometry": {
        "type": "Point",
        "coordinates": [
          107.6444992,
          -6.9243614
        ]
      },
      "properties": {
        "id": "virtual_107.6445_-6.9244",
        "name": "Jalan H. Ibrahim Adjie",
        "role": "virtual",
        "isReal": false,
        "mode": "bus"
      }
    },
    {
      "type": "Feature",
      "geometry": {
        "type": "Point",
        "coordinates": [
          107.6444424,
          -6.9274017
        ]
      },
      "properties": {
        "id": "12806853449",
        "name": "Jalan PSM",
        "role": "stop",
        "isReal": true,
        "mode": "bus"
      }
    },
    {
      "type": "Feature",
      "geometry": {
        "type": "Point",
        "coordinates": [
          107.64426993333333,
          -6.928887666666666
        ]
      },
      "properties": {
        "id": "virtual_107.6443_-6.9289",
        "name": "Jalan terdekat",
        "role": "virtual",
        "isReal": false,
        "mode": "bus"
      }
    },
    {
      "type": "Feature",
      "geometry": {
        "type": "Point",
        "coordinates": [
          107.64388196666667,
          -6.930985533333334
        ]
      },
      "properties": {
        "id": "virtual_107.6439_-6.9310",
        "name": "Jalan terdekat",
        "role": "virtual",
        "isReal": false,
        "mode": "bus"
      }
    },
    {
      "type": "Feature",
      "geometry": {
        "type": "Point",
        "coordinates": [
          107.642917,
          -6.9333993
        ]
      },
      "properties": {
        "id": "12806853446",
        "name": "SDN 38 Kiaracondong",
        "role": "stop",
        "isReal": true,
        "mode": "bus"
      }
    },
    {
      "type": "Feature",
      "geometry": {
        "type": "Point",
        "coordinates": [
          107.642604,
          -6.9355201
        ]
      },
      "properties": {
        "id": "virtual_107.6426_-6.9355",
        "name": "Jalan terdekat",
        "role": "virtual",
        "isReal": false,
        "mode": "bus"
      }
    },
    {
      "type": "Feature",
      "geometry": {
        "type": "Point",
        "coordinates": [
          107.6424362,
          -6.9380472
        ]
      },
      "properties": {
        "id": "12806853442",
        "name": "Kebon Kangkung 11",
        "role": "stop",
        "isReal": true,
        "mode": "bus"
      }
    },
    {
      "type": "Feature",
      "geometry": {
        "type": "Point",
        "coordinates": [
          107.6423227,
          -6.9397848
        ]
      },
      "properties": {
        "id": "12806853440",
        "name": "Den Jasa Ang",
        "role": "stop",
        "isReal": true,
        "mode": "bus"
      }
    },
    {
      "type": "Feature",
      "geometry": {
        "type": "Point",
        "coordinates": [
          107.6422079,
          -6.9415102
        ]
      },
      "properties": {
        "id": "virtual_107.6422_-6.9415",
        "name": "Jalan H. Ibrahim Adjie",
        "role": "virtual",
        "isReal": false,
        "mode": "bus"
      }
    },
    {
      "type": "Feature",
      "geometry": {
        "type": "Point",
        "coordinates": [
          107.6421057,
          -6.9428602
        ]
      },
      "properties": {
        "id": "12806853435",
        "name": "SPBU Kebon Kangkung",
        "role": "stop",
        "isReal": true,
        "mode": "bus"
      }
    },
    {
      "type": "Feature",
      "geometry": {
        "type": "Point",
        "coordinates": [
          107.6428119,
          -6.9450226
        ]
      },
      "properties": {
        "id": "5825209951",
        "name": "Simpang Samsat Kiaracondong",
        "role": "stop",
        "isReal": true,
        "mode": "bus"
      }
    },
    {
      "type": "Feature",
      "geometry": {
        "type": "Point",
        "coordinates": [
          107.6438888,
          -6.944662
        ]
      },
      "properties": {
        "id": "12806851389",
        "name": "STT Mandala",
        "role": "stop",
        "isReal": true,
        "mode": "bus"
      }
    },
    {
      "type": "Feature",
      "geometry": {
        "type": "Point",
        "coordinates": [
          107.6464874,
          -6.9438278
        ]
      },
      "properties": {
        "id": "12806851390",
        "name": "SMK Medika Com",
        "role": "stop",
        "isReal": true,
        "mode": "bus"
      }
    },
    {
      "type": "Feature",
      "geometry": {
        "type": "Point",
        "coordinates": [
          107.64797635,
          -6.9433506000000005
        ]
      },
      "properties": {
        "id": "virtual_107.6480_-6.9434",
        "name": "Jalan terdekat",
        "role": "virtual",
        "isReal": false,
        "mode": "bus"
      }
    },
    {
      "type": "Feature",
      "geometry": {
        "type": "Point",
        "coordinates": [
          107.6505153,
          -6.9425403
        ]
      },
      "properties": {
        "id": "12806851392",
        "name": "Unibi",
        "role": "stop",
        "isReal": true,
        "mode": "bus"
      }
    },
    {
      "type": "Feature",
      "geometry": {
        "type": "Point",
        "coordinates": [
          107.6528692,
          -6.941787
        ]
      },
      "properties": {
        "id": "12806851396",
        "name": "Cidurian Utara",
        "role": "stop",
        "isReal": true,
        "mode": "bus"
      }
    },
    {
      "type": "Feature",
      "geometry": {
        "type": "Point",
        "coordinates": [
          107.65494724999999,
          -6.9411421
        ]
      },
      "properties": {
        "id": "virtual_107.6549_-6.9411",
        "name": "Jalan terdekat",
        "role": "virtual",
        "isReal": false,
        "mode": "bus"
      }
    },
    {
      "type": "Feature",
      "geometry": {
        "type": "Point",
        "coordinates": [
          107.6569119,
          -6.9405212
        ]
      },
      "properties": {
        "id": "12806851393",
        "name": "SMKN 9 Bandung",
        "role": "stop",
        "isReal": true,
        "mode": "bus"
      }
    },
    {
      "type": "Feature",
      "geometry": {
        "type": "Point",
        "coordinates": [
          107.6582639,
          -6.9400924
        ]
      },
      "properties": {
        "id": "3375689664",
        "name": "Jasa Raharja Jabar",
        "role": "stop",
        "isReal": true,
        "mode": "bus"
      }
    },
    {
      "type": "Feature",
      "geometry": {
        "type": "Point",
        "coordinates": [
          107.6601512,
          -6.9395718
        ]
      },
      "properties": {
        "id": "12806851400",
        "name": "Suparma",
        "role": "stop",
        "isReal": true,
        "mode": "bus"
      }
    },
    {
      "type": "Feature",
      "geometry": {
        "type": "Point",
        "coordinates": [
          107.6635594,
          -6.9390207
        ]
      },
      "properties": {
        "id": "12806868601",
        "name": "Kawaluyaan",
        "role": "stop",
        "isReal": true,
        "mode": "bus"
      }
    },
    {
      "type": "Feature",
      "geometry": {
        "type": "Point",
        "coordinates": [
          107.6659038,
          -6.9388221
        ]
      },
      "properties": {
        "id": "virtual_107.6659_-6.9388",
        "name": "Jalan Soekarno-Hatta",
        "role": "virtual",
        "isReal": false,
        "mode": "bus"
      }
    },
    {
      "type": "Feature",
      "geometry": {
        "type": "Point",
        "coordinates": [
          107.6672726,
          -6.938728
        ]
      },
      "properties": {
        "id": "12806868603",
        "name": "Sanggar Hurip",
        "role": "stop",
        "isReal": true,
        "mode": "bus"
      }
    },
    {
      "type": "Feature",
      "geometry": {
        "type": "Point",
        "coordinates": [
          107.6696795,
          -6.9385517
        ]
      },
      "properties": {
        "id": "virtual_107.6697_-6.9386",
        "name": "Jalan Soekarno-Hatta",
        "role": "virtual",
        "isReal": false,
        "mode": "bus"
      }
    },
    {
      "type": "Feature",
      "geometry": {
        "type": "Point",
        "coordinates": [
          107.6725046,
          -6.9383493
        ]
      },
      "properties": {
        "id": "virtual_107.6725_-6.9383",
        "name": "Jalan Soekarno-Hatta",
        "role": "virtual",
        "isReal": false,
        "mode": "bus"
      }
    },
    {
      "type": "Feature",
      "geometry": {
        "type": "Point",
        "coordinates": [
          107.6744202,
          -6.9382178
        ]
      },
      "properties": {
        "id": "virtual_107.6744_-6.9382",
        "name": "Jalan Soekarno-Hatta",
        "role": "virtual",
        "isReal": false,
        "mode": "bus"
      }
    },
    {
      "type": "Feature",
      "geometry": {
        "type": "Point",
        "coordinates": [
          107.6775339,
          -6.9379974
        ]
      },
      "properties": {
        "id": "12806868618",
        "name": "Cisaranten Kulon",
        "role": "stop",
        "isReal": true,
        "mode": "bus"
      }
    },
    {
      "type": "Feature",
      "geometry": {
        "type": "Point",
        "coordinates": [
          107.6794352,
          -6.9378628
        ]
      },
      "properties": {
        "id": "12806868620",
        "name": "KPP Pratama Cicadas",
        "role": "stop",
        "isReal": true,
        "mode": "bus"
      }
    },
    {
      "type": "Feature",
      "geometry": {
        "type": "Point",
        "coordinates": [
          107.68350054285715,
          -6.937579371428572
        ]
      },
      "properties": {
        "id": "virtual_107.6835_-6.9376",
        "name": "Jalan terdekat",
        "role": "virtual",
        "isReal": false,
        "mode": "bus"
      }
    },
    {
      "type": "Feature",
      "geometry": {
        "type": "Point",
        "coordinates": [
          107.68605475714286,
          -6.937393542857143
        ]
      },
      "properties": {
        "id": "virtual_107.6861_-6.9374",
        "name": "Jalan terdekat",
        "role": "virtual",
        "isReal": false,
        "mode": "bus"
      }
    },
    {
      "type": "Feature",
      "geometry": {
        "type": "Point",
        "coordinates": [
          107.68852662857144,
          -6.937208285714286
        ]
      },
      "properties": {
        "id": "virtual_107.6885_-6.9372",
        "name": "Jalan terdekat",
        "role": "virtual",
        "isReal": false,
        "mode": "bus"
      }
    },
    {
      "type": "Feature",
      "geometry": {
        "type": "Point",
        "coordinates": [
          107.6908917,
          -6.937029228571428
        ]
      },
      "properties": {
        "id": "virtual_107.6909_-6.9370",
        "name": "Jalan terdekat",
        "role": "virtual",
        "isReal": false,
        "mode": "bus"
      }
    },
    {
      "type": "Feature",
      "geometry": {
        "type": "Point",
        "coordinates": [
          107.69229224285715,
          -6.936961628571429
        ]
      },
      "properties": {
        "id": "virtual_107.6923_-6.9370",
        "name": "Jalan terdekat",
        "role": "virtual",
        "isReal": false,
        "mode": "bus"
      }
    },
    {
      "type": "Feature",
      "geometry": {
        "type": "Point",
        "coordinates": [
          107.6973063,
          -6.9365674
        ]
      },
      "properties": {
        "id": "12814754658",
        "name": "Depan Pasar Gedebage",
        "role": "stop",
        "isReal": true,
        "mode": "bus"
      }
    },
    {
      "type": "Feature",
      "geometry": {
        "type": "Point",
        "coordinates": [
          107.69957002,
          -6.93639562
        ]
      },
      "properties": {
        "id": "virtual_107.6996_-6.9364",
        "name": "Jalan terdekat",
        "role": "virtual",
        "isReal": false,
        "mode": "bus"
      }
    },
    {
      "type": "Feature",
      "geometry": {
        "type": "Point",
        "coordinates": [
          107.70143226,
          -6.9362536
        ]
      },
      "properties": {
        "id": "virtual_107.7014_-6.9363",
        "name": "Jalan terdekat",
        "role": "virtual",
        "isReal": false,
        "mode": "bus"
      }
    },
    {
      "type": "Feature",
      "geometry": {
        "type": "Point",
        "coordinates": [
          107.70281143999999,
          -6.93614962
        ]
      },
      "properties": {
        "id": "virtual_107.7028_-6.9361",
        "name": "Jalan terdekat",
        "role": "virtual",
        "isReal": false,
        "mode": "bus"
      }
    },
    {
      "type": "Feature",
      "geometry": {
        "type": "Point",
        "coordinates": [
          107.70468956,
          -6.9360079
        ]
      },
      "properties": {
        "id": "virtual_107.7047_-6.9360",
        "name": "Jalan terdekat",
        "role": "virtual",
        "isReal": false,
        "mode": "bus"
      }
    },
    {
      "type": "Feature",
      "geometry": {
        "type": "Point",
        "coordinates": [
          107.7099558,
          -6.9356286
        ]
      },
      "properties": {
        "id": "12806516348",
        "name": "Universitas Bhakti Kencana",
        "role": "stop",
        "isReal": true,
        "mode": "bus"
      }
    },
    {
      "type": "Feature",
      "geometry": {
        "type": "Point",
        "coordinates": [
          107.7175908,
          -6.9352673
        ]
      },
      "properties": {
        "id": "35131593",
        "name": "Bundaran Cibiru",
        "role": "stop",
        "isReal": true,
        "mode": "bus"
      }
    },
    {
      "type": "Feature",
      "geometry": {
        "type": "Point",
        "coordinates": [
          107.7124705,
          -6.9359251
        ]
      },
      "properties": {
        "id": "virtual_107.7125_-6.9359",
        "name": "Jalan Raya Panyileukan",
        "role": "virtual",
        "isReal": false,
        "mode": "bus"
      }
    },
    {
      "type": "Feature",
      "geometry": {
        "type": "Point",
        "coordinates": [
          107.7136482,
          -6.9386251
        ]
      },
      "properties": {
        "id": "virtual_107.7136_-6.9386",
        "name": "Jalan Raya Bumi Panyileukan",
        "role": "virtual",
        "isReal": false,
        "mode": "bus"
      }
    },
    {
      "type": "Feature",
      "geometry": {
        "type": "Point",
        "coordinates": [
          107.7143446,
          -6.9410757
        ]
      },
      "properties": {
        "id": "virtual_107.7143_-6.9411",
        "name": "Jalan Raya Bumi Panyileukan",
        "role": "virtual",
        "isReal": false,
        "mode": "bus"
      }
    },
    {
      "type": "Feature",
      "geometry": {
        "type": "Point",
        "coordinates": [
          107.7138976,
          -6.944671
        ]
      },
      "properties": {
        "id": "virtual_107.7139_-6.9447",
        "name": "Jalan Raya Bumi Panyileukan",
        "role": "virtual",
        "isReal": false,
        "mode": "bus"
      }
    },
    {
      "type": "Feature",
      "geometry": {
        "type": "Point",
        "coordinates": [
          107.712912,
          -6.9466584
        ]
      },
      "properties": {
        "id": "10991362712",
        "name": "Pangkalan Angkot Bumi Panyileukan",
        "role": "stop_exit_only",
        "isReal": true,
        "mode": "bus"
      }
    }
  ]
}