{
  "type": "FeatureCollection",
  "features": [
    {
      "type": "Feature",
      "geometry": {
        "type": "Point",
        "coordinates": [
          107.6058121,
          -6.9276265
        ]
      },
      "properties": {
        "id": "3374033509",
        "name": "Terminal Abdul Muis/Kebon Kalapa",
        "role": "stop_entry_only",
        "mode": "bus"
      }
    },
    {
      "type": "Feature",
      "geometry": {
        "type": "Point",
        "coordinates": [
          107.6059915,
          -6.926739
        ]
      },
      "properties": {
        "id": "12626529705",
        "name": "ITC Kebon Kalapa",
        "role": "stop",
        "mode": "bus"
      }
    },
    {
      "type": "Feature",
      "geometry": {
        "type": "Point",
        "coordinates": [
          107.6066649,
          -6.9257801
        ]
      },
      "properties": {
        "id": "12808948222",
        "name": "SMPN 43 Bandung",
        "role": "stop",
        "mode": "bus"
      }
    },
    {
      "type": "Feature",
      "geometry": {
        "type": "Point",
        "coordinates": [
          107.6075592,
          -6.927539
        ]
      },
      "properties": {
        "id": "v_107.607559_-6.927539",
        "name": "Jalan Pungkur",
        "role": "virtual",
        "mode": "bus"
      }
    },
    {
      "type": "Feature",
      "geometry": {
        "type": "Point",
        "coordinates": [
          107.608899,
          -6.9278672
        ]
      },
      "properties": {
        "id": "12808948220",
        "name": "Pasundan",
        "role": "stop",
        "mode": "bus"
      }
    },
    {
      "type": "Feature",
      "geometry": {
        "type": "Point",
        "coordinates": [
          107.6100312,
          -6.9290167
        ]
      },
      "properties": {
        "id": "v_107.610031_-6.929017",
        "name": "Jalan Pungkur",
        "role": "virtual",
        "mode": "bus"
      }
    },
    {
      "type": "Feature",
      "geometry": {
        "type": "Point",
        "coordinates": [
          107.6116186,
          -6.9305702
        ]
      },
      "properties": {
        "id": "v_107.611619_-6.930570",
        "name": "Jalan Pungkur",
        "role": "virtual",
        "mode": "bus"
      }
    },
    {
      "type": "Feature",
      "geometry": {
        "type": "Point",
        "coordinates": [
          107.6129795,
          -6.9318313
        ]
      },
      "properties": {
        "id": "v_107.612979_-6.931831",
        "name": "Jalan Pungkur",
        "role": "virtual",
        "mode": "bus"
      }
    },
    {
      "type": "Feature",
      "geometry": {
        "type": "Point",
        "coordinates": [
          107.6143118,
          -6.9323443
        ]
      },
      "properties": {
        "id": "v_107.614312_-6.932344",
        "name": "Jalan Pungkur",
        "role": "virtual",
        "mode": "bus"
      }
    },
    {
      "type": "Feature",
      "geometry": {
        "type": "Point",
        "coordinates": [
          107.6158192,
          -6.9311439
        ]
      },
      "properties": {
        "id": "12806120217",
        "name": "Unla",
        "role": "stop",
        "mode": "bus"
      }
    },
    {
      "type": "Feature",
      "geometry": {
        "type": "Point",
        "coordinates": [
          107.6160678,
          -6.9302053
        ]
      },
      "properties": {
        "id": "12825997237",
        "name": "Melong Karapitan",
        "role": "stop",
        "mode": "bus"
      }
    },
    {
      "type": "Feature",
      "geometry": {
        "type": "Point",
        "coordinates": [
          107.6165815,
          -6.9282903
        ]
      },
      "properties": {
        "id": "12825997239",
        "name": "Karapitan Cikawao",
        "role": "stop",
        "mode": "bus"
      }
    },
    {
      "type": "Feature",
      "geometry": {
        "type": "Point",
        "coordinates": [
          107.6169043,
          -6.9270918
        ]
      },
      "properties": {
        "id": "12825997243",
        "name": "Karapitan Emung",
        "role": "stop",
        "mode": "bus"
      }
    },
    {
      "type": "Feature",
      "geometry": {
        "type": "Point",
        "coordinates": [
          107.61732,
          -6.9250993
        ]
      },
      "properties": {
        "id": "12825997241",
        "name": "Karapitan Paledang",
        "role": "stop",
        "mode": "bus"
      }
    },
    {
      "type": "Feature",
      "geometry": {
        "type": "Point",
        "coordinates": [
          107.6174781,
          -6.9237379
        ]
      },
      "properties": {
        "id": "v_107.617478_-6.923738",
        "name": "Jalan Sunda",
        "role": "virtual",
        "mode": "bus"
      }
    },
    {
      "type": "Feature",
      "geometry": {
        "type": "Point",
        "coordinates": [
          107.6176047,
          -6.9222986
        ]
      },
      "properties": {
        "id": "v_107.617605_-6.922299",
        "name": "Jalan Sunda",
        "role": "virtual",
        "mode": "bus"
      }
    },
    {
      "type": "Feature",
      "geometry": {
        "type": "Point",
        "coordinates": [
          107.6179265,
          -6.9194254
        ]
      },
      "properties": {
        "id": "10280072517",
        "name": "Gereja Sidang Kristus",
        "role": "stop",
        "mode": "bus"
      }
    },
    {
      "type": "Feature",
      "geometry": {
        "type": "Point",
        "coordinates": [
          107.6180659,
          -6.9178998
        ]
      },
      "properties": {
        "id": "12806120211",
        "name": "Yogya Sunda",
        "role": "stop",
        "mode": "bus"
      }
    },
    {
      "type": "Feature",
      "geometry": {
        "type": "Point",
        "coordinates": [
          107.6182615,
          -6.9164276
        ]
      },
      "properties": {
        "id": "v_107.618262_-6.916428",
        "name": "Jalan Sunda",
        "role": "virtual",
        "mode": "bus"
      }
    },
    {
      "type": "Feature",
      "geometry": {
        "type": "Point",
        "coordinates": [
          107.6181449,
          -6.9150772
        ]
      },
      "properties": {
        "id": "v_107.618145_-6.915077",
        "name": "Jalan Sumbawa",
        "role": "virtual",
        "mode": "bus"
      }
    },
    {
      "type": "Feature",
      "geometry": {
        "type": "Point",
        "coordinates": [
          107.6173371,
          -6.9136482
        ]
      },
      "properties": {
        "id": "12806120207",
        "name": "Balai Bahasa Jawa Barat",
        "role": "stop",
        "mode": "bus"
      }
    },
    {
      "type": "Feature",
      "geometry": {
        "type": "Point",
        "coordinates": [
          107.6177677,
          -6.9131842
        ]
      },
      "properties": {
        "id": "12809507134",
        "name": "Kantor Kecamatan Sumurbandung",
        "role": "stop",
        "mode": "bus"
      }
    },
    {
      "type": "Feature",
      "geometry": {
        "type": "Point",
        "coordinates": [
          107.617548,
          -6.9117847
        ]
      },
      "properties": {
        "id": "v_107.617548_-6.911785",
        "name": "Jalan Banda",
        "role": "virtual",
        "mode": "bus"
      }
    },
    {
      "type": "Feature",
      "geometry": {
        "type": "Point",
        "coordinates": [
          107.6175806,
          -6.9100152
        ]
      },
      "properties": {
        "id": "v_107.617581_-6.910015",
        "name": "Jalan Banda",
        "role": "virtual",
        "mode": "bus"
      }
    },
    {
      "type": "Feature",
      "geometry": {
        "type": "Point",
        "coordinates": [
          107.6169984,
          -6.9072231
        ]
      },
      "properties": {
        "id": "25433284",
        "name": "Banda Saparua",
        "role": "stop",
        "mode": "bus"
      }
    },
    {
      "type": "Feature",
      "geometry": {
        "type": "Point",
        "coordinates": [
          107.6159699,
          -6.9063138
        ]
      },
      "properties": {
        "id": "3375794699",
        "name": "Simpang Banda Riau",
        "role": "stop",
        "mode": "bus"
      }
    },
    {
      "type": "Feature",
      "geometry": {
        "type": "Point",
        "coordinates": [
          107.6144094,
          -6.9064746
        ]
      },
      "properties": {
        "id": "v_107.614409_-6.906475",
        "name": "Jalan L.L. RE. Martadinata",
        "role": "virtual",
        "mode": "bus"
      }
    },
    {
      "type": "Feature",
      "geometry": {
        "type": "Point",
        "coordinates": [
          107.6119393,
          -6.9070669
        ]
      },
      "properties": {
        "id": "12825997245",
        "name": "Hotel Santika",
        "role": "stop",
        "mode": "bus"
      }
    },
    {
      "type": "Feature",
      "geometry": {
        "type": "Point",
        "coordinates": [
          107.610623,
          -6.9088887
        ]
      },
      "properties": {
        "id": "11739021633",
        "name": "Bandung Indah Plaza",
        "role": "stop",
        "mode": "bus"
      }
    },
    {
      "type": "Feature",
      "geometry": {
        "type": "Point",
        "coordinates": [
          107.6106101,
          -6.9103764
        ]
      },
      "properties": {
        "id": "3376669065",
        "name": "Taman Sejarah Balai Kota Bandung",
        "role": "stop",
        "mode": "bus"
      }
    },
    {
      "type": "Feature",
      "geometry": {
        "type": "Point",
        "coordinates": [
          107.6104548,
          -6.9125343
        ]
      },
      "properties": {
        "id": "11739021637",
        "name": "Merdeka",
        "role": "stop",
        "mode": "bus"
      }
    },
    {
      "type": "Feature",
      "geometry": {
        "type": "Point",
        "coordinates": [
          107.6099856,
          -6.9139284
        ]
      },
      "properties": {
        "id": "12825997248",
        "name": "Taman Vanda",
        "role": "stop",
        "mode": "bus"
      }
    },
    {
      "type": "Feature",
      "geometry": {
        "type": "Point",
        "coordinates": [
          107.609039,
          -6.9130013
        ]
      },
      "properties": {
        "id": "11739064594",
        "name": "SMK Negeri 1 Bandung",
        "role": "stop",
        "mode": "bus"
      }
    },
    {
      "type": "Feature",
      "geometry": {
        "type": "Point",
        "coordinates": [
          107.6090912,
          -6.9111612
        ]
      },
      "properties": {
        "id": "12809274346",
        "name": "Masjid Al-Ukhuwwah",
        "role": "stop",
        "mode": "bus"
      }
    },
    {
      "type": "Feature",
      "geometry": {
        "type": "Point",
        "coordinates": [
          107.6079826,
          -6.9088722
        ]
      },
      "properties": {
        "id": "12809274348",
        "name": "Wastukencana Purnawarman",
        "role": "stop",
        "mode": "bus"
      }
    },
    {
      "type": "Feature",
      "geometry": {
        "type": "Point",
        "coordinates": [
          107.6073442,
          -6.9076324
        ]
      },
      "properties": {
        "id": "v_107.607344_-6.907632",
        "name": "Jalan Pajajaran",
        "role": "virtual",
        "mode": "bus"
      }
    },
    {
      "type": "Feature",
      "geometry": {
        "type": "Point",
        "coordinates": [
          107.6058415,
          -6.9071486
        ]
      },
      "properties": {
        "id": "v_107.605841_-6.907149",
        "name": "Jalan Pajajaran",
        "role": "virtual",
        "mode": "bus"
      }
    },
    {
      "type": "Feature",
      "geometry": {
        "type": "Point",
        "coordinates": [
          107.6044125,
          -6.9064803
        ]
      },
      "properties": {
        "id": "11739021630",
        "name": "STHB (Sekolah Tinggi Hukum Bandung)",
        "role": "stop",
        "mode": "bus"
      }
    },
    {
      "type": "Feature",
      "geometry": {
        "type": "Point",
        "coordinates": [
          107.6038123,
          -6.904381
        ]
      },
      "properties": {
        "id": "3269294966",
        "name": "Abdul Rivai",
        "role": "stop",
        "mode": "bus"
      }
    },
    {
      "type": "Feature",
      "geometry": {
        "type": "Point",
        "coordinates": [
          107.602896,
          -6.9032304
        ]
      },
      "properties": {
        "id": "v_107.602896_-6.903230",
        "name": "Jalan Raden Adipati Aria Wiranatakusumah",
        "role": "virtual",
        "mode": "bus"
      }
    },
    {
      "type": "Feature",
      "geometry": {
        "type": "Point",
        "coordinates": [
          107.6023472,
          -6.9015634
        ]
      },
      "properties": {
        "id": "v_107.602347_-6.901563",
        "name": "Jalan Raden Adipati Aria Wiranatakusumah",
        "role": "virtual",
        "mode": "bus"
      }
    },
    {
      "type": "Feature",
      "geometry": {
        "type": "Point",
        "coordinates": [
          107.6014571,
          -6.9003605
        ]
      },
      "properties": {
        "id": "v_107.601457_-6.900360",
        "name": "Jalan Pasteur",
        "role": "virtual",
        "mode": "bus"
      }
    },
    {
      "type": "Feature",
      "geometry": {
        "type": "Point",
        "coordinates": [
          107.5999891,
          -6.9003576
        ]
      },
      "properties": {
        "id": "v_107.599989_-6.900358",
        "name": "Jalan Pasteur",
        "role": "virtual",
        "mode": "bus"
      }
    },
    {
      "type": "Feature",
      "geometry": {
        "type": "Point",
        "coordinates": [
          107.5985681,
          -6.9003769
        ]
      },
      "properties": {
        "id": "v_107.598568_-6.900377",
        "name": "Jalan Pasteur",
        "role": "virtual",
        "mode": "bus"
      }
    },
    {
      "type": "Feature",
      "geometry": {
        "type": "Point",
        "coordinates": [
          107.5973503,
          -6.8989275
        ]
      },
      "properties": {
        "id": "5639376088",
        "name": "Garunggang Kulon",
        "role": "stop",
        "mode": "bus"
      }
    },
    {
      "type": "Feature",
      "geometry": {
        "type": "Point",
        "coordinates": [
          107.5973197,
          -6.8979069
        ]
      },
      "properties": {
        "id": "12825997250",
        "name": "SPBU Paskal",
        "role": "stop",
        "mode": "bus"
      }
    },
    {
      "type": "Feature",
      "geometry": {
        "type": "Point",
        "coordinates": [
          107.5972487,
          -6.8960662
        ]
      },
      "properties": {
        "id": "29357744",
        "name": "Cibarengkok",
        "role": "stop",
        "mode": "bus"
      }
    },
    {
      "type": "Feature",
      "geometry": {
        "type": "Point",
        "coordinates": [
          107.5971398,
          -6.8945401
        ]
      },
      "properties": {
        "id": "v_107.597140_-6.894540",
        "name": "Jalan Sukajadi",
        "role": "virtual",
        "mode": "bus"
      }
    },
    {
      "type": "Feature",
      "geometry": {
        "type": "Point",
        "coordinates": [
          107.5970391,
          -6.8930157
        ]
      },
      "properties": {
        "id": "v_107.597039_-6.893016",
        "name": "Jalan Sukajadi",
        "role": "virtual",
        "mode": "bus"
      }
    },
    {
      "type": "Feature",
      "geometry": {
        "type": "Point",
        "coordinates": [
          107.596952,
          -6.8913554
        ]
      },
      "properties": {
        "id": "29357741",
        "name": "Sukagalih PVJ",
        "role": "stop",
        "mode": "bus"
      }
    },
    {
      "type": "Feature",
      "geometry": {
        "type": "Point",
        "coordinates": [
          107.5969028,
          -6.8899793
        ]
      },
      "properties": {
        "id": "v_107.596903_-6.889979",
        "name": "Jalan Sukajadi",
        "role": "virtual",
        "mode": "bus"
      }
    },
    {
      "type": "Feature",
      "geometry": {
        "type": "Point",
        "coordinates": [
          107.5967776,
          -6.8878725
        ]
      },
      "properties": {
        "id": "1746711065",
        "name": "Polsek Sukajadi",
        "role": "stop",
        "mode": "bus"
      }
    },
    {
      "type": "Feature",
      "geometry": {
        "type": "Point",
        "coordinates": [
          107.5964324,
          -6.88604
        ]
      },
      "properties": {
        "id": "v_107.596432_-6.886040",
        "name": "Jalan Sukajadi",
        "role": "virtual",
        "mode": "bus"
      }
    },
    {
      "type": "Feature",
      "geometry": {
        "type": "Point",
        "coordinates": [
          107.5965088,
          -6.8836453
        ]
      },
      "properties": {
        "id": "3380200149",
        "name": "Mandiri Sukajadi",
        "role": "stop",
        "mode": "bus"
      }
    },
    {
      "type": "Feature",
      "geometry": {
        "type": "Point",
        "coordinates": [
          107.5964601,
          -6.8821498
        ]
      },
      "properties": {
        "id": "v_107.596460_-6.882150",
        "name": "Jalan Sukajadi",
        "role": "virtual",
        "mode": "bus"
      }
    },
    {
      "type": "Feature",
      "geometry": {
        "type": "Point",
        "coordinates": [
          107.5963847,
          -6.8806684
        ]
      },
      "properties": {
        "id": "v_107.596385_-6.880668",
        "name": "Jalan Sukajadi",
        "role": "virtual",
        "mode": "bus"
      }
    },
    {
      "type": "Feature",
      "geometry": {
        "type": "Point",
        "coordinates": [
          107.596246,
          -6.8780655
        ]
      },
      "properties": {
        "id": "3376673098",
        "name": "Sukawangi",
        "role": "stop",
        "mode": "bus"
      }
    },
    {
      "type": "Feature",
      "geometry": {
        "type": "Point",
        "coordinates": [
          107.5960887,
          -6.8756034
        ]
      },
      "properties": {
        "id": "12825997252",
        "name": "Gereja Santo Laurentius",
        "role": "stop",
        "mode": "bus"
      }
    },
    {
      "type": "Feature",
      "geometry": {
        "type": "Point",
        "coordinates": [
          107.5957592,
          -6.8739356
        ]
      },
      "properties": {
        "id": "12809082550",
        "name": "SMPN 15 Bandung",
        "role": "stop",
        "mode": "bus"
      }
    },
    {
      "type": "Feature",
      "geometry": {
        "type": "Point",
        "coordinates": [
          107.5948065,
          -6.8727176
        ]
      },
      "properties": {
        "id": "v_107.594807_-6.872718",
        "name": "Jalan Dokter Danudirja Setiabudhi",
        "role": "virtual",
        "mode": "bus"
      }
    },
    {
      "type": "Feature",
      "geometry": {
        "type": "Point",
        "coordinates": [
          107.593895,
          -6.8715029
        ]
      },
      "properties": {
        "id": "v_107.593895_-6.871503",
        "name": "Jalan Dokter Danudirja Setiabudhi",
        "role": "virtual",
        "mode": "bus"
      }
    },
    {
      "type": "Feature",
      "geometry": {
        "type": "Point",
        "coordinates": [
          107.593506,
          -6.8701005
        ]
      },
      "properties": {
        "id": "v_107.593506_-6.870101",
        "name": "Jalan Dokter Danudirja Setiabudhi",
        "role": "virtual",
        "mode": "bus"
      }
    },
    {
      "type": "Feature",
      "geometry": {
        "type": "Point",
        "coordinates": [
          107.5936323,
          -6.8686837
        ]
      },
      "properties": {
        "id": "v_107.593632_-6.868684",
        "name": "Jalan Dokter Danudirja Setiabudhi",
        "role": "virtual",
        "mode": "bus"
      }
    },
    {
      "type": "Feature",
      "geometry": {
        "type": "Point",
        "coordinates": [
          107.5938847,
          -6.8666866
        ]
      },
      "properties": {
        "id": "v_107.593885_-6.866687",
        "name": "Jalan Dokter Danudirja Setiabudhi",
        "role": "virtual",
        "mode": "bus"
      }
    },
    {
      "type": "Feature",
      "geometry": {
        "type": "Point",
        "coordinates": [
          107.594077,
          -6.8653206
        ]
      },
      "properties": {
        "id": "12809046293",
        "name": "Gegerkalong Girang",
        "role": "stop",
        "mode": "bus"
      }
    },
    {
      "type": "Feature",
      "geometry": {
        "type": "Point",
        "coordinates": [
          107.5943977,
          -6.8638456
        ]
      },
      "properties": {
        "id": "v_107.594398_-6.863846",
        "name": "Jalan Dokter Setiabudi",
        "role": "virtual",
        "mode": "bus"
      }
    },
    {
      "type": "Feature",
      "geometry": {
        "type": "Point",
        "coordinates": [
          107.5956823,
          -6.8631776
        ]
      },
      "properties": {
        "id": "v_107.595682_-6.863178",
        "name": "Jalan Dokter Setiabudi",
        "role": "virtual",
        "mode": "bus"
      }
    },
    {
      "type": "Feature",
      "geometry": {
        "type": "Point",
        "coordinates": [
          107.5955484,
          -6.8617416
        ]
      },
      "properties": {
        "id": "v_107.595548_-6.861742",
        "name": "Jalan Dokter Setiabudi",
        "role": "virtual",
        "mode": "bus"
      }
    },
    {
      "type": "Feature",
      "geometry": {
        "type": "Point",
        "coordinates": [
          107.594757,
          -6.8600369
        ]
      },
      "properties": {
        "id": "3376673106",
        "name": "Museum Pendidikan Nasional UPI",
        "role": "stop",
        "mode": "bus"
      }
    },
    {
      "type": "Feature",
      "geometry": {
        "type": "Point",
        "coordinates": [
          107.5951942,
          -6.85933
        ]
      },
      "properties": {
        "id": "11711070002",
        "name": "Terminal Ledeng",
        "role": "stop_exit_only",
        "mode": "bus"
      }
    }
  ]
}