{"type":"FeatureCollection","features":[{"type":"Feature","geometry":{"type":"Point","coordinates":[107.6023772,-6.9160595]},"properties":{"id":7835804493,"alt_name":"Stasiun Bandung Pintu Selatan","bus":"yes","highway":"bus_stop","image":"https://commons.wikimedia.org/wiki/File:Halte_Stasiun_Bandung_Pintu_Selatan.jpg","name":"Stasiun Hall","public_transport":"platform","ramp":"no","route_ref":"4","shelter":"no","tactile_paving":"no","wheelchair":"no"}},{"type":"Feature","geometry":{"type":"Point","coordinates":[107.6090686,-6.9145193]},"properties":{"id":10778322186,"bench":"yes","bus":"yes","departures_board":"no","description":"Terdapat Bangunan Halte Beratap Terdapat plang bus stop","highway":"bus_stop","image":"https://commons.wikimedia.org/wiki/File:Halte_Trans_Metro_Pasundan_Bank_Indonesia.jpg","name":"Bank Indonesia","public_transport":"platform","ramp":"no","route_ref":"4","shelter":"yes","tactile_paving":"yes","wheelchair":"no"}},{"type":"Feature","geometry":{"type":"Point","coordinates":[107.6078989,-6.9139566]},"properties":{"id":10778322187,"bus":"yes","highway":"bus_stop","name":"Perintis Kemerdekaan","public_transport":"platform","route_ref":"2","shelter":"yes"}},{"type":"Feature","geometry":{"type":"Point","coordinates":[107.6044803,-6.9153549]},"properties":{"id":10778347105,"bus":"yes","highway":"bus_stop","name":"Stasiun Timur","public_transport":"platform","route_ref":"3","shelter":"no"}},{"type":"Feature","geometry":{"type":"Point","coordinates":[107.5917182,-6.9164853]},"properties":{"id":11735239267,"bus":"yes","highway":"bus_stop","name":"SMA Trinitas","public_transport":"platform","route_ref":"2","shelter":"no"}},{"type":"Feature","geometry":{"type":"Point","coordinates":[107.5966128,-6.9162875]},"properties":{"id":11735248670,"bus":"yes","departures_board":"no","highway":"bus_stop","name":"Rumah Sakit Kebon Jati","public_transport":"platform","route_ref":"2","shelter":"yes"}},{"type":"Feature","geometry":{"type":"Point","coordinates":[107.6098295,-6.9164083]},"properties":{"id":11735248676,"bus":"yes","departures_board":"no","highway":"bus_stop","name":"Lembong","public_transport":"platform","route_ref":"2","shelter":"yes"}}]}