{"type":"FeatureCollection","features":[{"type":"Feature","geometry":{"type":"Point","coordinates":[107.6139208,-6.8847883]},"properties":{"id":1662376972,"bus":"yes","highway":"bus_stop","name":"Pasar Simpang Dago","public_transport":"platform"}},{"type":"Feature","geometry":{"type":"Point","coordinates":[107.6209158,-6.8670312]},"properties":{"id":3240012632,"bus":"yes","highway":"bus_stop","name":"Terminal Dago","public_transport":"platform"}},{"type":"Feature","geometry":{"type":"Point","coordinates":[107.6140101,-6.9148385]},"properties":{"id":3374033498,"bus":"yes","highway":"bus_stop","name":"Jl. Jawa/Jl. Sumatra","public_transport":"stop_position","ref":"Jl. Jawa/Jl. Sumatra"}},{"type":"Feature","geometry":{"type":"Point","coordinates":[107.61284,-6.8995754]},"properties":{"id":3375103672,"bus":"yes","highway":"bus_stop","name":"Cikapayang","public_transport":"platform","ref":"Cikapayang","shelter":"no","type":"public_transport"}},{"type":"Feature","geometry":{"type":"Point","coordinates":[107.6144038,-6.9121654]},"properties":{"id":11880588500,"bus":"yes","highway":"bus_stop","name":"Belitung","public_transport":"platform"}},{"type":"Feature","geometry":{"type":"Point","coordinates":[107.6126552,-6.9179641]},"properties":{"id":11880588501,"bus":"yes","highway":"bus_stop","name":"Tugu Persib","public_transport":"platform"}}]}