{
  "type": "FeatureCollection",
  "features": [
    {
      "type": "Feature",
      "geometry": {
        "type": "Point",
        "coordinates": [
          107.6058121,
          -6.9276265
        ]
      },
      "properties": {
        "id": "3374033509",
        "name": "Terminal Abdul Muis/Kebon Kalapa",
        "role": "stop_entry_only",
        "isReal": true,
        "mode": "bus"
      }
    },
    {
      "type": "Feature",
      "geometry": {
        "type": "Point",
        "coordinates": [
          107.6059915,
          -6.926739
        ]
      },
      "properties": {
        "id": "12626529705",
        "name": "ITC Kebon Kalapa",
        "role": "stop",
        "isReal": true,
        "mode": "bus"
      }
    },
    {
      "type": "Feature",
      "geometry": {
        "type": "Point",
        "coordinates": [
          107.606261,
          -6.9238597
        ]
      },
      "properties": {
        "id": "11898859975",
        "name": "Grand Yogya Kepatihan",
        "role": "stop",
        "isReal": true,
        "mode": "bus"
      }
    },
    {
      "type": "Feature",
      "geometry": {
        "type": "Point",
        "coordinates": [
          107.6075532,
          -6.9224801
        ]
      },
      "properties": {
        "id": "virtual_107.6076_-6.9225",
        "name": "Jalan terdekat",
        "role": "virtual",
        "isReal": false,
        "mode": "bus"
      }
    },
    {
      "type": "Feature",
      "geometry": {
        "type": "Point",
        "coordinates": [
          107.6071455,
          -6.9211653
        ]
      },
      "properties": {
        "id": "11711275743",
        "name": "Alun-Alun Bandung",
        "role": "stop",
        "isReal": true,
        "mode": "bus"
      }
    },
    {
      "type": "Feature",
      "geometry": {
        "type": "Point",
        "coordinates": [
          107.6065186,
          -6.9205454
        ]
      },
      "properties": {
        "id": "12808912264",
        "name": "Pos Banceuy",
        "role": "stop",
        "isReal": true,
        "mode": "bus"
      }
    },
    {
      "type": "Feature",
      "geometry": {
        "type": "Point",
        "coordinates": [
          107.6066404,
          -6.9187122
        ]
      },
      "properties": {
        "id": "12626529706",
        "name": "Banceuy",
        "role": "stop",
        "isReal": true,
        "mode": "bus"
      }
    },
    {
      "type": "Feature",
      "geometry": {
        "type": "Point",
        "coordinates": [
          107.6065461,
          -6.9155971
        ]
      },
      "properties": {
        "id": "virtual_107.6065_-6.9156",
        "name": "Jalan Banceuy",
        "role": "virtual",
        "isReal": false,
        "mode": "bus"
      }
    },
    {
      "type": "Feature",
      "geometry": {
        "type": "Point",
        "coordinates": [
          107.604546,
          -6.9153572
        ]
      },
      "properties": {
        "id": "11262097619",
        "name": "Stasiun Timur",
        "role": "stop",
        "isReal": true,
        "mode": "bus"
      }
    },
    {
      "type": "Feature",
      "geometry": {
        "type": "Point",
        "coordinates": [
          107.60708600000001,
          -6.9144570000000005
        ]
      },
      "properties": {
        "id": "virtual_107.6071_-6.9145",
        "name": "Jalan terdekat",
        "role": "virtual",
        "isReal": false,
        "mode": "bus"
      }
    },
    {
      "type": "Feature",
      "geometry": {
        "type": "Point",
        "coordinates": [
          107.6029303,
          -6.9125954
        ]
      },
      "properties": {
        "id": "293384756",
        "name": "Stasiun Bandung",
        "role": "stop",
        "isReal": true,
        "mode": "bus"
      }
    },
    {
      "type": "Feature",
      "geometry": {
        "type": "Point",
        "coordinates": [
          107.6007223,
          -6.9124771
        ]
      },
      "properties": {
        "id": "12806120204",
        "name": "Haji Mesri",
        "role": "stop",
        "isReal": true,
        "mode": "bus"
      }
    },
    {
      "type": "Feature",
      "geometry": {
        "type": "Point",
        "coordinates": [
          107.5979188,
          -6.9114098
        ]
      },
      "properties": {
        "id": "11739021629",
        "name": "SMAN 6 Bandung",
        "role": "stop",
        "isReal": true,
        "mode": "bus"
      }
    },
    {
      "type": "Feature",
      "geometry": {
        "type": "Point",
        "coordinates": [
          107.5977774,
          -6.9094546
        ]
      },
      "properties": {
        "id": "virtual_107.5978_-6.9095",
        "name": "Jalan HOS. Cokroaminoto",
        "role": "virtual",
        "isReal": false,
        "mode": "bus"
      }
    },
    {
      "type": "Feature",
      "geometry": {
        "type": "Point",
        "coordinates": [
          107.5976849,
          -6.9081059
        ]
      },
      "properties": {
        "id": "12806120202",
        "name": "SDN 013 Pajajaran",
        "role": "stop",
        "isReal": true,
        "mode": "bus"
      }
    },
    {
      "type": "Feature",
      "geometry": {
        "type": "Point",
        "coordinates": [
          107.5992067,
          -6.9068065
        ]
      },
      "properties": {
        "id": "2012498684",
        "name": "Taman Adipura",
        "role": "stop",
        "isReal": true,
        "mode": "bus"
      }
    },
    {
      "type": "Feature",
      "geometry": {
        "type": "Point",
        "coordinates": [
          107.599992,
          -6.906861
        ]
      },
      "properties": {
        "id": "11138593915",
        "name": "SDN Pajajaran",
        "role": "stop",
        "isReal": true,
        "mode": "bus"
      }
    },
    {
      "type": "Feature",
      "geometry": {
        "type": "Point",
        "coordinates": [
          107.6019252,
          -6.9070015
        ]
      },
      "properties": {
        "id": "25500626",
        "name": "GOR Padjajaran",
        "role": "stop",
        "isReal": true,
        "mode": "bus"
      }
    },
    {
      "type": "Feature",
      "geometry": {
        "type": "Point",
        "coordinates": [
          107.6044125,
          -6.9064803
        ]
      },
      "properties": {
        "id": "11739021630",
        "name": "STHB (Sekolah Tinggi Hukum Bandung)",
        "role": "stop",
        "isReal": true,
        "mode": "bus"
      }
    },
    {
      "type": "Feature",
      "geometry": {
        "type": "Point",
        "coordinates": [
          107.6038123,
          -6.904381
        ]
      },
      "properties": {
        "id": "3269294966",
        "name": "Abdul Rivai",
        "role": "stop",
        "isReal": true,
        "mode": "bus"
      }
    },
    {
      "type": "Feature",
      "geometry": {
        "type": "Point",
        "coordinates": [
          107.60218573333334,
          -6.904831533333333
        ]
      },
      "properties": {
        "id": "virtual_107.6022_-6.9048",
        "name": "Jalan terdekat",
        "role": "virtual",
        "isReal": false,
        "mode": "bus"
      }
    },
    {
      "type": "Feature",
      "geometry": {
        "type": "Point",
        "coordinates": [
          107.6009419,
          -6.903750733333333
        ]
      },
      "properties": {
        "id": "virtual_107.6009_-6.9038",
        "name": "Jalan terdekat",
        "role": "virtual",
        "isReal": false,
        "mode": "bus"
      }
    },
    {
      "type": "Feature",
      "geometry": {
        "type": "Point",
        "coordinates": [
          107.5982442,
          -6.9010192
        ]
      },
      "properties": {
        "id": "1700556149",
        "name": "Taman Westhoff",
        "role": "stop",
        "isReal": true,
        "mode": "bus"
      }
    },
    {
      "type": "Feature",
      "geometry": {
        "type": "Point",
        "coordinates": [
          107.5973503,
          -6.8989275
        ]
      },
      "properties": {
        "id": "5639376088",
        "name": "Garunggang Kulon",
        "role": "stop",
        "isReal": true,
        "mode": "bus"
      }
    },
    {
      "type": "Feature",
      "geometry": {
        "type": "Point",
        "coordinates": [
          107.5973197,
          -6.8979069
        ]
      },
      "properties": {
        "id": "12825997250",
        "name": "SPBU Paskal",
        "role": "stop",
        "isReal": true,
        "mode": "bus"
      }
    },
    {
      "type": "Feature",
      "geometry": {
        "type": "Point",
        "coordinates": [
          107.5977466,
          -6.896398633333334
        ]
      },
      "properties": {
        "id": "virtual_107.5977_-6.8964",
        "name": "Jalan terdekat",
        "role": "virtual",
        "isReal": false,
        "mode": "bus"
      }
    },
    {
      "type": "Feature",
      "geometry": {
        "type": "Point",
        "coordinates": [
          107.598921,
          -6.893417366666667
        ]
      },
      "properties": {
        "id": "virtual_107.5989_-6.8934",
        "name": "Jalan terdekat",
        "role": "virtual",
        "isReal": false,
        "mode": "bus"
      }
    },
    {
      "type": "Feature",
      "geometry": {
        "type": "Point",
        "coordinates": [
          107.5996153,
          -6.8908128
        ]
      },
      "properties": {
        "id": "3249461526",
        "name": "Pasar Sederhana",
        "role": "stop",
        "isReal": true,
        "mode": "bus"
      }
    },
    {
      "type": "Feature",
      "geometry": {
        "type": "Point",
        "coordinates": [
          107.5982945,
          -6.8892233
        ]
      },
      "properties": {
        "id": "virtual_107.5983_-6.8892",
        "name": "Jalan Sukamaju",
        "role": "virtual",
        "isReal": false,
        "mode": "bus"
      }
    },
    {
      "type": "Feature",
      "geometry": {
        "type": "Point",
        "coordinates": [
          107.5967016,
          -6.8867916
        ]
      },
      "properties": {
        "id": "virtual_107.5967_-6.8868",
        "name": "Jalan Sukajadi",
        "role": "virtual",
        "isReal": false,
        "mode": "bus"
      }
    },
    {
      "type": "Feature",
      "geometry": {
        "type": "Point",
        "coordinates": [
          107.596703,
          -6.8840134
        ]
      },
      "properties": {
        "id": "29357939",
        "name": "Junction 8 Sukajadi",
        "role": "stop_exit_only",
        "isReal": true,
        "mode": "bus"
      }
    }
  ]
}