{
  "type": "FeatureCollection",
  "features": [
    {
      "type": "Feature",
      "geometry": {
        "type": "Point",
        "coordinates": [
          107.6058121,
          -6.9276265
        ]
      },
      "properties": {
        "id": "3374033509",
        "name": "Terminal Abdul Muis/Kebon Kalapa",
        "role": "stop_entry_only",
        "mode": "bus"
      }
    },
    {
      "type": "Feature",
      "geometry": {
        "type": "Point",
        "coordinates": [
          107.6059915,
          -6.926739
        ]
      },
      "properties": {
        "id": "12626529705",
        "name": "ITC Kebon Kalapa",
        "role": "stop",
        "mode": "bus"
      }
    },
    {
      "type": "Feature",
      "geometry": {
        "type": "Point",
        "coordinates": [
          107.606261,
          -6.9238597
        ]
      },
      "properties": {
        "id": "11898859975",
        "name": "Grand Yogya Kepatihan",
        "role": "stop",
        "mode": "bus"
      }
    },
    {
      "type": "Feature",
      "geometry": {
        "type": "Point",
        "coordinates": [
          107.6063778,
          -6.922496
        ]
      },
      "properties": {
        "id": "v_107.606378_-6.922496",
        "name": "Jalan Dewi Sartika",
        "role": "virtual",
        "mode": "bus"
      }
    },
    {
      "type": "Feature",
      "geometry": {
        "type": "Point",
        "coordinates": [
          107.6071455,
          -6.9211653
        ]
      },
      "properties": {
        "id": "11711275743",
        "name": "Alun-Alun Bandung",
        "role": "stop",
        "mode": "bus"
      }
    },
    {
      "type": "Feature",
      "geometry": {
        "type": "Point",
        "coordinates": [
          107.6065186,
          -6.9205454
        ]
      },
      "properties": {
        "id": "12808912264",
        "name": "Pos Banceuy",
        "role": "stop",
        "mode": "bus"
      }
    },
    {
      "type": "Feature",
      "geometry": {
        "type": "Point",
        "coordinates": [
          107.6066404,
          -6.9187122
        ]
      },
      "properties": {
        "id": "12626529706",
        "name": "Banceuy",
        "role": "stop",
        "mode": "bus"
      }
    },
    {
      "type": "Feature",
      "geometry": {
        "type": "Point",
        "coordinates": [
          107.6063193,
          -6.9173781
        ]
      },
      "properties": {
        "id": "v_107.606319_-6.917378",
        "name": "Jalan Banceuy",
        "role": "virtual",
        "mode": "bus"
      }
    },
    {
      "type": "Feature",
      "geometry": {
        "type": "Point",
        "coordinates": [
          107.6065461,
          -6.9155971
        ]
      },
      "properties": {
        "id": "v_107.606546_-6.915597",
        "name": "Jalan Banceuy",
        "role": "virtual",
        "mode": "bus"
      }
    },
    {
      "type": "Feature",
      "geometry": {
        "type": "Point",
        "coordinates": [
          107.604546,
          -6.9153572
        ]
      },
      "properties": {
        "id": "11262097619",
        "name": "Stasiun Timur",
        "role": "stop",
        "mode": "bus"
      }
    },
    {
      "type": "Feature",
      "geometry": {
        "type": "Point",
        "coordinates": [
          107.6064066,
          -6.9149399
        ]
      },
      "properties": {
        "id": "v_107.606407_-6.914940",
        "name": "Jalan Stasiun Timur",
        "role": "virtual",
        "mode": "bus"
      }
    },
    {
      "type": "Feature",
      "geometry": {
        "type": "Point",
        "coordinates": [
          107.604621,
          -6.9139963
        ]
      },
      "properties": {
        "id": "v_107.604621_-6.913996",
        "name": "Jalan Otto Iskandardinata",
        "role": "virtual",
        "mode": "bus"
      }
    },
    {
      "type": "Feature",
      "geometry": {
        "type": "Point",
        "coordinates": [
          107.6029303,
          -6.9125954
        ]
      },
      "properties": {
        "id": "293384756",
        "name": "Stasiun Bandung",
        "role": "stop",
        "mode": "bus"
      }
    },
    {
      "type": "Feature",
      "geometry": {
        "type": "Point",
        "coordinates": [
          107.6007223,
          -6.9124771
        ]
      },
      "properties": {
        "id": "12806120204",
        "name": "Haji Mesri",
        "role": "stop",
        "mode": "bus"
      }
    },
    {
      "type": "Feature",
      "geometry": {
        "type": "Point",
        "coordinates": [
          107.5990408,
          -6.912374
        ]
      },
      "properties": {
        "id": "v_107.599041_-6.912374",
        "name": "Jalan Kebon Kawung",
        "role": "virtual",
        "mode": "bus"
      }
    },
    {
      "type": "Feature",
      "geometry": {
        "type": "Point",
        "coordinates": [
          107.5979188,
          -6.9114098
        ]
      },
      "properties": {
        "id": "11739021629",
        "name": "SMAN 6 Bandung",
        "role": "stop",
        "mode": "bus"
      }
    },
    {
      "type": "Feature",
      "geometry": {
        "type": "Point",
        "coordinates": [
          107.5978086,
          -6.909947
        ]
      },
      "properties": {
        "id": "v_107.597809_-6.909947",
        "name": "Jalan HOS. Cokroaminoto",
        "role": "virtual",
        "mode": "bus"
      }
    },
    {
      "type": "Feature",
      "geometry": {
        "type": "Point",
        "coordinates": [
          107.5976849,
          -6.9081059
        ]
      },
      "properties": {
        "id": "12806120202",
        "name": "SDN 013 Pajajaran",
        "role": "stop",
        "mode": "bus"
      }
    },
    {
      "type": "Feature",
      "geometry": {
        "type": "Point",
        "coordinates": [
          107.5976232,
          -6.9066483
        ]
      },
      "properties": {
        "id": "v_107.597623_-6.906648",
        "name": "Jalan HOS. Cokroaminoto",
        "role": "virtual",
        "mode": "bus"
      }
    },
    {
      "type": "Feature",
      "geometry": {
        "type": "Point",
        "coordinates": [
          107.5992067,
          -6.9068065
        ]
      },
      "properties": {
        "id": "2012498684",
        "name": "Taman Adipura",
        "role": "stop",
        "mode": "bus"
      }
    },
    {
      "type": "Feature",
      "geometry": {
        "type": "Point",
        "coordinates": [
          107.599992,
          -6.906861
        ]
      },
      "properties": {
        "id": "11138593915",
        "name": "SDN Pajajaran",
        "role": "stop",
        "mode": "bus"
      }
    },
    {
      "type": "Feature",
      "geometry": {
        "type": "Point",
        "coordinates": [
          107.6019252,
          -6.9070015
        ]
      },
      "properties": {
        "id": "25500626",
        "name": "GOR Padjajaran",
        "role": "stop",
        "mode": "bus"
      }
    },
    {
      "type": "Feature",
      "geometry": {
        "type": "Point",
        "coordinates": [
          107.6044125,
          -6.9064803
        ]
      },
      "properties": {
        "id": "11739021630",
        "name": "STHB (Sekolah Tinggi Hukum Bandung)",
        "role": "stop",
        "mode": "bus"
      }
    },
    {
      "type": "Feature",
      "geometry": {
        "type": "Point",
        "coordinates": [
          107.6038123,
          -6.904381
        ]
      },
      "properties": {
        "id": "3269294966",
        "name": "Abdul Rivai",
        "role": "stop",
        "mode": "bus"
      }
    },
    {
      "type": "Feature",
      "geometry": {
        "type": "Point",
        "coordinates": [
          107.6024526,
          -6.9045901
        ]
      },
      "properties": {
        "id": "v_107.602453_-6.904590",
        "name": "Jalan Dokter Cipto Mangunkusumo",
        "role": "virtual",
        "mode": "bus"
      }
    },
    {
      "type": "Feature",
      "geometry": {
        "type": "Point",
        "coordinates": [
          107.6012028,
          -6.9040455
        ]
      },
      "properties": {
        "id": "v_107.601203_-6.904045",
        "name": "Bunderan Radjiman",
        "role": "virtual",
        "mode": "bus"
      }
    },
    {
      "type": "Feature",
      "geometry": {
        "type": "Point",
        "coordinates": [
          107.6001443,
          -6.9026808
        ]
      },
      "properties": {
        "id": "v_107.600144_-6.902681",
        "name": "Jalan Doktor Louis Otten",
        "role": "virtual",
        "mode": "bus"
      }
    },
    {
      "type": "Feature",
      "geometry": {
        "type": "Point",
        "coordinates": [
          107.5982442,
          -6.9010192
        ]
      },
      "properties": {
        "id": "1700556149",
        "name": "Taman Westhoff",
        "role": "stop",
        "mode": "bus"
      }
    },
    {
      "type": "Feature",
      "geometry": {
        "type": "Point",
        "coordinates": [
          107.5973503,
          -6.8989275
        ]
      },
      "properties": {
        "id": "5639376088",
        "name": "Garunggang Kulon",
        "role": "stop",
        "mode": "bus"
      }
    },
    {
      "type": "Feature",
      "geometry": {
        "type": "Point",
        "coordinates": [
          107.5973197,
          -6.8979069
        ]
      },
      "properties": {
        "id": "12825997250",
        "name": "SPBU Paskal",
        "role": "stop",
        "mode": "bus"
      }
    },
    {
      "type": "Feature",
      "geometry": {
        "type": "Point",
        "coordinates": [
          107.597854,
          -6.8962946
        ]
      },
      "properties": {
        "id": "v_107.597854_-6.896295",
        "name": "Jalan Sederhana",
        "role": "virtual",
        "mode": "bus"
      }
    },
    {
      "type": "Feature",
      "geometry": {
        "type": "Point",
        "coordinates": [
          107.5987172,
          -6.8940629
        ]
      },
      "properties": {
        "id": "v_107.598717_-6.894063",
        "name": "Jalan Sederhana",
        "role": "virtual",
        "mode": "bus"
      }
    },
    {
      "type": "Feature",
      "geometry": {
        "type": "Point",
        "coordinates": [
          107.5991519,
          -6.8925236
        ]
      },
      "properties": {
        "id": "v_107.599152_-6.892524",
        "name": "Jalan Sederhana",
        "role": "virtual",
        "mode": "bus"
      }
    },
    {
      "type": "Feature",
      "geometry": {
        "type": "Point",
        "coordinates": [
          107.5996153,
          -6.8908128
        ]
      },
      "properties": {
        "id": "3249461526",
        "name": "Pasar Sederhana",
        "role": "stop",
        "mode": "bus"
      }
    },
    {
      "type": "Feature",
      "geometry": {
        "type": "Point",
        "coordinates": [
          107.5987838,
          -6.8895599
        ]
      },
      "properties": {
        "id": "v_107.598784_-6.889560",
        "name": "Jalan Sukamaju",
        "role": "virtual",
        "mode": "bus"
      }
    },
    {
      "type": "Feature",
      "geometry": {
        "type": "Point",
        "coordinates": [
          107.5975019,
          -6.8885472
        ]
      },
      "properties": {
        "id": "v_107.597502_-6.888547",
        "name": "Jalan Sukamaju",
        "role": "virtual",
        "mode": "bus"
      }
    },
    {
      "type": "Feature",
      "geometry": {
        "type": "Point",
        "coordinates": [
          107.5967323,
          -6.8873957
        ]
      },
      "properties": {
        "id": "v_107.596732_-6.887396",
        "name": "Jalan Sukajadi",
        "role": "virtual",
        "mode": "bus"
      }
    },
    {
      "type": "Feature",
      "geometry": {
        "type": "Point",
        "coordinates": [
          107.5964324,
          -6.88604
        ]
      },
      "properties": {
        "id": "v_107.596432_-6.886040",
        "name": "Jalan Sukajadi",
        "role": "virtual",
        "mode": "bus"
      }
    },
    {
      "type": "Feature",
      "geometry": {
        "type": "Point",
        "coordinates": [
          107.596703,
          -6.8840134
        ]
      },
      "properties": {
        "id": "29357939",
        "name": "Junction 8 Sukajadi",
        "role": "stop_exit_only",
        "mode": "bus"
      }
    }
  ]
}