{"type":"FeatureCollection","features":[{"type":"Feature","geometry":{"type":"Point","coordinates":[107.6095063,-6.9488997]},"properties":{"id":3384018116,"bus":"yes","highway":"bus_stop","name":"Topas/Pasar Kembar","public_transport":"platform","ref":"Topas/Pasar Kembar"}},{"type":"Feature","geometry":{"type":"Point","coordinates":[107.7136117,-7.0359583]},"properties":{"id":3888893411,"bus":"yes","name":"Ciparay","public_transport":"platform","ref":"Ciparay"}},{"type":"Feature","geometry":{"type":"Point","coordinates":[107.6173056,-6.9719807]},"properties":{"id":3889011981,"bus":"yes","highway":"bus_stop","name":"Palasari Ceres","public_transport":"platform","route_ref":"6"}},{"type":"Feature","geometry":{"type":"Point","coordinates":[107.6233481,-7.0015854]},"properties":{"id":3890313809,"bench":"no","bin":"no","lit":"no","name":"Baleendah","public_transport":"platform","ref":"Baleendah","shelter":"no"}},{"type":"Feature","geometry":{"type":"Point","coordinates":[107.6270082,-6.9861453]},"properties":{"id":3890313811,"name":"Dayeuh Kolot","public_transport":"platform","ref":"Dayeuh Kolot"}}]}