{
  "type": "FeatureCollection",
  "features": [
    {
      "type": "Feature",
      "geometry": {
        "type": "Point",
        "coordinates": [
          107.5932469,
          -6.9458124
        ]
      },
      "properties": {
        "id": "3277886365",
        "name": "Terminal Leuwipanjang",
        "role": "stop_entry_only",
        "bus": "yes",
        "public_transport": "stop_position"
      }
    },
    {
      "type": "Feature",
      "geometry": {
        "type": "Point",
        "coordinates": [
          107.594148,
          -6.9384872
        ]
      },
      "properties": {
        "id": "12628901396",
        "name": "SDN Babakan Tarogong",
        "role": "stop",
        "bus": "yes",
        "public_transport": "stop_position"
      }
    },
    {
      "type": "Feature",
      "geometry": {
        "type": "Point",
        "coordinates": [
          107.5956524,
          -6.9372267
        ]
      },
      "properties": {
        "id": "11739021652",
        "name": "Rumah Sakit Immanuel A",
        "role": "stop",
        "bus": "yes",
        "public_transport": "stop_position"
      }
    },
    {
      "type": "Feature",
      "geometry": {
        "type": "Point",
        "coordinates": [
          107.6020331,
          -6.9371534
        ]
      },
      "properties": {
        "id": "12628930762",
        "name": "Muara A",
        "role": "stop",
        "bus": "yes",
        "public_transport": "stop_position"
      }
    },
    {
      "type": "Feature",
      "geometry": {
        "type": "Point",
        "coordinates": [
          107.6062885,
          -6.939027
        ]
      },
      "properties": {
        "id": "11707031623",
        "name": "Muhammad Toha 1 (PT INTI A)",
        "role": "stop",
        "bus": "yes",
        "public_transport": "stop_position"
      }
    },
    {
      "type": "Feature",
      "geometry": {
        "type": "Point",
        "coordinates": [
          107.6181453,
          -6.9742063
        ]
      },
      "properties": {
        "id": "12628930746",
        "name": "Palasari Radio",
        "role": "stop",
        "bus": "yes",
        "public_transport": "stop_position"
      }
    },
    {
      "type": "Feature",
      "geometry": {
        "type": "Point",
        "coordinates": [
          107.624845,
          -6.9861797
        ]
      },
      "properties": {
        "id": "12628930749",
        "name": "Zipur Dayeuhkolot",
        "role": "stop",
        "bus": "yes",
        "public_transport": "stop_position"
      }
    },
    {
      "type": "Feature",
      "geometry": {
        "type": "Point",
        "coordinates": [
          107.6328659,
          -6.9857289
        ]
      },
      "properties": {
        "id": "12626499682",
        "name": "Griya Bandung Asri",
        "role": "stop",
        "bus": "yes",
        "public_transport": "stop_position"
      }
    },
    {
      "type": "Feature",
      "geometry": {
        "type": "Point",
        "coordinates": [
          107.6316216,
          -6.9989678
        ]
      },
      "properties": {
        "id": "12628930752",
        "name": "Pasar Baleendah A",
        "role": "stop",
        "bus": "yes",
        "public_transport": "stop_position"
      }
    },
    {
      "type": "Feature",
      "geometry": {
        "type": "Point",
        "coordinates": [
          107.6397222,
          -7.0100016
        ]
      },
      "properties": {
        "id": "12628930755",
        "name": "Bumi Siliwangi",
        "role": "stop",
        "bus": "yes",
        "public_transport": "stop_position"
      }
    },
    {
      "type": "Feature",
      "geometry": {
        "type": "Point",
        "coordinates": [
          107.713347,
          -7.0357328
        ]
      },
      "properties": {
        "id": "2459057875",
        "name": "Terminal Ciparay",
        "role": "stop",
        "bus": "yes",
        "highway": "bus_stop",
        "public_transport": "stop_position",
        "ref": "Ciparay"
      }
    },
    {
      "type": "Feature",
      "geometry": {
        "type": "Point",
        "coordinates": [
          107.7601852,
          -7.0477372
        ]
      },
      "properties": {
        "id": "12628930760",
        "name": "Terminal Majalaya",
        "role": "stop_exit_only",
        "bus": "yes",
        "public_transport": "stop_position"
      }
    }
  ]
}