{"type":"FeatureCollection","features":[{"type":"Feature","geometry":{"type":"Point","coordinates":[107.6199289,-6.901132]},"properties":{"id":3375793678,"bus":"yes","highway":"bus_stop","name":"Lapangan Gasibu A","public_transport":"platform","route_ref":"5","shelter":"yes"}},{"type":"Feature","geometry":{"type":"Point","coordinates":[107.6241889,-6.9010136]},"properties":{"id":3375793682,"bus":"yes","highway":"bus_stop","name":"PUSDAI A","public_transport":"platform","route_ref":"5"}},{"type":"Feature","geometry":{"type":"Point","coordinates":[107.630157,-6.9081075]},"properties":{"id":9807953321,"bench":"yes","bin":"no","bus":"yes","highway":"bus_stop","lit":"no","name":"SMPN 14 Bandung (Lapangan Supratman A)","public_transport":"platform","route_ref":"5","shelter":"yes"}},{"type":"Feature","geometry":{"type":"Point","coordinates":[107.6162121,-6.8979268]},"properties":{"id":10676406092,"bus":"yes","departures_board":"no","highway":"bus_stop","name":"Panatayudha A","public_transport":"platform","route_ref":"5","shelter":"no"}},{"type":"Feature","geometry":{"type":"Point","coordinates":[107.6253125,-6.9343466]},"properties":{"id":10771913954,"bus":"yes","departures_board":"no","highway":"bus_stop","name":"Hotel Horison A","public_transport":"platform","route_ref":"5","shelter":"yes"}},{"type":"Feature","geometry":{"type":"Point","coordinates":[107.6115668,-6.9546052]},"properties":{"id":10771913960,"bus":"yes","highway":"bus_stop","name":"SPBU Moh. Toha","public_transport":"platform","route_ref":"5"}},{"type":"Feature","geometry":{"type":"Point","coordinates":[107.6063532,-6.9389947]},"properties":{"id":10815724000,"bus":"yes","highway":"bus_stop","name":"Muhammad Toha 1 (PT INTI A)","public_transport":"platform","route_ref":"3;5;6","shelter":"yes","source":"POI_WRI_Survey_2023","wheelchair":"no"}},{"type":"Feature","geometry":{"type":"Point","coordinates":[107.6275307,-6.9106586]},"properties":{"id":11346444843,"bus":"yes","highway":"bus_stop","name":"Taman Pramuka","public_transport":"platform","route_ref":"5"}},{"type":"Feature","geometry":{"type":"Point","coordinates":[107.6289238,-6.9129992]},"properties":{"id":11707030834,"bus":"yes","highway":"bus_stop","name":"Hotel Grand Tebu","public_transport":"platform","route_ref":"5"}},{"type":"Feature","geometry":{"type":"Point","coordinates":[107.6313724,-6.918349]},"properties":{"id":11707030858,"bench":"yes","bus":"yes","highway":"bus_stop","name":"Bandung Creative Hub A","public_transport":"platform","route_ref":"5","shelter":"no"}},{"type":"Feature","geometry":{"type":"Point","coordinates":[107.6091213,-6.9473658]},"properties":{"id":11707031626,"bus":"yes","highway":"bus_stop","name":"Simpang By Pass Soekarno Hatta A","public_transport":"platform","route_ref":"5"}},{"type":"Feature","geometry":{"type":"Point","coordinates":[107.7541025,-6.9411201]},"properties":{"id":11711185186,"bus":"yes","highway":"bus_stop","name":"Cileunyi A","public_transport":"platform","route_ref":"5"}},{"type":"Feature","geometry":{"type":"Point","coordinates":[107.7651869,-6.9355706]},"properties":{"id":11711185190,"bus":"yes","highway":"bus_stop","name":"IPDN A","public_transport":"platform","route_ref":"5"}},{"type":"Feature","geometry":{"type":"Point","coordinates":[107.6180829,-6.892885]},"properties":{"id":3375793676,"addr:city":"Bandung","addr:street":"Jalan Dipatiukur","amenity":"bus_station","bus":"yes","name":"UNPAD DIpatiukur","public_transport":"station","route_ref":"5","shelter":"yes","source":"S2City_POI_2022","wheelchair":"no"}},{"type":"Feature","geometry":{"type":"Point","coordinates":[107.7731499,-6.9323885]},"properties":{"id":1449651767,"amenity":"bus_station","bus":"yes","name":"Pangkalan Damri Jatinangor","public_transport":"station","route_ref":"5"}}]}