{
  "type": "FeatureCollection",
  "features": [
    {
      "type": "Feature",
      "geometry": {
        "type": "Point",
        "coordinates": [
          107.6199195,
          -6.9011743
        ]
      },
      "properties": {
        "id": "1666155324",
        "name": "Lapangan Gasibu A",
        "role": "stop_entry_only",
        "isReal": true,
        "mode": "bus"
      }
    },
    {
      "type": "Feature",
      "geometry": {
        "type": "Point",
        "coordinates": [
          107.62226675,
          -6.90111385
        ]
      },
      "properties": {
        "id": "virtual_107.6223_-6.9011",
        "name": "Jalan terdekat",
        "role": "virtual",
        "isReal": false,
        "mode": "bus"
      }
    },
    {
      "type": "Feature",
      "geometry": {
        "type": "Point",
        "coordinates": [
          107.6241876,
          -6.9010661
        ]
      },
      "properties": {
        "id": "11707030829",
        "name": "PUSDAI A",
        "role": "stop",
        "isReal": true,
        "mode": "bus"
      }
    },
    {
      "type": "Feature",
      "geometry": {
        "type": "Point",
        "coordinates": [
          107.6263592,
          -6.9011544
        ]
      },
      "properties": {
        "id": "virtual_107.6264_-6.9012",
        "name": "Jalan Supratman",
        "role": "virtual",
        "isReal": false,
        "mode": "bus"
      }
    },
    {
      "type": "Feature",
      "geometry": {
        "type": "Point",
        "coordinates": [
          107.6282881,
          -6.9039847
        ]
      },
      "properties": {
        "id": "5842007855",
        "name": "Muararajeun",
        "role": "stop",
        "isReal": true,
        "mode": "bus"
      }
    },
    {
      "type": "Feature",
      "geometry": {
        "type": "Point",
        "coordinates": [
          107.629935,
          -6.9065072
        ]
      },
      "properties": {
        "id": "virtual_107.6299_-6.9065",
        "name": "Jalan Supratman",
        "role": "virtual",
        "isReal": false,
        "mode": "bus"
      }
    },
    {
      "type": "Feature",
      "geometry": {
        "type": "Point",
        "coordinates": [
          107.63081865000001,
          -6.90788375
        ]
      },
      "properties": {
        "id": "virtual_107.6308_-6.9079",
        "name": "Jalan terdekat",
        "role": "virtual",
        "isReal": false,
        "mode": "bus"
      }
    },
    {
      "type": "Feature",
      "geometry": {
        "type": "Point",
        "coordinates": [
          107.6324017,
          -6.9103228
        ]
      },
      "properties": {
        "id": "12811695427",
        "name": "Supratman Cikaso",
        "role": "stop",
        "isReal": true,
        "mode": "bus"
      }
    },
    {
      "type": "Feature",
      "geometry": {
        "type": "Point",
        "coordinates": [
          107.6336698,
          -6.9122413
        ]
      },
      "properties": {
        "id": "12811695425",
        "name": "SMPN 22 Bandung",
        "role": "stop",
        "isReal": true,
        "mode": "bus"
      }
    },
    {
      "type": "Feature",
      "geometry": {
        "type": "Point",
        "coordinates": [
          107.6345966,
          -6.9133253
        ]
      },
      "properties": {
        "id": "3375793690",
        "name": "A.Yani Supratman",
        "role": "stop",
        "isReal": true,
        "mode": "bus"
      }
    },
    {
      "type": "Feature",
      "geometry": {
        "type": "Point",
        "coordinates": [
          107.637255,
          -6.9119025
        ]
      },
      "properties": {
        "id": "11735248693",
        "name": "Cikaso",
        "role": "stop",
        "isReal": true,
        "mode": "bus"
      }
    },
    {
      "type": "Feature",
      "geometry": {
        "type": "Point",
        "coordinates": [
          107.6396001,
          -6.9106533
        ]
      },
      "properties": {
        "id": "11735248694",
        "name": "Awi Bitung",
        "role": "stop",
        "isReal": true,
        "mode": "bus"
      }
    },
    {
      "type": "Feature",
      "geometry": {
        "type": "Point",
        "coordinates": [
          107.64310435,
          -6.90883665
        ]
      },
      "properties": {
        "id": "virtual_107.6431_-6.9088",
        "name": "Jalan terdekat",
        "role": "virtual",
        "isReal": false,
        "mode": "bus"
      }
    },
    {
      "type": "Feature",
      "geometry": {
        "type": "Point",
        "coordinates": [
          107.6434825,
          -6.911388
        ]
      },
      "properties": {
        "id": "3248969440",
        "name": "BTM",
        "role": "stop",
        "isReal": true,
        "mode": "bus"
      }
    },
    {
      "type": "Feature",
      "geometry": {
        "type": "Point",
        "coordinates": [
          107.6437793,
          -6.9142126
        ]
      },
      "properties": {
        "id": "12633822765",
        "name": "Seberang Kiara Artha",
        "role": "stop",
        "isReal": true,
        "mode": "bus"
      }
    },
    {
      "type": "Feature",
      "geometry": {
        "type": "Point",
        "coordinates": [
          107.64419296666667,
          -6.918090733333333
        ]
      },
      "properties": {
        "id": "virtual_107.6442_-6.9181",
        "name": "Jalan terdekat",
        "role": "virtual",
        "isReal": false,
        "mode": "bus"
      }
    },
    {
      "type": "Feature",
      "geometry": {
        "type": "Point",
        "coordinates": [
          107.6442909,
          -6.9196178
        ]
      },
      "properties": {
        "id": "12806853454",
        "name": "SDN 083 Babakan Surabaya Selatan",
        "role": "stop",
        "isReal": true,
        "mode": "bus"
      }
    },
    {
      "type": "Feature",
      "geometry": {
        "type": "Point",
        "coordinates": [
          107.6444041,
          -6.9221685
        ]
      },
      "properties": {
        "id": "12806853450",
        "name": "Griya Kiaracondong",
        "role": "stop",
        "isReal": true,
        "mode": "bus"
      }
    },
    {
      "type": "Feature",
      "geometry": {
        "type": "Point",
        "coordinates": [
          107.644489,
          -6.9241129
        ]
      },
      "properties": {
        "id": "virtual_107.6445_-6.9241",
        "name": "Jalan H. Ibrahim Adjie",
        "role": "virtual",
        "isReal": false,
        "mode": "bus"
      }
    },
    {
      "type": "Feature",
      "geometry": {
        "type": "Point",
        "coordinates": [
          107.6444424,
          -6.9274017
        ]
      },
      "properties": {
        "id": "12806853449",
        "name": "Jalan PSM",
        "role": "stop",
        "isReal": true,
        "mode": "bus"
      }
    },
    {
      "type": "Feature",
      "geometry": {
        "type": "Point",
        "coordinates": [
          107.64426205000001,
          -6.9289065999999995
        ]
      },
      "properties": {
        "id": "virtual_107.6443_-6.9289",
        "name": "Jalan terdekat",
        "role": "virtual",
        "isReal": false,
        "mode": "bus"
      }
    },
    {
      "type": "Feature",
      "geometry": {
        "type": "Point",
        "coordinates": [
          107.6438759,
          -6.9310003
        ]
      },
      "properties": {
        "id": "12806853447",
        "name": "Honda Daya Motor Kiaracondong",
        "role": "stop",
        "isReal": true,
        "mode": "bus"
      }
    },
    {
      "type": "Feature",
      "geometry": {
        "type": "Point",
        "coordinates": [
          107.642917,
          -6.9333993
        ]
      },
      "properties": {
        "id": "12806853446",
        "name": "SDN 38 Kiaracondong",
        "role": "stop",
        "isReal": true,
        "mode": "bus"
      }
    },
    {
      "type": "Feature",
      "geometry": {
        "type": "Point",
        "coordinates": [
          107.642669,
          -6.9347772
        ]
      },
      "properties": {
        "id": "virtual_107.6427_-6.9348",
        "name": "Jalan H. Ibrahim Adjie",
        "role": "virtual",
        "isReal": false,
        "mode": "bus"
      }
    },
    {
      "type": "Feature",
      "geometry": {
        "type": "Point",
        "coordinates": [
          107.6425277,
          -6.9366887
        ]
      },
      "properties": {
        "id": "virtual_107.6425_-6.9367",
        "name": "Jalan H. Ibrahim Adjie",
        "role": "virtual",
        "isReal": false,
        "mode": "bus"
      }
    },
    {
      "type": "Feature",
      "geometry": {
        "type": "Point",
        "coordinates": [
          107.6424362,
          -6.9380472
        ]
      },
      "properties": {
        "id": "12806853442",
        "name": "Kebon Kangkung 11",
        "role": "stop",
        "isReal": true,
        "mode": "bus"
      }
    },
    {
      "type": "Feature",
      "geometry": {
        "type": "Point",
        "coordinates": [
          107.6423227,
          -6.9397848
        ]
      },
      "properties": {
        "id": "12806853440",
        "name": "Den Jasa Ang",
        "role": "stop",
        "isReal": true,
        "mode": "bus"
      }
    },
    {
      "type": "Feature",
      "geometry": {
        "type": "Point",
        "coordinates": [
          107.6422079,
          -6.9415102
        ]
      },
      "properties": {
        "id": "virtual_107.6422_-6.9415",
        "name": "Jalan H. Ibrahim Adjie",
        "role": "virtual",
        "isReal": false,
        "mode": "bus"
      }
    },
    {
      "type": "Feature",
      "geometry": {
        "type": "Point",
        "coordinates": [
          107.6421057,
          -6.9428602
        ]
      },
      "properties": {
        "id": "12806853435",
        "name": "SPBU Kebon Kangkung",
        "role": "stop",
        "isReal": true,
        "mode": "bus"
      }
    },
    {
      "type": "Feature",
      "geometry": {
        "type": "Point",
        "coordinates": [
          107.6418669,
          -6.9460178
        ]
      },
      "properties": {
        "id": "virtual_107.6419_-6.9460",
        "name": "Jalan Terusan Kiara Condong",
        "role": "virtual",
        "isReal": false,
        "mode": "bus"
      }
    },
    {
      "type": "Feature",
      "geometry": {
        "type": "Point",
        "coordinates": [
          107.6414475,
          -6.948681
        ]
      },
      "properties": {
        "id": "virtual_107.6414_-6.9487",
        "name": "Jalan Terusan Kiara Condong",
        "role": "virtual",
        "isReal": false,
        "mode": "bus"
      }
    },
    {
      "type": "Feature",
      "geometry": {
        "type": "Point",
        "coordinates": [
          107.6407795,
          -6.9521886
        ]
      },
      "properties": {
        "id": "virtual_107.6408_-6.9522",
        "name": "Jalan Terusan Kiara Condong",
        "role": "virtual",
        "isReal": false,
        "mode": "bus"
      }
    },
    {
      "type": "Feature",
      "geometry": {
        "type": "Point",
        "coordinates": [
          107.6404838,
          -6.9541709
        ]
      },
      "properties": {
        "id": "virtual_107.6405_-6.9542",
        "name": "Jalan Marga Cinta",
        "role": "virtual",
        "isReal": false,
        "mode": "bus"
      }
    },
    {
      "type": "Feature",
      "geometry": {
        "type": "Point",
        "coordinates": [
          107.6431186,
          -6.9546799
        ]
      },
      "properties": {
        "id": "virtual_107.6431_-6.9547",
        "name": "Jalan Marga Cinta",
        "role": "virtual",
        "isReal": false,
        "mode": "bus"
      }
    },
    {
      "type": "Feature",
      "geometry": {
        "type": "Point",
        "coordinates": [
          107.6455201,
          -6.9548893
        ]
      },
      "properties": {
        "id": "virtual_107.6455_-6.9549",
        "name": "Jalan Marga Cinta",
        "role": "virtual",
        "isReal": false,
        "mode": "bus"
      }
    },
    {
      "type": "Feature",
      "geometry": {
        "type": "Point",
        "coordinates": [
          107.6497011,
          -6.9552323
        ]
      },
      "properties": {
        "id": "virtual_107.6497_-6.9552",
        "name": "Jalan Marga Cinta",
        "role": "virtual",
        "isReal": false,
        "mode": "bus"
      }
    },
    {
      "type": "Feature",
      "geometry": {
        "type": "Point",
        "coordinates": [
          107.6521388,
          -6.9554682
        ]
      },
      "properties": {
        "id": "12813271263",
        "name": "Seberang Borma Margacinta",
        "role": "stop",
        "isReal": true,
        "mode": "bus"
      }
    },
    {
      "type": "Feature",
      "geometry": {
        "type": "Point",
        "coordinates": [
          107.6547179,
          -6.9557504
        ]
      },
      "properties": {
        "id": "virtual_107.6547_-6.9558",
        "name": "Jalan Marga Cinta",
        "role": "virtual",
        "isReal": false,
        "mode": "bus"
      }
    },
    {
      "type": "Feature",
      "geometry": {
        "type": "Point",
        "coordinates": [
          107.655958,
          -6.9564205
        ]
      },
      "properties": {
        "id": "virtual_107.6560_-6.9564",
        "name": "Jalan Marga Cinta",
        "role": "virtual",
        "isReal": false,
        "mode": "bus"
      }
    },
    {
      "type": "Feature",
      "geometry": {
        "type": "Point",
        "coordinates": [
          107.6579063,
          -6.9582016
        ]
      },
      "properties": {
        "id": "virtual_107.6579_-6.9582",
        "name": "Jalan Marga Cinta",
        "role": "virtual",
        "isReal": false,
        "mode": "bus"
      }
    },
    {
      "type": "Feature",
      "geometry": {
        "type": "Point",
        "coordinates": [
          107.6599136,
          -6.9591016
        ]
      },
      "properties": {
        "id": "virtual_107.6599_-6.9591",
        "name": "Jalan Marga Cinta",
        "role": "virtual",
        "isReal": false,
        "mode": "bus"
      }
    },
    {
      "type": "Feature",
      "geometry": {
        "type": "Point",
        "coordinates": [
          107.6615127,
          -6.9597741
        ]
      },
      "properties": {
        "id": "35138488",
        "name": "Taman Lansia Margahayu Raya",
        "role": "stop",
        "isReal": true,
        "mode": "bus"
      }
    },
    {
      "type": "Feature",
      "geometry": {
        "type": "Point",
        "coordinates": [
          107.66331812499999,
          -6.960326775
        ]
      },
      "properties": {
        "id": "virtual_107.6633_-6.9603",
        "name": "Jalan terdekat",
        "role": "virtual",
        "isReal": false,
        "mode": "bus"
      }
    },
    {
      "type": "Feature",
      "geometry": {
        "type": "Point",
        "coordinates": [
          107.66569245,
          -6.96096665
        ]
      },
      "properties": {
        "id": "virtual_107.6657_-6.9610",
        "name": "Jalan terdekat",
        "role": "virtual",
        "isReal": false,
        "mode": "bus"
      }
    },
    {
      "type": "Feature",
      "geometry": {
        "type": "Point",
        "coordinates": [
          107.66812735,
          -6.9614813
        ]
      },
      "properties": {
        "id": "virtual_107.6681_-6.9615",
        "name": "Jalan terdekat",
        "role": "virtual",
        "isReal": false,
        "mode": "bus"
      }
    },
    {
      "type": "Feature",
      "geometry": {
        "type": "Point",
        "coordinates": [
          107.6703105,
          -6.9618026
        ]
      },
      "properties": {
        "id": "virtual_107.6703_-6.9618",
        "name": "Jalan Marga Cinta",
        "role": "virtual",
        "isReal": false,
        "mode": "bus"
      }
    },
    {
      "type": "Feature",
      "geometry": {
        "type": "Point",
        "coordinates": [
          107.67205154999999,
          -6.9620603
        ]
      },
      "properties": {
        "id": "virtual_107.6721_-6.9621",
        "name": "Jalan terdekat",
        "role": "virtual",
        "isReal": false,
        "mode": "bus"
      }
    },
    {
      "type": "Feature",
      "geometry": {
        "type": "Point",
        "coordinates": [
          107.67314155,
          -6.96376345
        ]
      },
      "properties": {
        "id": "virtual_107.6731_-6.9638",
        "name": "Jalan terdekat",
        "role": "virtual",
        "isReal": false,
        "mode": "bus"
      }
    },
    {
      "type": "Feature",
      "geometry": {
        "type": "Point",
        "coordinates": [
          107.676257575,
          -6.964040975
        ]
      },
      "properties": {
        "id": "virtual_107.6763_-6.9640",
        "name": "Jalan terdekat",
        "role": "virtual",
        "isReal": false,
        "mode": "bus"
      }
    },
    {
      "type": "Feature",
      "geometry": {
        "type": "Point",
        "coordinates": [
          107.6778222,
          -6.9641917
        ]
      },
      "properties": {
        "id": "virtual_107.6778_-6.9642",
        "name": "Jalan Derwati",
        "role": "virtual",
        "isReal": false,
        "mode": "bus"
      }
    },
    {
      "type": "Feature",
      "geometry": {
        "type": "Point",
        "coordinates": [
          107.680907525,
          -6.9644738
        ]
      },
      "properties": {
        "id": "virtual_107.6809_-6.9645",
        "name": "Jalan terdekat",
        "role": "virtual",
        "isReal": false,
        "mode": "bus"
      }
    },
    {
      "type": "Feature",
      "geometry": {
        "type": "Point",
        "coordinates": [
          107.6830784,
          -6.9647977
        ]
      },
      "properties": {
        "id": "virtual_107.6831_-6.9648",
        "name": "Jalan terdekat",
        "role": "virtual",
        "isReal": false,
        "mode": "bus"
      }
    },
    {
      "type": "Feature",
      "geometry": {
        "type": "Point",
        "coordinates": [
          107.68496909999999,
          -6.9651263
        ]
      },
      "properties": {
        "id": "virtual_107.6850_-6.9651",
        "name": "Jalan terdekat",
        "role": "virtual",
        "isReal": false,
        "mode": "bus"
      }
    },
    {
      "type": "Feature",
      "geometry": {
        "type": "Point",
        "coordinates": [
          107.6868117,
          -6.9655502
        ]
      },
      "properties": {
        "id": "2518053983",
        "name": "Simpang Derwati",
        "role": "stop_exit_only",
        "isReal": true,
        "mode": "bus"
      }
    }
  ]
}