{
  "type": "FeatureCollection",
  "features": [
    {
      "type": "Feature",
      "geometry": {
        "type": "Point",
        "coordinates": [
          107.6199195,
          -6.9011743
        ]
      },
      "properties": {
        "id": "1666155324",
        "name": "Lapangan Gasibu A",
        "role": "stop_entry_only",
        "mode": "bus"
      }
    },
    {
      "type": "Feature",
      "geometry": {
        "type": "Point",
        "coordinates": [
          107.6241876,
          -6.9010661
        ]
      },
      "properties": {
        "id": "11707030829",
        "name": "PUSDAI A",
        "role": "stop",
        "mode": "bus"
      }
    },
    {
      "type": "Feature",
      "geometry": {
        "type": "Point",
        "coordinates": [
          107.6265006,
          -6.9013156
        ]
      },
      "properties": {
        "id": "v_107.626501_-6.901316",
        "name": "Jalan Supratman",
        "role": "virtual",
        "mode": "bus"
      }
    },
    {
      "type": "Feature",
      "geometry": {
        "type": "Point",
        "coordinates": [
          107.6282881,
          -6.9039847
        ]
      },
      "properties": {
        "id": "5842007855",
        "name": "Muararajeun",
        "role": "stop",
        "mode": "bus"
      }
    },
    {
      "type": "Feature",
      "geometry": {
        "type": "Point",
        "coordinates": [
          107.6297079,
          -6.9061604
        ]
      },
      "properties": {
        "id": "v_107.629708_-6.906160",
        "name": "Jalan Supratman",
        "role": "virtual",
        "mode": "bus"
      }
    },
    {
      "type": "Feature",
      "geometry": {
        "type": "Point",
        "coordinates": [
          107.6309444,
          -6.9080775
        ]
      },
      "properties": {
        "id": "v_107.630944_-6.908078",
        "name": "Jalan Supratman",
        "role": "virtual",
        "mode": "bus"
      }
    },
    {
      "type": "Feature",
      "geometry": {
        "type": "Point",
        "coordinates": [
          107.6324017,
          -6.9103228
        ]
      },
      "properties": {
        "id": "12811695427",
        "name": "Supratman Cikaso",
        "role": "stop",
        "mode": "bus"
      }
    },
    {
      "type": "Feature",
      "geometry": {
        "type": "Point",
        "coordinates": [
          107.6336698,
          -6.9122413
        ]
      },
      "properties": {
        "id": "12811695425",
        "name": "SMPN 22 Bandung",
        "role": "stop",
        "mode": "bus"
      }
    },
    {
      "type": "Feature",
      "geometry": {
        "type": "Point",
        "coordinates": [
          107.6345966,
          -6.9133253
        ]
      },
      "properties": {
        "id": "3375793690",
        "name": "A.Yani Supratman",
        "role": "stop",
        "mode": "bus"
      }
    },
    {
      "type": "Feature",
      "geometry": {
        "type": "Point",
        "coordinates": [
          107.637255,
          -6.9119025
        ]
      },
      "properties": {
        "id": "11735248693",
        "name": "Cikaso",
        "role": "stop",
        "mode": "bus"
      }
    },
    {
      "type": "Feature",
      "geometry": {
        "type": "Point",
        "coordinates": [
          107.6396001,
          -6.9106533
        ]
      },
      "properties": {
        "id": "11735248694",
        "name": "Awi Bitung",
        "role": "stop",
        "mode": "bus"
      }
    },
    {
      "type": "Feature",
      "geometry": {
        "type": "Point",
        "coordinates": [
          107.6416573,
          -6.9095608
        ]
      },
      "properties": {
        "id": "v_107.641657_-6.909561",
        "name": "Jalan Jenderal Ahmad Yani",
        "role": "virtual",
        "mode": "bus"
      }
    },
    {
      "type": "Feature",
      "geometry": {
        "type": "Point",
        "coordinates": [
          107.6434825,
          -6.911388
        ]
      },
      "properties": {
        "id": "3248969440",
        "name": "BTM",
        "role": "stop",
        "mode": "bus"
      }
    },
    {
      "type": "Feature",
      "geometry": {
        "type": "Point",
        "coordinates": [
          107.6437793,
          -6.9142126
        ]
      },
      "properties": {
        "id": "12633822765",
        "name": "Seberang Kiara Artha",
        "role": "stop",
        "mode": "bus"
      }
    },
    {
      "type": "Feature",
      "geometry": {
        "type": "Point",
        "coordinates": [
          107.6440375,
          -6.9165764
        ]
      },
      "properties": {
        "id": "v_107.644037_-6.916576",
        "name": "Jalan H. Ibrahim Adjie",
        "role": "virtual",
        "mode": "bus"
      }
    },
    {
      "type": "Feature",
      "geometry": {
        "type": "Point",
        "coordinates": [
          107.6442909,
          -6.9196178
        ]
      },
      "properties": {
        "id": "12806853454",
        "name": "SDN 083 Babakan Surabaya Selatan",
        "role": "stop",
        "mode": "bus"
      }
    },
    {
      "type": "Feature",
      "geometry": {
        "type": "Point",
        "coordinates": [
          107.6444041,
          -6.9221685
        ]
      },
      "properties": {
        "id": "12806853450",
        "name": "Griya Kiaracondong",
        "role": "stop",
        "mode": "bus"
      }
    },
    {
      "type": "Feature",
      "geometry": {
        "type": "Point",
        "coordinates": [
          107.6445077,
          -6.9245514
        ]
      },
      "properties": {
        "id": "v_107.644508_-6.924551",
        "name": "Jalan H. Ibrahim Adjie",
        "role": "virtual",
        "mode": "bus"
      }
    },
    {
      "type": "Feature",
      "geometry": {
        "type": "Point",
        "coordinates": [
          107.6444424,
          -6.9274017
        ]
      },
      "properties": {
        "id": "12806853449",
        "name": "Jalan PSM",
        "role": "stop",
        "mode": "bus"
      }
    },
    {
      "type": "Feature",
      "geometry": {
        "type": "Point",
        "coordinates": [
          107.6438759,
          -6.9310003
        ]
      },
      "properties": {
        "id": "12806853447",
        "name": "Honda Daya Motor Kiaracondong",
        "role": "stop",
        "mode": "bus"
      }
    },
    {
      "type": "Feature",
      "geometry": {
        "type": "Point",
        "coordinates": [
          107.642917,
          -6.9333993
        ]
      },
      "properties": {
        "id": "12806853446",
        "name": "SDN 38 Kiaracondong",
        "role": "stop",
        "mode": "bus"
      }
    },
    {
      "type": "Feature",
      "geometry": {
        "type": "Point",
        "coordinates": [
          107.6425875,
          -6.9357551
        ]
      },
      "properties": {
        "id": "v_107.642588_-6.935755",
        "name": "Jalan H. Ibrahim Adjie",
        "role": "virtual",
        "mode": "bus"
      }
    },
    {
      "type": "Feature",
      "geometry": {
        "type": "Point",
        "coordinates": [
          107.6424362,
          -6.9380472
        ]
      },
      "properties": {
        "id": "12806853442",
        "name": "Kebon Kangkung 11",
        "role": "stop",
        "mode": "bus"
      }
    },
    {
      "type": "Feature",
      "geometry": {
        "type": "Point",
        "coordinates": [
          107.6423227,
          -6.9397848
        ]
      },
      "properties": {
        "id": "12806853440",
        "name": "Den Jasa Ang",
        "role": "stop",
        "mode": "bus"
      }
    },
    {
      "type": "Feature",
      "geometry": {
        "type": "Point",
        "coordinates": [
          107.6421057,
          -6.9428602
        ]
      },
      "properties": {
        "id": "12806853435",
        "name": "SPBU Kebon Kangkung",
        "role": "stop",
        "mode": "bus"
      }
    },
    {
      "type": "Feature",
      "geometry": {
        "type": "Point",
        "coordinates": [
          107.6419366,
          -6.9452173
        ]
      },
      "properties": {
        "id": "v_107.641937_-6.945217",
        "name": "Jalan H. Ibrahim Adjie",
        "role": "virtual",
        "mode": "bus"
      }
    },
    {
      "type": "Feature",
      "geometry": {
        "type": "Point",
        "coordinates": [
          107.641608,
          -6.9475383
        ]
      },
      "properties": {
        "id": "v_107.641608_-6.947538",
        "name": "Jalan Terusan Kiara Condong",
        "role": "virtual",
        "mode": "bus"
      }
    },
    {
      "type": "Feature",
      "geometry": {
        "type": "Point",
        "coordinates": [
          107.641285,
          -6.9497731
        ]
      },
      "properties": {
        "id": "v_107.641285_-6.949773",
        "name": "Jalan Terusan Kiara Condong",
        "role": "virtual",
        "mode": "bus"
      }
    },
    {
      "type": "Feature",
      "geometry": {
        "type": "Point",
        "coordinates": [
          107.6407795,
          -6.9521886
        ]
      },
      "properties": {
        "id": "v_107.640779_-6.952189",
        "name": "Jalan Terusan Kiara Condong",
        "role": "virtual",
        "mode": "bus"
      }
    },
    {
      "type": "Feature",
      "geometry": {
        "type": "Point",
        "coordinates": [
          107.6416057,
          -6.9543676
        ]
      },
      "properties": {
        "id": "v_107.641606_-6.954368",
        "name": "Jalan Marga Cinta",
        "role": "virtual",
        "mode": "bus"
      }
    },
    {
      "type": "Feature",
      "geometry": {
        "type": "Point",
        "coordinates": [
          107.6440039,
          -6.9547648
        ]
      },
      "properties": {
        "id": "v_107.644004_-6.954765",
        "name": "Jalan Marga Cinta",
        "role": "virtual",
        "mode": "bus"
      }
    },
    {
      "type": "Feature",
      "geometry": {
        "type": "Point",
        "coordinates": [
          107.6463012,
          -6.9549534
        ]
      },
      "properties": {
        "id": "v_107.646301_-6.954953",
        "name": "Jalan Marga Cinta",
        "role": "virtual",
        "mode": "bus"
      }
    },
    {
      "type": "Feature",
      "geometry": {
        "type": "Point",
        "coordinates": [
          107.6487472,
          -6.9551542
        ]
      },
      "properties": {
        "id": "v_107.648747_-6.955154",
        "name": "Jalan Marga Cinta",
        "role": "virtual",
        "mode": "bus"
      }
    },
    {
      "type": "Feature",
      "geometry": {
        "type": "Point",
        "coordinates": [
          107.6521388,
          -6.9554682
        ]
      },
      "properties": {
        "id": "12813271263",
        "name": "Seberang Borma Margacinta",
        "role": "stop",
        "mode": "bus"
      }
    },
    {
      "type": "Feature",
      "geometry": {
        "type": "Point",
        "coordinates": [
          107.6545084,
          -6.9557374
        ]
      },
      "properties": {
        "id": "v_107.654508_-6.955737",
        "name": "Jalan Marga Cinta",
        "role": "virtual",
        "mode": "bus"
      }
    },
    {
      "type": "Feature",
      "geometry": {
        "type": "Point",
        "coordinates": [
          107.6566158,
          -6.957044
        ]
      },
      "properties": {
        "id": "v_107.656616_-6.957044",
        "name": "Jalan Marga Cinta",
        "role": "virtual",
        "mode": "bus"
      }
    },
    {
      "type": "Feature",
      "geometry": {
        "type": "Point",
        "coordinates": [
          107.6584505,
          -6.95842
        ]
      },
      "properties": {
        "id": "v_107.658451_-6.958420",
        "name": "Jalan Marga Cinta",
        "role": "virtual",
        "mode": "bus"
      }
    },
    {
      "type": "Feature",
      "geometry": {
        "type": "Point",
        "coordinates": [
          107.6615127,
          -6.9597741
        ]
      },
      "properties": {
        "id": "35138488",
        "name": "Taman Lansia Margahayu Raya",
        "role": "stop",
        "mode": "bus"
      }
    },
    {
      "type": "Feature",
      "geometry": {
        "type": "Point",
        "coordinates": [
          107.6637713,
          -6.9604614
        ]
      },
      "properties": {
        "id": "v_107.663771_-6.960461",
        "name": "Jalan Marga Cinta",
        "role": "virtual",
        "mode": "bus"
      }
    },
    {
      "type": "Feature",
      "geometry": {
        "type": "Point",
        "coordinates": [
          107.6659707,
          -6.9610398
        ]
      },
      "properties": {
        "id": "v_107.665971_-6.961040",
        "name": "Jalan Marga Cinta",
        "role": "virtual",
        "mode": "bus"
      }
    },
    {
      "type": "Feature",
      "geometry": {
        "type": "Point",
        "coordinates": [
          107.6684135,
          -6.961523
        ]
      },
      "properties": {
        "id": "v_107.668413_-6.961523",
        "name": "Jalan Marga Cinta",
        "role": "virtual",
        "mode": "bus"
      }
    },
    {
      "type": "Feature",
      "geometry": {
        "type": "Point",
        "coordinates": [
          107.6707571,
          -6.9618635
        ]
      },
      "properties": {
        "id": "v_107.670757_-6.961863",
        "name": "Jalan Marga Cinta",
        "role": "virtual",
        "mode": "bus"
      }
    },
    {
      "type": "Feature",
      "geometry": {
        "type": "Point",
        "coordinates": [
          107.6727755,
          -6.9629492
        ]
      },
      "properties": {
        "id": "v_107.672776_-6.962949",
        "name": "Marga Cinta",
        "role": "virtual",
        "mode": "bus"
      }
    },
    {
      "type": "Feature",
      "geometry": {
        "type": "Point",
        "coordinates": [
          107.6751648,
          -6.9639429
        ]
      },
      "properties": {
        "id": "v_107.675165_-6.963943",
        "name": "Jalan Derwati",
        "role": "virtual",
        "mode": "bus"
      }
    },
    {
      "type": "Feature",
      "geometry": {
        "type": "Point",
        "coordinates": [
          107.6775249,
          -6.9641529
        ]
      },
      "properties": {
        "id": "v_107.677525_-6.964153",
        "name": "Jalan Derwati",
        "role": "virtual",
        "mode": "bus"
      }
    },
    {
      "type": "Feature",
      "geometry": {
        "type": "Point",
        "coordinates": [
          107.6798172,
          -6.9644172
        ]
      },
      "properties": {
        "id": "v_107.679817_-6.964417",
        "name": "Jalan Derwati",
        "role": "virtual",
        "mode": "bus"
      }
    },
    {
      "type": "Feature",
      "geometry": {
        "type": "Point",
        "coordinates": [
          107.6821746,
          -6.9646581
        ]
      },
      "properties": {
        "id": "v_107.682175_-6.964658",
        "name": "Jalan Derwati",
        "role": "virtual",
        "mode": "bus"
      }
    },
    {
      "type": "Feature",
      "geometry": {
        "type": "Point",
        "coordinates": [
          107.6868117,
          -6.9655502
        ]
      },
      "properties": {
        "id": "2518053983",
        "name": "Simpang Derwati",
        "role": "stop_exit_only",
        "mode": "bus"
      }
    }
  ]
}