{
  "type": "FeatureCollection",
  "features": [
    {
      "type": "Feature",
      "geometry": {
        "type": "Point",
        "coordinates": [
          107.6199195,
          -6.9011743
        ]
      },
      "properties": {
        "id": "1666155324",
        "name": "Lapangan Gasibu A",
        "role": "stop_entry_only",
        "mode": "bus"
      }
    },
    {
      "type": "Feature",
      "geometry": {
        "type": "Point",
        "coordinates": [
          107.6241876,
          -6.9010661
        ]
      },
      "properties": {
        "id": "11707030829",
        "name": "PUSDAI A",
        "role": "stop",
        "mode": "bus"
      }
    },
    {
      "type": "Feature",
      "geometry": {
        "type": "Point",
        "coordinates": [
          107.6259572,
          -6.9010164
        ]
      },
      "properties": {
        "id": "5832220639",
        "name": "Unknown",
        "role": "stop",
        "mode": "bus"
      }
    },
    {
      "type": "Feature",
      "geometry": {
        "type": "Point",
        "coordinates": [
          107.6282881,
          -6.9039847
        ]
      },
      "properties": {
        "id": "5842007855",
        "name": "Muararajeun",
        "role": "stop",
        "mode": "bus"
      }
    },
    {
      "type": "Feature",
      "geometry": {
        "type": "Point",
        "coordinates": [
          107.629935,
          -6.9065072
        ]
      },
      "properties": {
        "id": "v_107.629935_-6.906507",
        "name": "Jalan Supratman",
        "role": "virtual",
        "mode": "bus"
      }
    },
    {
      "type": "Feature",
      "geometry": {
        "type": "Point",
        "coordinates": [
          107.6324017,
          -6.9103228
        ]
      },
      "properties": {
        "id": "12811695427",
        "name": "Supratman Cikaso",
        "role": "stop",
        "mode": "bus"
      }
    },
    {
      "type": "Feature",
      "geometry": {
        "type": "Point",
        "coordinates": [
          107.6336698,
          -6.9122413
        ]
      },
      "properties": {
        "id": "12811695425",
        "name": "SMPN 22 Bandung",
        "role": "stop",
        "mode": "bus"
      }
    },
    {
      "type": "Feature",
      "geometry": {
        "type": "Point",
        "coordinates": [
          107.6345966,
          -6.9133253
        ]
      },
      "properties": {
        "id": "3375793690",
        "name": "A.Yani Supratman",
        "role": "stop",
        "mode": "bus"
      }
    },
    {
      "type": "Feature",
      "geometry": {
        "type": "Point",
        "coordinates": [
          107.637255,
          -6.9119025
        ]
      },
      "properties": {
        "id": "11735248693",
        "name": "Cikaso",
        "role": "stop",
        "mode": "bus"
      }
    },
    {
      "type": "Feature",
      "geometry": {
        "type": "Point",
        "coordinates": [
          107.6396001,
          -6.9106533
        ]
      },
      "properties": {
        "id": "11735248694",
        "name": "Awi Bitung",
        "role": "stop",
        "mode": "bus"
      }
    },
    {
      "type": "Feature",
      "geometry": {
        "type": "Point",
        "coordinates": [
          107.6434825,
          -6.911388
        ]
      },
      "properties": {
        "id": "3248969440",
        "name": "BTM",
        "role": "stop",
        "mode": "bus"
      }
    },
    {
      "type": "Feature",
      "geometry": {
        "type": "Point",
        "coordinates": [
          107.6437793,
          -6.9142126
        ]
      },
      "properties": {
        "id": "12633822765",
        "name": "Seberang Kiara Artha",
        "role": "stop",
        "mode": "bus"
      }
    },
    {
      "type": "Feature",
      "geometry": {
        "type": "Point",
        "coordinates": [
          107.6442909,
          -6.9196178
        ]
      },
      "properties": {
        "id": "12806853454",
        "name": "SDN 083 Babakan Surabaya Selatan",
        "role": "stop",
        "mode": "bus"
      }
    },
    {
      "type": "Feature",
      "geometry": {
        "type": "Point",
        "coordinates": [
          107.6444041,
          -6.9221685
        ]
      },
      "properties": {
        "id": "12806853450",
        "name": "Griya Kiaracondong",
        "role": "stop",
        "mode": "bus"
      }
    },
    {
      "type": "Feature",
      "geometry": {
        "type": "Point",
        "coordinates": [
          107.6444424,
          -6.9274017
        ]
      },
      "properties": {
        "id": "12806853449",
        "name": "Jalan PSM",
        "role": "stop",
        "mode": "bus"
      }
    },
    {
      "type": "Feature",
      "geometry": {
        "type": "Point",
        "coordinates": [
          107.6438759,
          -6.9310003
        ]
      },
      "properties": {
        "id": "12806853447",
        "name": "Honda Daya Motor Kiaracondong",
        "role": "stop",
        "mode": "bus"
      }
    },
    {
      "type": "Feature",
      "geometry": {
        "type": "Point",
        "coordinates": [
          107.642917,
          -6.9333993
        ]
      },
      "properties": {
        "id": "12806853446",
        "name": "SDN 38 Kiaracondong",
        "role": "stop",
        "mode": "bus"
      }
    },
    {
      "type": "Feature",
      "geometry": {
        "type": "Point",
        "coordinates": [
          107.6424362,
          -6.9380472
        ]
      },
      "properties": {
        "id": "12806853442",
        "name": "Kebon Kangkung 11",
        "role": "stop",
        "mode": "bus"
      }
    },
    {
      "type": "Feature",
      "geometry": {
        "type": "Point",
        "coordinates": [
          107.6423227,
          -6.9397848
        ]
      },
      "properties": {
        "id": "12806853440",
        "name": "Den Jasa Ang",
        "role": "stop",
        "mode": "bus"
      }
    },
    {
      "type": "Feature",
      "geometry": {
        "type": "Point",
        "coordinates": [
          107.6421057,
          -6.9428602
        ]
      },
      "properties": {
        "id": "12806853435",
        "name": "SPBU Kebon Kangkung",
        "role": "stop",
        "mode": "bus"
      }
    },
    {
      "type": "Feature",
      "geometry": {
        "type": "Point",
        "coordinates": [
          107.6419126,
          -6.9455527
        ]
      },
      "properties": {
        "id": "v_107.641913_-6.945553",
        "name": "Jalan Letnan Jenderal Ibrahim Adjie",
        "role": "virtual",
        "mode": "bus"
      }
    },
    {
      "type": "Feature",
      "geometry": {
        "type": "Point",
        "coordinates": [
          107.6414995,
          -6.948367
        ]
      },
      "properties": {
        "id": "v_107.641499_-6.948367",
        "name": "Jalan Terusan Kiara Condong",
        "role": "virtual",
        "mode": "bus"
      }
    },
    {
      "type": "Feature",
      "geometry": {
        "type": "Point",
        "coordinates": [
          107.6410675,
          -6.9511442
        ]
      },
      "properties": {
        "id": "v_107.641068_-6.951144",
        "name": "Jalan Terusan Kiara Condong",
        "role": "virtual",
        "mode": "bus"
      }
    },
    {
      "type": "Feature",
      "geometry": {
        "type": "Point",
        "coordinates": [
          107.640232,
          -6.9540334
        ]
      },
      "properties": {
        "id": "v_107.640232_-6.954033",
        "name": "Jalan Terusan Kiara Condong",
        "role": "virtual",
        "mode": "bus"
      }
    },
    {
      "type": "Feature",
      "geometry": {
        "type": "Point",
        "coordinates": [
          107.6429084,
          -6.9546453
        ]
      },
      "properties": {
        "id": "v_107.642908_-6.954645",
        "name": "Jalan Marga Cinta",
        "role": "virtual",
        "mode": "bus"
      }
    },
    {
      "type": "Feature",
      "geometry": {
        "type": "Point",
        "coordinates": [
          107.6457017,
          -6.9549042
        ]
      },
      "properties": {
        "id": "v_107.645702_-6.954904",
        "name": "Jalan Marga Cinta",
        "role": "virtual",
        "mode": "bus"
      }
    },
    {
      "type": "Feature",
      "geometry": {
        "type": "Point",
        "coordinates": [
          107.6484855,
          -6.9551321
        ]
      },
      "properties": {
        "id": "v_107.648486_-6.955132",
        "name": "Jalan Marga Cinta",
        "role": "virtual",
        "mode": "bus"
      }
    },
    {
      "type": "Feature",
      "geometry": {
        "type": "Point",
        "coordinates": [
          107.6521388,
          -6.9554682
        ]
      },
      "properties": {
        "id": "12813271263",
        "name": "Seberang Borma Margacinta",
        "role": "stop",
        "mode": "bus"
      }
    },
    {
      "type": "Feature",
      "geometry": {
        "type": "Point",
        "coordinates": [
          107.654914,
          -6.9557702
        ]
      },
      "properties": {
        "id": "v_107.654914_-6.955770",
        "name": "Jalan Marga Cinta",
        "role": "virtual",
        "mode": "bus"
      }
    },
    {
      "type": "Feature",
      "geometry": {
        "type": "Point",
        "coordinates": [
          107.6572207,
          -6.9576465
        ]
      },
      "properties": {
        "id": "v_107.657221_-6.957647",
        "name": "Jalan Marga Cinta",
        "role": "virtual",
        "mode": "bus"
      }
    },
    {
      "type": "Feature",
      "geometry": {
        "type": "Point",
        "coordinates": [
          107.6615127,
          -6.9597741
        ]
      },
      "properties": {
        "id": "35138488",
        "name": "Taman Lansia Margahayu Raya",
        "role": "stop",
        "mode": "bus"
      }
    },
    {
      "type": "Feature",
      "geometry": {
        "type": "Point",
        "coordinates": [
          107.6642755,
          -6.9605925
        ]
      },
      "properties": {
        "id": "v_107.664276_-6.960592",
        "name": "Jalan Marga Cinta",
        "role": "virtual",
        "mode": "bus"
      }
    },
    {
      "type": "Feature",
      "geometry": {
        "type": "Point",
        "coordinates": [
          107.6670034,
          -6.9612891
        ]
      },
      "properties": {
        "id": "v_107.667003_-6.961289",
        "name": "Jalan Marga Cinta",
        "role": "virtual",
        "mode": "bus"
      }
    },
    {
      "type": "Feature",
      "geometry": {
        "type": "Point",
        "coordinates": [
          107.6697989,
          -6.9617513
        ]
      },
      "properties": {
        "id": "v_107.669799_-6.961751",
        "name": "Jalan Marga Cinta",
        "role": "virtual",
        "mode": "bus"
      }
    },
    {
      "type": "Feature",
      "geometry": {
        "type": "Point",
        "coordinates": [
          107.6726232,
          -6.9622086
        ]
      },
      "properties": {
        "id": "v_107.672623_-6.962209",
        "name": "Marga Cinta",
        "role": "virtual",
        "mode": "bus"
      }
    },
    {
      "type": "Feature",
      "geometry": {
        "type": "Point",
        "coordinates": [
          107.6747359,
          -6.9639119
        ]
      },
      "properties": {
        "id": "v_107.674736_-6.963912",
        "name": "Jalan Derwati",
        "role": "virtual",
        "mode": "bus"
      }
    },
    {
      "type": "Feature",
      "geometry": {
        "type": "Point",
        "coordinates": [
          107.6775249,
          -6.9641529
        ]
      },
      "properties": {
        "id": "v_107.677525_-6.964153",
        "name": "Jalan Derwati",
        "role": "virtual",
        "mode": "bus"
      }
    },
    {
      "type": "Feature",
      "geometry": {
        "type": "Point",
        "coordinates": [
          107.6803708,
          -6.9644157
        ]
      },
      "properties": {
        "id": "v_107.680371_-6.964416",
        "name": "Jalan Derwati",
        "role": "virtual",
        "mode": "bus"
      }
    },
    {
      "type": "Feature",
      "geometry": {
        "type": "Point",
        "coordinates": [
          107.6831794,
          -6.9647988
        ]
      },
      "properties": {
        "id": "v_107.683179_-6.964799",
        "name": "Jalan Derwati",
        "role": "virtual",
        "mode": "bus"
      }
    },
    {
      "type": "Feature",
      "geometry": {
        "type": "Point",
        "coordinates": [
          107.6868117,
          -6.9655502
        ]
      },
      "properties": {
        "id": "2518053983",
        "name": "Simpang Derwati",
        "role": "stop_exit_only",
        "mode": "bus"
      }
    }
  ]
}