{
  "type": "FeatureCollection",
  "features": [
    {
      "type": "Feature",
      "geometry": {
        "type": "Point",
        "coordinates": [
          107.6180361,
          -6.8934568
        ]
      },
      "properties": {
        "id": "3375793673",
        "name": "UNPAD Dipatiukur",
        "role": "stop_entry_only",
        "mode": "bus"
      }
    },
    {
      "type": "Feature",
      "geometry": {
        "type": "Point",
        "coordinates": [
          107.6174318,
          -6.8947388
        ]
      },
      "properties": {
        "id": "v_107.617432_-6.894739",
        "name": "Jalan Dipatiukur",
        "role": "virtual",
        "mode": "bus"
      }
    },
    {
      "type": "Feature",
      "geometry": {
        "type": "Point",
        "coordinates": [
          107.6160516,
          -6.8948686
        ]
      },
      "properties": {
        "id": "v_107.616052_-6.894869",
        "name": "Jalan Hasanudin",
        "role": "virtual",
        "mode": "bus"
      }
    },
    {
      "type": "Feature",
      "geometry": {
        "type": "Point",
        "coordinates": [
          107.6134343,
          -6.8948263
        ]
      },
      "properties": {
        "id": "11104718106",
        "name": "Rumah Sakit Santo Borromeus B",
        "role": "stop",
        "mode": "bus"
      }
    },
    {
      "type": "Feature",
      "geometry": {
        "type": "Point",
        "coordinates": [
          107.6129302,
          -6.8944643
        ]
      },
      "properties": {
        "id": "11104669204",
        "name": "Rumah Sakit Santo Borromeus A",
        "role": "stop",
        "mode": "bus"
      }
    },
    {
      "type": "Feature",
      "geometry": {
        "type": "Point",
        "coordinates": [
          107.611316,
          -6.8933595
        ]
      },
      "properties": {
        "id": "12813237923",
        "name": "Masjid Salman",
        "role": "stop",
        "mode": "bus"
      }
    },
    {
      "type": "Feature",
      "geometry": {
        "type": "Point",
        "coordinates": [
          107.6095668,
          -6.8933482
        ]
      },
      "properties": {
        "id": "12813237926",
        "name": "Klinik Pratama ITB",
        "role": "stop",
        "mode": "bus"
      }
    },
    {
      "type": "Feature",
      "geometry": {
        "type": "Point",
        "coordinates": [
          107.6086646,
          -6.8946314
        ]
      },
      "properties": {
        "id": "3376871366",
        "name": "Gelap Nyawang",
        "role": "stop",
        "mode": "bus"
      }
    },
    {
      "type": "Feature",
      "geometry": {
        "type": "Point",
        "coordinates": [
          107.6094398,
          -6.8959853
        ]
      },
      "properties": {
        "id": "v_107.609440_-6.895985",
        "name": "Jalan Taman Sari",
        "role": "virtual",
        "mode": "bus"
      }
    },
    {
      "type": "Feature",
      "geometry": {
        "type": "Point",
        "coordinates": [
          107.610121,
          -6.8982089
        ]
      },
      "properties": {
        "id": "12628813995",
        "name": "Tamansari Cikapayang",
        "role": "stop",
        "mode": "bus"
      }
    },
    {
      "type": "Feature",
      "geometry": {
        "type": "Point",
        "coordinates": [
          107.6115705,
          -6.8987489
        ]
      },
      "properties": {
        "id": "v_107.611570_-6.898749",
        "name": "Jalan Cikapayang",
        "role": "virtual",
        "mode": "bus"
      }
    },
    {
      "type": "Feature",
      "geometry": {
        "type": "Point",
        "coordinates": [
          107.6093737,
          -6.8993458
        ]
      },
      "properties": {
        "id": "v_107.609374_-6.899346",
        "name": "Jalan Taman Sari",
        "role": "virtual",
        "mode": "bus"
      }
    },
    {
      "type": "Feature",
      "geometry": {
        "type": "Point",
        "coordinates": [
          107.6095765,
          -6.9008166
        ]
      },
      "properties": {
        "id": "v_107.609577_-6.900817",
        "name": "Jalan Sawunggaling",
        "role": "virtual",
        "mode": "bus"
      }
    },
    {
      "type": "Feature",
      "geometry": {
        "type": "Point",
        "coordinates": [
          107.6100998,
          -6.9024998
        ]
      },
      "properties": {
        "id": "v_107.610100_-6.902500",
        "name": "Jalan Sawunggaling",
        "role": "virtual",
        "mode": "bus"
      }
    },
    {
      "type": "Feature",
      "geometry": {
        "type": "Point",
        "coordinates": [
          107.6087064,
          -6.9029289
        ]
      },
      "properties": {
        "id": "v_107.608706_-6.902929",
        "name": "Jalan Harian Banga",
        "role": "virtual",
        "mode": "bus"
      }
    },
    {
      "type": "Feature",
      "geometry": {
        "type": "Point",
        "coordinates": [
          107.6081616,
          -6.9041718
        ]
      },
      "properties": {
        "id": "v_107.608162_-6.904172",
        "name": "Jalan Taman Sari",
        "role": "virtual",
        "mode": "bus"
      }
    },
    {
      "type": "Feature",
      "geometry": {
        "type": "Point",
        "coordinates": [
          107.6077876,
          -6.9055553
        ]
      },
      "properties": {
        "id": "v_107.607788_-6.905555",
        "name": "Jalan Taman Sari",
        "role": "virtual",
        "mode": "bus"
      }
    },
    {
      "type": "Feature",
      "geometry": {
        "type": "Point",
        "coordinates": [
          107.6096165,
          -6.9068537
        ]
      },
      "properties": {
        "id": "11739021634",
        "name": "Riau XL",
        "role": "stop",
        "mode": "bus"
      }
    },
    {
      "type": "Feature",
      "geometry": {
        "type": "Point",
        "coordinates": [
          107.6114489,
          -6.9070444
        ]
      },
      "properties": {
        "id": "12947493608",
        "name": "Rumah Sakit Sariningsih",
        "role": "stop",
        "mode": "bus"
      }
    },
    {
      "type": "Feature",
      "geometry": {
        "type": "Point",
        "coordinates": [
          107.6116695,
          -6.9070609
        ]
      },
      "properties": {
        "id": "12819940053",
        "name": "Riau Junction",
        "role": "stop",
        "mode": "bus"
      }
    },
    {
      "type": "Feature",
      "geometry": {
        "type": "Point",
        "coordinates": [
          107.6130652,
          -6.9069206
        ]
      },
      "properties": {
        "id": "v_107.613065_-6.906921",
        "name": "Jalan L.L. RE. Martadinata",
        "role": "virtual",
        "mode": "bus"
      }
    },
    {
      "type": "Feature",
      "geometry": {
        "type": "Point",
        "coordinates": [
          107.6144094,
          -6.9064746
        ]
      },
      "properties": {
        "id": "12947493609",
        "name": "RSGM Kota Bandung",
        "role": "stop",
        "mode": "bus"
      }
    },
    {
      "type": "Feature",
      "geometry": {
        "type": "Point",
        "coordinates": [
          107.6159699,
          -6.9063138
        ]
      },
      "properties": {
        "id": "v_107.615970_-6.906314",
        "name": "Jalan L.L. RE. Martadinata",
        "role": "virtual",
        "mode": "bus"
      }
    },
    {
      "type": "Feature",
      "geometry": {
        "type": "Point",
        "coordinates": [
          107.6169984,
          -6.9072231
        ]
      },
      "properties": {
        "id": "v_107.616998_-6.907223",
        "name": "Jalan Banda",
        "role": "virtual",
        "mode": "bus"
      }
    },
    {
      "type": "Feature",
      "geometry": {
        "type": "Point",
        "coordinates": [
          107.617382,
          -6.9090114
        ]
      },
      "properties": {
        "id": "v_107.617382_-6.909011",
        "name": "Jalan Banda",
        "role": "virtual",
        "mode": "bus"
      }
    },
    {
      "type": "Feature",
      "geometry": {
        "type": "Point",
        "coordinates": [
          107.6176084,
          -6.9105947
        ]
      },
      "properties": {
        "id": "v_107.617608_-6.910595",
        "name": "Jalan Banda",
        "role": "virtual",
        "mode": "bus"
      }
    },
    {
      "type": "Feature",
      "geometry": {
        "type": "Point",
        "coordinates": [
          107.6150207,
          -6.9119682
        ]
      },
      "properties": {
        "id": "3374033495",
        "name": "SMAN 3 dan 5",
        "role": "stop",
        "mode": "bus"
      }
    },
    {
      "type": "Feature",
      "geometry": {
        "type": "Point",
        "coordinates": [
          107.6138205,
          -6.9124068
        ]
      },
      "properties": {
        "id": "12809521950",
        "name": "Taman Lalu Lintas",
        "role": "stop",
        "mode": "bus"
      }
    },
    {
      "type": "Feature",
      "geometry": {
        "type": "Point",
        "coordinates": [
          107.6139894,
          -6.9147065
        ]
      },
      "properties": {
        "id": "12887182816",
        "name": "SMP Negeri 2 Bandung",
        "role": "stop",
        "mode": "bus"
      }
    },
    {
      "type": "Feature",
      "geometry": {
        "type": "Point",
        "coordinates": [
          107.6137272,
          -6.9162973
        ]
      },
      "properties": {
        "id": "v_107.613727_-6.916297",
        "name": "Jalan Sumatra",
        "role": "virtual",
        "mode": "bus"
      }
    },
    {
      "type": "Feature",
      "geometry": {
        "type": "Point",
        "coordinates": [
          107.6132908,
          -6.9182518
        ]
      },
      "properties": {
        "id": "11735248678",
        "name": "RSU Bungsu",
        "role": "stop",
        "mode": "bus"
      }
    },
    {
      "type": "Feature",
      "geometry": {
        "type": "Point",
        "coordinates": [
          107.6157093,
          -6.9194533
        ]
      },
      "properties": {
        "id": "v_107.615709_-6.919453",
        "name": "Jalan Veteran",
        "role": "virtual",
        "mode": "bus"
      }
    },
    {
      "type": "Feature",
      "geometry": {
        "type": "Point",
        "coordinates": [
          107.6173178,
          -6.9201846
        ]
      },
      "properties": {
        "id": "v_107.617318_-6.920185",
        "name": "Jalan Veteran",
        "role": "virtual",
        "mode": "bus"
      }
    },
    {
      "type": "Feature",
      "geometry": {
        "type": "Point",
        "coordinates": [
          107.619848,
          -6.921143
        ]
      },
      "properties": {
        "id": "11735248705",
        "name": "Ketapang",
        "role": "stop",
        "mode": "bus"
      }
    },
    {
      "type": "Feature",
      "geometry": {
        "type": "Point",
        "coordinates": [
          107.6221779,
          -6.9199012
        ]
      },
      "properties": {
        "id": "11735248679",
        "name": "Pasar Kosambi",
        "role": "stop",
        "mode": "bus"
      }
    },
    {
      "type": "Feature",
      "geometry": {
        "type": "Point",
        "coordinates": [
          107.6235031,
          -6.9192144
        ]
      },
      "properties": {
        "id": "v_107.623503_-6.919214",
        "name": "Jalan Jenderal Ahmad Yani",
        "role": "virtual",
        "mode": "bus"
      }
    },
    {
      "type": "Feature",
      "geometry": {
        "type": "Point",
        "coordinates": [
          107.6258605,
          -6.9179222
        ]
      },
      "properties": {
        "id": "11735248685",
        "name": "Segitiga Mas",
        "role": "stop",
        "mode": "bus"
      }
    },
    {
      "type": "Feature",
      "geometry": {
        "type": "Point",
        "coordinates": [
          107.6268373,
          -6.9174142
        ]
      },
      "properties": {
        "id": "11735248686",
        "name": "Jaya Plaza",
        "role": "stop",
        "mode": "bus"
      }
    },
    {
      "type": "Feature",
      "geometry": {
        "type": "Point",
        "coordinates": [
          107.6287225,
          -6.9164526
        ]
      },
      "properties": {
        "id": "11735248689",
        "name": "Dinas Pendidikan Kota Bandung",
        "role": "stop",
        "mode": "bus"
      }
    },
    {
      "type": "Feature",
      "geometry": {
        "type": "Point",
        "coordinates": [
          107.6310524,
          -6.9151724
        ]
      },
      "properties": {
        "id": "5391666887",
        "name": "Jalan Mangga",
        "role": "stop",
        "mode": "bus"
      }
    },
    {
      "type": "Feature",
      "geometry": {
        "type": "Point",
        "coordinates": [
          107.6332108,
          -6.9140574
        ]
      },
      "properties": {
        "id": "11735248691",
        "name": "Sekolah Agustinus",
        "role": "stop",
        "mode": "bus"
      }
    },
    {
      "type": "Feature",
      "geometry": {
        "type": "Point",
        "coordinates": [
          107.6345966,
          -6.9133253
        ]
      },
      "properties": {
        "id": "3375793690",
        "name": "A.Yani Supratman",
        "role": "stop",
        "mode": "bus"
      }
    },
    {
      "type": "Feature",
      "geometry": {
        "type": "Point",
        "coordinates": [
          107.6360079,
          -6.9125623
        ]
      },
      "properties": {
        "id": "v_107.636008_-6.912562",
        "name": "Jalan Jenderal Ahmad Yani",
        "role": "virtual",
        "mode": "bus"
      }
    },
    {
      "type": "Feature",
      "geometry": {
        "type": "Point",
        "coordinates": [
          107.637255,
          -6.9119025
        ]
      },
      "properties": {
        "id": "11735248693",
        "name": "Cikaso",
        "role": "stop",
        "mode": "bus"
      }
    },
    {
      "type": "Feature",
      "geometry": {
        "type": "Point",
        "coordinates": [
          107.6396001,
          -6.9106533
        ]
      },
      "properties": {
        "id": "11735248694",
        "name": "Awi Bitung",
        "role": "stop",
        "mode": "bus"
      }
    },
    {
      "type": "Feature",
      "geometry": {
        "type": "Point",
        "coordinates": [
          107.6411552,
          -6.9098264
        ]
      },
      "properties": {
        "id": "v_107.641155_-6.909826",
        "name": "Jalan Jenderal Ahmad Yani",
        "role": "virtual",
        "mode": "bus"
      }
    },
    {
      "type": "Feature",
      "geometry": {
        "type": "Point",
        "coordinates": [
          107.6425852,
          -6.9090236
        ]
      },
      "properties": {
        "id": "v_107.642585_-6.909024",
        "name": "Jalan Jenderal Ahmad Yani",
        "role": "virtual",
        "mode": "bus"
      }
    },
    {
      "type": "Feature",
      "geometry": {
        "type": "Point",
        "coordinates": [
          107.6437801,
          -6.9083798
        ]
      },
      "properties": {
        "id": "v_107.643780_-6.908380",
        "name": "Jalan Jenderal Ahmad Yani",
        "role": "virtual",
        "mode": "bus"
      }
    },
    {
      "type": "Feature",
      "geometry": {
        "type": "Point",
        "coordinates": [
          107.64542,
          -6.9075568
        ]
      },
      "properties": {
        "id": "v_107.645420_-6.907557",
        "name": "Jalan Jenderal Ahmad Yani",
        "role": "virtual",
        "mode": "bus"
      }
    },
    {
      "type": "Feature",
      "geometry": {
        "type": "Point",
        "coordinates": [
          107.6469168,
          -6.9067662
        ]
      },
      "properties": {
        "id": "v_107.646917_-6.906766",
        "name": "Jalan Jenderal Ahmad Yani",
        "role": "virtual",
        "mode": "bus"
      }
    },
    {
      "type": "Feature",
      "geometry": {
        "type": "Point",
        "coordinates": [
          107.6481705,
          -6.9061111
        ]
      },
      "properties": {
        "id": "v_107.648171_-6.906111",
        "name": "Jalan Jenderal Ahmad Yani",
        "role": "virtual",
        "mode": "bus"
      }
    },
    {
      "type": "Feature",
      "geometry": {
        "type": "Point",
        "coordinates": [
          107.650154,
          -6.9050722
        ]
      },
      "properties": {
        "id": "11735248708",
        "name": "Cimuncang",
        "role": "stop",
        "mode": "bus"
      }
    },
    {
      "type": "Feature",
      "geometry": {
        "type": "Point",
        "coordinates": [
          107.6522601,
          -6.9039596
        ]
      },
      "properties": {
        "id": "v_107.652260_-6.903960",
        "name": "Jalan Jenderal Ahmad Yani",
        "role": "virtual",
        "mode": "bus"
      }
    },
    {
      "type": "Feature",
      "geometry": {
        "type": "Point",
        "coordinates": [
          107.6538132,
          -6.9031384
        ]
      },
      "properties": {
        "id": "v_107.653813_-6.903138",
        "name": "Jalan Jenderal Ahmad Yani",
        "role": "virtual",
        "mode": "bus"
      }
    },
    {
      "type": "Feature",
      "geometry": {
        "type": "Point",
        "coordinates": [
          107.6550496,
          -6.9021051
        ]
      },
      "properties": {
        "id": "v_107.655050_-6.902105",
        "name": "Jalan Jenderal Ahmad Yani",
        "role": "virtual",
        "mode": "bus"
      }
    },
    {
      "type": "Feature",
      "geometry": {
        "type": "Point",
        "coordinates": [
          107.6567969,
          -6.9021302
        ]
      },
      "properties": {
        "id": "5832221935",
        "name": "Seberang Terminal Cicaheum",
        "role": "stop",
        "mode": "bus"
      }
    },
    {
      "type": "Feature",
      "geometry": {
        "type": "Point",
        "coordinates": [
          107.6587729,
          -6.9021961
        ]
      },
      "properties": {
        "id": "v_107.658773_-6.902196",
        "name": "Jalan Abdul Haris Nasution",
        "role": "virtual",
        "mode": "bus"
      }
    },
    {
      "type": "Feature",
      "geometry": {
        "type": "Point",
        "coordinates": [
          107.6602541,
          -6.9022498
        ]
      },
      "properties": {
        "id": "v_107.660254_-6.902250",
        "name": "Jalan Abdul Haris Nasution",
        "role": "virtual",
        "mode": "bus"
      }
    },
    {
      "type": "Feature",
      "geometry": {
        "type": "Point",
        "coordinates": [
          107.6612417,
          -6.903307
        ]
      },
      "properties": {
        "id": "v_107.661242_-6.903307",
        "name": "Jalan Abdul Haris Nasution",
        "role": "virtual",
        "mode": "bus"
      }
    },
    {
      "type": "Feature",
      "geometry": {
        "type": "Point",
        "coordinates": [
          107.6628717,
          -6.9037486
        ]
      },
      "properties": {
        "id": "v_107.662872_-6.903749",
        "name": "Jalan Abdul Haris Nasution",
        "role": "virtual",
        "mode": "bus"
      }
    },
    {
      "type": "Feature",
      "geometry": {
        "type": "Point",
        "coordinates": [
          107.6642495,
          -6.9038943
        ]
      },
      "properties": {
        "id": "v_107.664249_-6.903894",
        "name": "Jalan Abdul Haris Nasution",
        "role": "virtual",
        "mode": "bus"
      }
    },
    {
      "type": "Feature",
      "geometry": {
        "type": "Point",
        "coordinates": [
          107.6656526,
          -6.9040466
        ]
      },
      "properties": {
        "id": "12806309242",
        "name": "SDN Cikadut",
        "role": "stop",
        "mode": "bus"
      }
    },
    {
      "type": "Feature",
      "geometry": {
        "type": "Point",
        "coordinates": [
          107.6670084,
          -6.9041694
        ]
      },
      "properties": {
        "id": "v_107.667008_-6.904169",
        "name": "Jalan Abdul Haris Nasution",
        "role": "virtual",
        "mode": "bus"
      }
    },
    {
      "type": "Feature",
      "geometry": {
        "type": "Point",
        "coordinates": [
          107.669297,
          -6.904218
        ]
      },
      "properties": {
        "id": "v_107.669297_-6.904218",
        "name": "Jalan Abdul Haris Nasution",
        "role": "virtual",
        "mode": "bus"
      }
    },
    {
      "type": "Feature",
      "geometry": {
        "type": "Point",
        "coordinates": [
          107.6718533,
          -6.9044513
        ]
      },
      "properties": {
        "id": "12806309246",
        "name": "Gang H.M. Syarief",
        "role": "stop",
        "mode": "bus"
      }
    },
    {
      "type": "Feature",
      "geometry": {
        "type": "Point",
        "coordinates": [
          107.6731822,
          -6.9049099
        ]
      },
      "properties": {
        "id": "v_107.673182_-6.904910",
        "name": "Jalan Abdul Haris Nasution",
        "role": "virtual",
        "mode": "bus"
      }
    },
    {
      "type": "Feature",
      "geometry": {
        "type": "Point",
        "coordinates": [
          107.6759315,
          -6.904729
        ]
      },
      "properties": {
        "id": "12806309248",
        "name": "Borma Pasirimpun",
        "role": "stop",
        "mode": "bus"
      }
    },
    {
      "type": "Feature",
      "geometry": {
        "type": "Point",
        "coordinates": [
          107.6776188,
          -6.9047757
        ]
      },
      "properties": {
        "id": "v_107.677619_-6.904776",
        "name": "Jalan Abdul Haris Nasution",
        "role": "virtual",
        "mode": "bus"
      }
    },
    {
      "type": "Feature",
      "geometry": {
        "type": "Point",
        "coordinates": [
          107.6793873,
          -6.9049801
        ]
      },
      "properties": {
        "id": "v_107.679387_-6.904980",
        "name": "Jalan Abdul Haris Nasution",
        "role": "virtual",
        "mode": "bus"
      }
    },
    {
      "type": "Feature",
      "geometry": {
        "type": "Point",
        "coordinates": [
          107.6809974,
          -6.9052105
        ]
      },
      "properties": {
        "id": "v_107.680997_-6.905210",
        "name": "Jalan Abdul Haris Nasution",
        "role": "virtual",
        "mode": "bus"
      }
    },
    {
      "type": "Feature",
      "geometry": {
        "type": "Point",
        "coordinates": [
          107.6828062,
          -6.9058327
        ]
      },
      "properties": {
        "id": "v_107.682806_-6.905833",
        "name": "Jalan Abdul Haris Nasution",
        "role": "virtual",
        "mode": "bus"
      }
    },
    {
      "type": "Feature",
      "geometry": {
        "type": "Point",
        "coordinates": [
          107.684105,
          -6.9064076
        ]
      },
      "properties": {
        "id": "v_107.684105_-6.906408",
        "name": "Jalan Abdul Haris Nasution",
        "role": "virtual",
        "mode": "bus"
      }
    },
    {
      "type": "Feature",
      "geometry": {
        "type": "Point",
        "coordinates": [
          107.6840757,
          -6.9099636
        ]
      },
      "properties": {
        "id": "12814754624",
        "name": "Yuntex Raya",
        "role": "stop",
        "mode": "bus"
      }
    },
    {
      "type": "Feature",
      "geometry": {
        "type": "Point",
        "coordinates": [
          107.6834678,
          -6.9115966
        ]
      },
      "properties": {
        "id": "v_107.683468_-6.911597",
        "name": "Jalan Cicukang",
        "role": "virtual",
        "mode": "bus"
      }
    },
    {
      "type": "Feature",
      "geometry": {
        "type": "Point",
        "coordinates": [
          107.6831302,
          -6.9129185
        ]
      },
      "properties": {
        "id": "v_107.683130_-6.912918",
        "name": "Jalan Cicukang",
        "role": "virtual",
        "mode": "bus"
      }
    },
    {
      "type": "Feature",
      "geometry": {
        "type": "Point",
        "coordinates": [
          107.6839312,
          -6.9141792
        ]
      },
      "properties": {
        "id": "v_107.683931_-6.914179",
        "name": "Jalan Cicukang",
        "role": "virtual",
        "mode": "bus"
      }
    },
    {
      "type": "Feature",
      "geometry": {
        "type": "Point",
        "coordinates": [
          107.6846777,
          -6.9156246
        ]
      },
      "properties": {
        "id": "v_107.684678_-6.915625",
        "name": "Jalan terdekat",
        "role": "virtual",
        "mode": "bus"
      }
    },
    {
      "type": "Feature",
      "geometry": {
        "type": "Point",
        "coordinates": [
          107.6843535,
          -6.9170521
        ]
      },
      "properties": {
        "id": "v_107.684354_-6.917052",
        "name": "Jalan terdekat",
        "role": "virtual",
        "mode": "bus"
      }
    },
    {
      "type": "Feature",
      "geometry": {
        "type": "Point",
        "coordinates": [
          107.6849372,
          -6.9183032
        ]
      },
      "properties": {
        "id": "v_107.684937_-6.918303",
        "name": "Jalan terdekat",
        "role": "virtual",
        "mode": "bus"
      }
    },
    {
      "type": "Feature",
      "geometry": {
        "type": "Point",
        "coordinates": [
          107.6847382,
          -6.9196737
        ]
      },
      "properties": {
        "id": "v_107.684738_-6.919674",
        "name": "Jalan terdekat",
        "role": "virtual",
        "mode": "bus"
      }
    },
    {
      "type": "Feature",
      "geometry": {
        "type": "Point",
        "coordinates": [
          107.6839378,
          -6.922592
        ]
      },
      "properties": {
        "id": "12814754639",
        "name": "K.H. Djunaedi",
        "role": "stop",
        "mode": "bus"
      }
    },
    {
      "type": "Feature",
      "geometry": {
        "type": "Point",
        "coordinates": [
          107.6835707,
          -6.9237417
        ]
      },
      "properties": {
        "id": "3251007192",
        "name": "Pangkalan Angkot Panghegar",
        "role": "stop_exit_only",
        "mode": "bus"
      }
    }
  ]
}