{
  "type": "FeatureCollection",
  "features": [
    {
      "type": "Feature",
      "geometry": {
        "type": "Point",
        "coordinates": [
          107.6180361,
          -6.8934568
        ]
      },
      "properties": {
        "id": "3375793673",
        "name": "UNPAD Dipatiukur",
        "role": "stop_entry_only",
        "mode": "bus"
      }
    },
    {
      "type": "Feature",
      "geometry": {
        "type": "Point",
        "coordinates": [
          107.6160516,
          -6.8948686
        ]
      },
      "properties": {
        "id": "v_107.616052_-6.894869",
        "name": "Jalan Hasanudin",
        "role": "virtual",
        "mode": "bus"
      }
    },
    {
      "type": "Feature",
      "geometry": {
        "type": "Point",
        "coordinates": [
          107.6134343,
          -6.8948263
        ]
      },
      "properties": {
        "id": "11104718106",
        "name": "Rumah Sakit Santo Borromeus B",
        "role": "stop",
        "mode": "bus"
      }
    },
    {
      "type": "Feature",
      "geometry": {
        "type": "Point",
        "coordinates": [
          107.6129302,
          -6.8944643
        ]
      },
      "properties": {
        "id": "11104669204",
        "name": "Rumah Sakit Santo Borromeus A",
        "role": "stop",
        "mode": "bus"
      }
    },
    {
      "type": "Feature",
      "geometry": {
        "type": "Point",
        "coordinates": [
          107.611316,
          -6.8933595
        ]
      },
      "properties": {
        "id": "12813237923",
        "name": "Masjid Salman",
        "role": "stop",
        "mode": "bus"
      }
    },
    {
      "type": "Feature",
      "geometry": {
        "type": "Point",
        "coordinates": [
          107.6095668,
          -6.8933482
        ]
      },
      "properties": {
        "id": "12813237926",
        "name": "Klinik Pratama ITB",
        "role": "stop",
        "mode": "bus"
      }
    },
    {
      "type": "Feature",
      "geometry": {
        "type": "Point",
        "coordinates": [
          107.6086646,
          -6.8946314
        ]
      },
      "properties": {
        "id": "3376871366",
        "name": "Gelap Nyawang",
        "role": "stop",
        "mode": "bus"
      }
    },
    {
      "type": "Feature",
      "geometry": {
        "type": "Point",
        "coordinates": [
          107.610121,
          -6.8982089
        ]
      },
      "properties": {
        "id": "12628813995",
        "name": "Tamansari Cikapayang",
        "role": "stop",
        "mode": "bus"
      }
    },
    {
      "type": "Feature",
      "geometry": {
        "type": "Point",
        "coordinates": [
          107.6094627,
          -6.9004538
        ]
      },
      "properties": {
        "id": "v_107.609463_-6.900454",
        "name": "Jalan Sawunggaling",
        "role": "virtual",
        "mode": "bus"
      }
    },
    {
      "type": "Feature",
      "geometry": {
        "type": "Point",
        "coordinates": [
          107.6088443,
          -6.9027781
        ]
      },
      "properties": {
        "id": "v_107.608844_-6.902778",
        "name": "Jalan Harian Banga",
        "role": "virtual",
        "mode": "bus"
      }
    },
    {
      "type": "Feature",
      "geometry": {
        "type": "Point",
        "coordinates": [
          107.608047,
          -6.9049172
        ]
      },
      "properties": {
        "id": "v_107.608047_-6.904917",
        "name": "Jalan Taman Sari",
        "role": "virtual",
        "mode": "bus"
      }
    },
    {
      "type": "Feature",
      "geometry": {
        "type": "Point",
        "coordinates": [
          107.6096165,
          -6.9068537
        ]
      },
      "properties": {
        "id": "11739021634",
        "name": "Riau XL",
        "role": "stop",
        "mode": "bus"
      }
    },
    {
      "type": "Feature",
      "geometry": {
        "type": "Point",
        "coordinates": [
          107.6114489,
          -6.9070444
        ]
      },
      "properties": {
        "id": "12947493608",
        "name": "Rumah Sakit Sariningsih",
        "role": "stop",
        "mode": "bus"
      }
    },
    {
      "type": "Feature",
      "geometry": {
        "type": "Point",
        "coordinates": [
          107.6116695,
          -6.9070609
        ]
      },
      "properties": {
        "id": "12819940053",
        "name": "Riau Junction",
        "role": "stop",
        "mode": "bus"
      }
    },
    {
      "type": "Feature",
      "geometry": {
        "type": "Point",
        "coordinates": [
          107.6144094,
          -6.9064746
        ]
      },
      "properties": {
        "id": "12947493609",
        "name": "RSGM Kota Bandung",
        "role": "stop",
        "mode": "bus"
      }
    },
    {
      "type": "Feature",
      "geometry": {
        "type": "Point",
        "coordinates": [
          107.6167588,
          -6.9062016
        ]
      },
      "properties": {
        "id": "v_107.616759_-6.906202",
        "name": "Jalan L.L. RE. Martadinata",
        "role": "virtual",
        "mode": "bus"
      }
    },
    {
      "type": "Feature",
      "geometry": {
        "type": "Point",
        "coordinates": [
          107.617382,
          -6.9090114
        ]
      },
      "properties": {
        "id": "v_107.617382_-6.909011",
        "name": "Jalan Banda",
        "role": "virtual",
        "mode": "bus"
      }
    },
    {
      "type": "Feature",
      "geometry": {
        "type": "Point",
        "coordinates": [
          107.6176192,
          -6.9113281
        ]
      },
      "properties": {
        "id": "v_107.617619_-6.911328",
        "name": "Jalan Banda",
        "role": "virtual",
        "mode": "bus"
      }
    },
    {
      "type": "Feature",
      "geometry": {
        "type": "Point",
        "coordinates": [
          107.6150207,
          -6.9119682
        ]
      },
      "properties": {
        "id": "3374033495",
        "name": "SMAN 3 dan 5",
        "role": "stop",
        "mode": "bus"
      }
    },
    {
      "type": "Feature",
      "geometry": {
        "type": "Point",
        "coordinates": [
          107.6138205,
          -6.9124068
        ]
      },
      "properties": {
        "id": "12809521950",
        "name": "Taman Lalu Lintas",
        "role": "stop",
        "mode": "bus"
      }
    },
    {
      "type": "Feature",
      "geometry": {
        "type": "Point",
        "coordinates": [
          107.6139894,
          -6.9147065
        ]
      },
      "properties": {
        "id": "12887182816",
        "name": "SMP Negeri 2 Bandung",
        "role": "stop",
        "mode": "bus"
      }
    },
    {
      "type": "Feature",
      "geometry": {
        "type": "Point",
        "coordinates": [
          107.6132908,
          -6.9182518
        ]
      },
      "properties": {
        "id": "11735248678",
        "name": "RSU Bungsu",
        "role": "stop",
        "mode": "bus"
      }
    },
    {
      "type": "Feature",
      "geometry": {
        "type": "Point",
        "coordinates": [
          107.6157093,
          -6.9194533
        ]
      },
      "properties": {
        "id": "v_107.615709_-6.919453",
        "name": "Jalan Veteran",
        "role": "virtual",
        "mode": "bus"
      }
    },
    {
      "type": "Feature",
      "geometry": {
        "type": "Point",
        "coordinates": [
          107.619848,
          -6.921143
        ]
      },
      "properties": {
        "id": "11735248705",
        "name": "Ketapang",
        "role": "stop",
        "mode": "bus"
      }
    },
    {
      "type": "Feature",
      "geometry": {
        "type": "Point",
        "coordinates": [
          107.6221779,
          -6.9199012
        ]
      },
      "properties": {
        "id": "11735248679",
        "name": "Pasar Kosambi",
        "role": "stop",
        "mode": "bus"
      }
    },
    {
      "type": "Feature",
      "geometry": {
        "type": "Point",
        "coordinates": [
          107.6258605,
          -6.9179222
        ]
      },
      "properties": {
        "id": "11735248685",
        "name": "Segitiga Mas",
        "role": "stop",
        "mode": "bus"
      }
    },
    {
      "type": "Feature",
      "geometry": {
        "type": "Point",
        "coordinates": [
          107.6268373,
          -6.9174142
        ]
      },
      "properties": {
        "id": "11735248686",
        "name": "Jaya Plaza",
        "role": "stop",
        "mode": "bus"
      }
    },
    {
      "type": "Feature",
      "geometry": {
        "type": "Point",
        "coordinates": [
          107.6287225,
          -6.9164526
        ]
      },
      "properties": {
        "id": "11735248689",
        "name": "Dinas Pendidikan Kota Bandung",
        "role": "stop",
        "mode": "bus"
      }
    },
    {
      "type": "Feature",
      "geometry": {
        "type": "Point",
        "coordinates": [
          107.6310524,
          -6.9151724
        ]
      },
      "properties": {
        "id": "5391666887",
        "name": "Jalan Mangga",
        "role": "stop",
        "mode": "bus"
      }
    },
    {
      "type": "Feature",
      "geometry": {
        "type": "Point",
        "coordinates": [
          107.6332108,
          -6.9140574
        ]
      },
      "properties": {
        "id": "11735248691",
        "name": "Sekolah Agustinus",
        "role": "stop",
        "mode": "bus"
      }
    },
    {
      "type": "Feature",
      "geometry": {
        "type": "Point",
        "coordinates": [
          107.6345966,
          -6.9133253
        ]
      },
      "properties": {
        "id": "3375793690",
        "name": "A.Yani Supratman",
        "role": "stop",
        "mode": "bus"
      }
    },
    {
      "type": "Feature",
      "geometry": {
        "type": "Point",
        "coordinates": [
          107.637255,
          -6.9119025
        ]
      },
      "properties": {
        "id": "11735248693",
        "name": "Cikaso",
        "role": "stop",
        "mode": "bus"
      }
    },
    {
      "type": "Feature",
      "geometry": {
        "type": "Point",
        "coordinates": [
          107.6396001,
          -6.9106533
        ]
      },
      "properties": {
        "id": "11735248694",
        "name": "Awi Bitung",
        "role": "stop",
        "mode": "bus"
      }
    },
    {
      "type": "Feature",
      "geometry": {
        "type": "Point",
        "coordinates": [
          107.6416573,
          -6.9095608
        ]
      },
      "properties": {
        "id": "v_107.641657_-6.909561",
        "name": "Jalan Jenderal Ahmad Yani",
        "role": "virtual",
        "mode": "bus"
      }
    },
    {
      "type": "Feature",
      "geometry": {
        "type": "Point",
        "coordinates": [
          107.6437801,
          -6.9083798
        ]
      },
      "properties": {
        "id": "v_107.643780_-6.908380",
        "name": "Jalan Jenderal Ahmad Yani",
        "role": "virtual",
        "mode": "bus"
      }
    },
    {
      "type": "Feature",
      "geometry": {
        "type": "Point",
        "coordinates": [
          107.6458575,
          -6.9073247
        ]
      },
      "properties": {
        "id": "v_107.645858_-6.907325",
        "name": "Jalan Jenderal Ahmad Yani",
        "role": "virtual",
        "mode": "bus"
      }
    },
    {
      "type": "Feature",
      "geometry": {
        "type": "Point",
        "coordinates": [
          107.6478731,
          -6.9062675
        ]
      },
      "properties": {
        "id": "v_107.647873_-6.906268",
        "name": "Jalan Jenderal Ahmad Yani",
        "role": "virtual",
        "mode": "bus"
      }
    },
    {
      "type": "Feature",
      "geometry": {
        "type": "Point",
        "coordinates": [
          107.650154,
          -6.9050722
        ]
      },
      "properties": {
        "id": "11735248708",
        "name": "Cimuncang",
        "role": "stop",
        "mode": "bus"
      }
    },
    {
      "type": "Feature",
      "geometry": {
        "type": "Point",
        "coordinates": [
          107.6522601,
          -6.9039596
        ]
      },
      "properties": {
        "id": "v_107.652260_-6.903960",
        "name": "Jalan Jenderal Ahmad Yani",
        "role": "virtual",
        "mode": "bus"
      }
    },
    {
      "type": "Feature",
      "geometry": {
        "type": "Point",
        "coordinates": [
          107.6567969,
          -6.9021302
        ]
      },
      "properties": {
        "id": "5832221935",
        "name": "Seberang Terminal Cicaheum",
        "role": "stop",
        "mode": "bus"
      }
    },
    {
      "type": "Feature",
      "geometry": {
        "type": "Point",
        "coordinates": [
          107.6593864,
          -6.9022105
        ]
      },
      "properties": {
        "id": "v_107.659386_-6.902210",
        "name": "Jalan Abdul Haris Nasution",
        "role": "virtual",
        "mode": "bus"
      }
    },
    {
      "type": "Feature",
      "geometry": {
        "type": "Point",
        "coordinates": [
          107.6613446,
          -6.9034118
        ]
      },
      "properties": {
        "id": "v_107.661345_-6.903412",
        "name": "Jalan Abdul Haris Nasution",
        "role": "virtual",
        "mode": "bus"
      }
    },
    {
      "type": "Feature",
      "geometry": {
        "type": "Point",
        "coordinates": [
          107.6656526,
          -6.9040466
        ]
      },
      "properties": {
        "id": "12806309242",
        "name": "SDN Cikadut",
        "role": "stop",
        "mode": "bus"
      }
    },
    {
      "type": "Feature",
      "geometry": {
        "type": "Point",
        "coordinates": [
          107.6679175,
          -6.9042041
        ]
      },
      "properties": {
        "id": "v_107.667918_-6.904204",
        "name": "Jalan Abdul Haris Nasution",
        "role": "virtual",
        "mode": "bus"
      }
    },
    {
      "type": "Feature",
      "geometry": {
        "type": "Point",
        "coordinates": [
          107.6718533,
          -6.9044513
        ]
      },
      "properties": {
        "id": "12806309246",
        "name": "Gang H.M. Syarief",
        "role": "stop",
        "mode": "bus"
      }
    },
    {
      "type": "Feature",
      "geometry": {
        "type": "Point",
        "coordinates": [
          107.6759315,
          -6.904729
        ]
      },
      "properties": {
        "id": "12806309248",
        "name": "Borma Pasirimpun",
        "role": "stop",
        "mode": "bus"
      }
    },
    {
      "type": "Feature",
      "geometry": {
        "type": "Point",
        "coordinates": [
          107.6782995,
          -6.9048547
        ]
      },
      "properties": {
        "id": "v_107.678299_-6.904855",
        "name": "Jalan Abdul Haris Nasution",
        "role": "virtual",
        "mode": "bus"
      }
    },
    {
      "type": "Feature",
      "geometry": {
        "type": "Point",
        "coordinates": [
          107.6809974,
          -6.9052105
        ]
      },
      "properties": {
        "id": "v_107.680997_-6.905210",
        "name": "Jalan Abdul Haris Nasution",
        "role": "virtual",
        "mode": "bus"
      }
    },
    {
      "type": "Feature",
      "geometry": {
        "type": "Point",
        "coordinates": [
          107.6833223,
          -6.9060645
        ]
      },
      "properties": {
        "id": "v_107.683322_-6.906065",
        "name": "Jalan Abdul Haris Nasution",
        "role": "virtual",
        "mode": "bus"
      }
    },
    {
      "type": "Feature",
      "geometry": {
        "type": "Point",
        "coordinates": [
          107.6840757,
          -6.9099636
        ]
      },
      "properties": {
        "id": "12814754624",
        "name": "Yuntex Raya",
        "role": "stop",
        "mode": "bus"
      }
    },
    {
      "type": "Feature",
      "geometry": {
        "type": "Point",
        "coordinates": [
          107.6832381,
          -6.9121122
        ]
      },
      "properties": {
        "id": "v_107.683238_-6.912112",
        "name": "Jalan Cicukang",
        "role": "virtual",
        "mode": "bus"
      }
    },
    {
      "type": "Feature",
      "geometry": {
        "type": "Point",
        "coordinates": [
          107.6840501,
          -6.9142445
        ]
      },
      "properties": {
        "id": "v_107.684050_-6.914244",
        "name": "Jalan Cicukang",
        "role": "virtual",
        "mode": "bus"
      }
    },
    {
      "type": "Feature",
      "geometry": {
        "type": "Point",
        "coordinates": [
          107.685054,
          -6.9162749
        ]
      },
      "properties": {
        "id": "v_107.685054_-6.916275",
        "name": "Jalan terdekat",
        "role": "virtual",
        "mode": "bus"
      }
    },
    {
      "type": "Feature",
      "geometry": {
        "type": "Point",
        "coordinates": [
          107.6848801,
          -6.918656
        ]
      },
      "properties": {
        "id": "v_107.684880_-6.918656",
        "name": "Jalan terdekat",
        "role": "virtual",
        "mode": "bus"
      }
    },
    {
      "type": "Feature",
      "geometry": {
        "type": "Point",
        "coordinates": [
          107.6839378,
          -6.922592
        ]
      },
      "properties": {
        "id": "12814754639",
        "name": "K.H. Djunaedi",
        "role": "stop",
        "mode": "bus"
      }
    },
    {
      "type": "Feature",
      "geometry": {
        "type": "Point",
        "coordinates": [
          107.6835707,
          -6.9237417
        ]
      },
      "properties": {
        "id": "3251007192",
        "name": "Pangkalan Angkot Panghegar",
        "role": "stop_exit_only",
        "mode": "bus"
      }
    }
  ]
}