{
  "type": "FeatureCollection",
  "features": [
    {
      "type": "Feature",
      "geometry": {
        "type": "Point",
        "coordinates": [
          107.6180361,
          -6.8934568
        ]
      },
      "properties": {
        "id": "3375793673",
        "name": "UNPAD Dipatiukur",
        "role": "stop_entry_only",
        "mode": "bus"
      }
    },
    {
      "type": "Feature",
      "geometry": {
        "type": "Point",
        "coordinates": [
          107.6134343,
          -6.8948263
        ]
      },
      "properties": {
        "id": "11104718106",
        "name": "Rumah Sakit Santo Borromeus B",
        "role": "stop",
        "mode": "bus"
      }
    },
    {
      "type": "Feature",
      "geometry": {
        "type": "Point",
        "coordinates": [
          107.6129302,
          -6.8944643
        ]
      },
      "properties": {
        "id": "11104669204",
        "name": "Rumah Sakit Santo Borromeus A",
        "role": "stop",
        "mode": "bus"
      }
    },
    {
      "type": "Feature",
      "geometry": {
        "type": "Point",
        "coordinates": [
          107.611316,
          -6.8933595
        ]
      },
      "properties": {
        "id": "12813237923",
        "name": "Masjid Salman",
        "role": "stop",
        "mode": "bus"
      }
    },
    {
      "type": "Feature",
      "geometry": {
        "type": "Point",
        "coordinates": [
          107.6095668,
          -6.8933482
        ]
      },
      "properties": {
        "id": "12813237926",
        "name": "Klinik Pratama ITB",
        "role": "stop",
        "mode": "bus"
      }
    },
    {
      "type": "Feature",
      "geometry": {
        "type": "Point",
        "coordinates": [
          107.6086646,
          -6.8946314
        ]
      },
      "properties": {
        "id": "3376871366",
        "name": "Gelap Nyawang",
        "role": "stop",
        "mode": "bus"
      }
    },
    {
      "type": "Feature",
      "geometry": {
        "type": "Point",
        "coordinates": [
          107.610121,
          -6.8982089
        ]
      },
      "properties": {
        "id": "12628813995",
        "name": "Tamansari Cikapayang",
        "role": "stop",
        "mode": "bus"
      }
    },
    {
      "type": "Feature",
      "geometry": {
        "type": "Point",
        "coordinates": [
          107.6097892,
          -6.9015071
        ]
      },
      "properties": {
        "id": "v_107.609789_-6.901507",
        "name": "Jalan Sawunggaling",
        "role": "virtual",
        "mode": "bus"
      }
    },
    {
      "type": "Feature",
      "geometry": {
        "type": "Point",
        "coordinates": [
          107.60825,
          -6.9039031
        ]
      },
      "properties": {
        "id": "v_107.608250_-6.903903",
        "name": "Jalan Taman Sari",
        "role": "virtual",
        "mode": "bus"
      }
    },
    {
      "type": "Feature",
      "geometry": {
        "type": "Point",
        "coordinates": [
          107.6096165,
          -6.9068537
        ]
      },
      "properties": {
        "id": "11739021634",
        "name": "Riau XL",
        "role": "stop",
        "mode": "bus"
      }
    },
    {
      "type": "Feature",
      "geometry": {
        "type": "Point",
        "coordinates": [
          107.6114489,
          -6.9070444
        ]
      },
      "properties": {
        "id": "12947493608",
        "name": "Rumah Sakit Sariningsih",
        "role": "stop",
        "mode": "bus"
      }
    },
    {
      "type": "Feature",
      "geometry": {
        "type": "Point",
        "coordinates": [
          107.6116695,
          -6.9070609
        ]
      },
      "properties": {
        "id": "12819940053",
        "name": "Riau Junction",
        "role": "stop",
        "mode": "bus"
      }
    },
    {
      "type": "Feature",
      "geometry": {
        "type": "Point",
        "coordinates": [
          107.6144094,
          -6.9064746
        ]
      },
      "properties": {
        "id": "12947493609",
        "name": "RSGM Kota Bandung",
        "role": "stop",
        "mode": "bus"
      }
    },
    {
      "type": "Feature",
      "geometry": {
        "type": "Point",
        "coordinates": [
          107.6170441,
          -6.9074272
        ]
      },
      "properties": {
        "id": "v_107.617044_-6.907427",
        "name": "Jalan Banda",
        "role": "virtual",
        "mode": "bus"
      }
    },
    {
      "type": "Feature",
      "geometry": {
        "type": "Point",
        "coordinates": [
          107.6176084,
          -6.9105947
        ]
      },
      "properties": {
        "id": "v_107.617608_-6.910595",
        "name": "Jalan Banda",
        "role": "virtual",
        "mode": "bus"
      }
    },
    {
      "type": "Feature",
      "geometry": {
        "type": "Point",
        "coordinates": [
          107.6150207,
          -6.9119682
        ]
      },
      "properties": {
        "id": "3374033495",
        "name": "SMAN 3 dan 5",
        "role": "stop",
        "mode": "bus"
      }
    },
    {
      "type": "Feature",
      "geometry": {
        "type": "Point",
        "coordinates": [
          107.6138205,
          -6.9124068
        ]
      },
      "properties": {
        "id": "12809521950",
        "name": "Taman Lalu Lintas",
        "role": "stop",
        "mode": "bus"
      }
    },
    {
      "type": "Feature",
      "geometry": {
        "type": "Point",
        "coordinates": [
          107.6139894,
          -6.9147065
        ]
      },
      "properties": {
        "id": "12887182816",
        "name": "SMP Negeri 2 Bandung",
        "role": "stop",
        "mode": "bus"
      }
    },
    {
      "type": "Feature",
      "geometry": {
        "type": "Point",
        "coordinates": [
          107.6132908,
          -6.9182518
        ]
      },
      "properties": {
        "id": "11735248678",
        "name": "RSU Bungsu",
        "role": "stop",
        "mode": "bus"
      }
    },
    {
      "type": "Feature",
      "geometry": {
        "type": "Point",
        "coordinates": [
          107.6166001,
          -6.9198441
        ]
      },
      "properties": {
        "id": "v_107.616600_-6.919844",
        "name": "Jalan Veteran",
        "role": "virtual",
        "mode": "bus"
      }
    },
    {
      "type": "Feature",
      "geometry": {
        "type": "Point",
        "coordinates": [
          107.619848,
          -6.921143
        ]
      },
      "properties": {
        "id": "11735248705",
        "name": "Ketapang",
        "role": "stop",
        "mode": "bus"
      }
    },
    {
      "type": "Feature",
      "geometry": {
        "type": "Point",
        "coordinates": [
          107.6221779,
          -6.9199012
        ]
      },
      "properties": {
        "id": "11735248679",
        "name": "Pasar Kosambi",
        "role": "stop",
        "mode": "bus"
      }
    },
    {
      "type": "Feature",
      "geometry": {
        "type": "Point",
        "coordinates": [
          107.6258605,
          -6.9179222
        ]
      },
      "properties": {
        "id": "11735248685",
        "name": "Segitiga Mas",
        "role": "stop",
        "mode": "bus"
      }
    },
    {
      "type": "Feature",
      "geometry": {
        "type": "Point",
        "coordinates": [
          107.6268373,
          -6.9174142
        ]
      },
      "properties": {
        "id": "11735248686",
        "name": "Jaya Plaza",
        "role": "stop",
        "mode": "bus"
      }
    },
    {
      "type": "Feature",
      "geometry": {
        "type": "Point",
        "coordinates": [
          107.6287225,
          -6.9164526
        ]
      },
      "properties": {
        "id": "11735248689",
        "name": "Dinas Pendidikan Kota Bandung",
        "role": "stop",
        "mode": "bus"
      }
    },
    {
      "type": "Feature",
      "geometry": {
        "type": "Point",
        "coordinates": [
          107.6310524,
          -6.9151724
        ]
      },
      "properties": {
        "id": "5391666887",
        "name": "Jalan Mangga",
        "role": "stop",
        "mode": "bus"
      }
    },
    {
      "type": "Feature",
      "geometry": {
        "type": "Point",
        "coordinates": [
          107.6332108,
          -6.9140574
        ]
      },
      "properties": {
        "id": "11735248691",
        "name": "Sekolah Agustinus",
        "role": "stop",
        "mode": "bus"
      }
    },
    {
      "type": "Feature",
      "geometry": {
        "type": "Point",
        "coordinates": [
          107.6345966,
          -6.9133253
        ]
      },
      "properties": {
        "id": "3375793690",
        "name": "A.Yani Supratman",
        "role": "stop",
        "mode": "bus"
      }
    },
    {
      "type": "Feature",
      "geometry": {
        "type": "Point",
        "coordinates": [
          107.637255,
          -6.9119025
        ]
      },
      "properties": {
        "id": "11735248693",
        "name": "Cikaso",
        "role": "stop",
        "mode": "bus"
      }
    },
    {
      "type": "Feature",
      "geometry": {
        "type": "Point",
        "coordinates": [
          107.6396001,
          -6.9106533
        ]
      },
      "properties": {
        "id": "11735248694",
        "name": "Awi Bitung",
        "role": "stop",
        "mode": "bus"
      }
    },
    {
      "type": "Feature",
      "geometry": {
        "type": "Point",
        "coordinates": [
          107.6419984,
          -6.9093371
        ]
      },
      "properties": {
        "id": "v_107.641998_-6.909337",
        "name": "Jalan Jenderal Ahmad Yani",
        "role": "virtual",
        "mode": "bus"
      }
    },
    {
      "type": "Feature",
      "geometry": {
        "type": "Point",
        "coordinates": [
          107.6444024,
          -6.9080623
        ]
      },
      "properties": {
        "id": "v_107.644402_-6.908062",
        "name": "Jalan Jenderal Ahmad Yani",
        "role": "virtual",
        "mode": "bus"
      }
    },
    {
      "type": "Feature",
      "geometry": {
        "type": "Point",
        "coordinates": [
          107.6469168,
          -6.9067662
        ]
      },
      "properties": {
        "id": "v_107.646917_-6.906766",
        "name": "Jalan Jenderal Ahmad Yani",
        "role": "virtual",
        "mode": "bus"
      }
    },
    {
      "type": "Feature",
      "geometry": {
        "type": "Point",
        "coordinates": [
          107.650154,
          -6.9050722
        ]
      },
      "properties": {
        "id": "11735248708",
        "name": "Cimuncang",
        "role": "stop",
        "mode": "bus"
      }
    },
    {
      "type": "Feature",
      "geometry": {
        "type": "Point",
        "coordinates": [
          107.6532521,
          -6.903436
        ]
      },
      "properties": {
        "id": "v_107.653252_-6.903436",
        "name": "Jalan Jenderal Ahmad Yani",
        "role": "virtual",
        "mode": "bus"
      }
    },
    {
      "type": "Feature",
      "geometry": {
        "type": "Point",
        "coordinates": [
          107.6567969,
          -6.9021302
        ]
      },
      "properties": {
        "id": "5832221935",
        "name": "Seberang Terminal Cicaheum",
        "role": "stop",
        "mode": "bus"
      }
    },
    {
      "type": "Feature",
      "geometry": {
        "type": "Point",
        "coordinates": [
          107.6595339,
          -6.9022128
        ]
      },
      "properties": {
        "id": "v_107.659534_-6.902213",
        "name": "Jalan Abdul Haris Nasution",
        "role": "virtual",
        "mode": "bus"
      }
    },
    {
      "type": "Feature",
      "geometry": {
        "type": "Point",
        "coordinates": [
          107.6623517,
          -6.9036867
        ]
      },
      "properties": {
        "id": "v_107.662352_-6.903687",
        "name": "Jalan Abdul Haris Nasution",
        "role": "virtual",
        "mode": "bus"
      }
    },
    {
      "type": "Feature",
      "geometry": {
        "type": "Point",
        "coordinates": [
          107.6656526,
          -6.9040466
        ]
      },
      "properties": {
        "id": "12806309242",
        "name": "SDN Cikadut",
        "role": "stop",
        "mode": "bus"
      }
    },
    {
      "type": "Feature",
      "geometry": {
        "type": "Point",
        "coordinates": [
          107.6718533,
          -6.9044513
        ]
      },
      "properties": {
        "id": "12806309246",
        "name": "Gang H.M. Syarief",
        "role": "stop",
        "mode": "bus"
      }
    },
    {
      "type": "Feature",
      "geometry": {
        "type": "Point",
        "coordinates": [
          107.6759315,
          -6.904729
        ]
      },
      "properties": {
        "id": "12806309248",
        "name": "Borma Pasirimpun",
        "role": "stop",
        "mode": "bus"
      }
    },
    {
      "type": "Feature",
      "geometry": {
        "type": "Point",
        "coordinates": [
          107.6786894,
          -6.904896
        ]
      },
      "properties": {
        "id": "v_107.678689_-6.904896",
        "name": "Jalan Abdul Haris Nasution",
        "role": "virtual",
        "mode": "bus"
      }
    },
    {
      "type": "Feature",
      "geometry": {
        "type": "Point",
        "coordinates": [
          107.6815606,
          -6.9053016
        ]
      },
      "properties": {
        "id": "v_107.681561_-6.905302",
        "name": "Jalan Abdul Haris Nasution",
        "role": "virtual",
        "mode": "bus"
      }
    },
    {
      "type": "Feature",
      "geometry": {
        "type": "Point",
        "coordinates": [
          107.684105,
          -6.9064076
        ]
      },
      "properties": {
        "id": "v_107.684105_-6.906408",
        "name": "Jalan Abdul Haris Nasution",
        "role": "virtual",
        "mode": "bus"
      }
    },
    {
      "type": "Feature",
      "geometry": {
        "type": "Point",
        "coordinates": [
          107.6840757,
          -6.9099636
        ]
      },
      "properties": {
        "id": "12814754624",
        "name": "Yuntex Raya",
        "role": "stop",
        "mode": "bus"
      }
    },
    {
      "type": "Feature",
      "geometry": {
        "type": "Point",
        "coordinates": [
          107.683082,
          -6.9128432
        ]
      },
      "properties": {
        "id": "v_107.683082_-6.912843",
        "name": "Jalan Cicukang",
        "role": "virtual",
        "mode": "bus"
      }
    },
    {
      "type": "Feature",
      "geometry": {
        "type": "Point",
        "coordinates": [
          107.6846777,
          -6.9156246
        ]
      },
      "properties": {
        "id": "v_107.684678_-6.915625",
        "name": "Jalan terdekat",
        "role": "virtual",
        "mode": "bus"
      }
    },
    {
      "type": "Feature",
      "geometry": {
        "type": "Point",
        "coordinates": [
          107.6849004,
          -6.9185044
        ]
      },
      "properties": {
        "id": "v_107.684900_-6.918504",
        "name": "Jalan terdekat",
        "role": "virtual",
        "mode": "bus"
      }
    },
    {
      "type": "Feature",
      "geometry": {
        "type": "Point",
        "coordinates": [
          107.6839378,
          -6.922592
        ]
      },
      "properties": {
        "id": "12814754639",
        "name": "K.H. Djunaedi",
        "role": "stop",
        "mode": "bus"
      }
    },
    {
      "type": "Feature",
      "geometry": {
        "type": "Point",
        "coordinates": [
          107.6835707,
          -6.9237417
        ]
      },
      "properties": {
        "id": "3251007192",
        "name": "Pangkalan Angkot Panghegar",
        "role": "stop_exit_only",
        "mode": "bus"
      }
    }
  ]
}