{
  "type": "FeatureCollection",
  "features": [
    {
      "type": "Feature",
      "geometry": {
        "type": "Point",
        "coordinates": [
          107.5753653,
          -6.9129722
        ]
      },
      "properties": {
        "id": "11711326972",
        "name": "Plaza Telkom Rajawali",
        "role": "stop_entry_only",
        "mode": "bus"
      }
    },
    {
      "type": "Feature",
      "geometry": {
        "type": "Point",
        "coordinates": [
          107.5781901,
          -6.9137773
        ]
      },
      "properties": {
        "id": "11735239264",
        "name": "Rajawali 1",
        "role": "stop",
        "mode": "bus"
      }
    },
    {
      "type": "Feature",
      "geometry": {
        "type": "Point",
        "coordinates": [
          107.5828928,
          -6.9149105
        ]
      },
      "properties": {
        "id": "11735239266",
        "name": "Dunguscariang",
        "role": "stop",
        "mode": "bus"
      }
    },
    {
      "type": "Feature",
      "geometry": {
        "type": "Point",
        "coordinates": [
          107.5853751,
          -6.9157549
        ]
      },
      "properties": {
        "id": "1911635044",
        "name": "Yayasan LPPN",
        "role": "stop",
        "mode": "bus"
      }
    },
    {
      "type": "Feature",
      "geometry": {
        "type": "Point",
        "coordinates": [
          107.5884105,
          -6.9162695
        ]
      },
      "properties": {
        "id": "v_107.588410_-6.916270",
        "name": "Jalan Rajawali Timur",
        "role": "virtual",
        "mode": "bus"
      }
    },
    {
      "type": "Feature",
      "geometry": {
        "type": "Point",
        "coordinates": [
          107.5917121,
          -6.9165436
        ]
      },
      "properties": {
        "id": "11735239268",
        "name": "SMA Trinitas",
        "role": "stop_entry_only",
        "mode": "bus"
      }
    },
    {
      "type": "Feature",
      "geometry": {
        "type": "Point",
        "coordinates": [
          107.5966005,
          -6.9163694
        ]
      },
      "properties": {
        "id": "11735248671",
        "name": "Rumah Sakit Kebon Jati",
        "role": "stop",
        "mode": "bus"
      }
    },
    {
      "type": "Feature",
      "geometry": {
        "type": "Point",
        "coordinates": [
          107.5982807,
          -6.9186924
        ]
      },
      "properties": {
        "id": "v_107.598281_-6.918692",
        "name": "Jalan Gardujati",
        "role": "virtual",
        "mode": "bus"
      }
    },
    {
      "type": "Feature",
      "geometry": {
        "type": "Point",
        "coordinates": [
          107.5984717,
          -6.9214196
        ]
      },
      "properties": {
        "id": "v_107.598472_-6.921420",
        "name": "Jalan Astana Anyar",
        "role": "virtual",
        "mode": "bus"
      }
    },
    {
      "type": "Feature",
      "geometry": {
        "type": "Point",
        "coordinates": [
          107.5989872,
          -6.9243261
        ]
      },
      "properties": {
        "id": "v_107.598987_-6.924326",
        "name": "Jalan Astana Anyar",
        "role": "virtual",
        "mode": "bus"
      }
    },
    {
      "type": "Feature",
      "geometry": {
        "type": "Point",
        "coordinates": [
          107.5999192,
          -6.9268738
        ]
      },
      "properties": {
        "id": "v_107.599919_-6.926874",
        "name": "Jalan Astana Anyar",
        "role": "virtual",
        "mode": "bus"
      }
    },
    {
      "type": "Feature",
      "geometry": {
        "type": "Point",
        "coordinates": [
          107.6007351,
          -6.9295707
        ]
      },
      "properties": {
        "id": "v_107.600735_-6.929571",
        "name": "Jalan Astana Anyar",
        "role": "virtual",
        "mode": "bus"
      }
    },
    {
      "type": "Feature",
      "geometry": {
        "type": "Point",
        "coordinates": [
          107.5973451,
          -6.9298621
        ]
      },
      "properties": {
        "id": "v_107.597345_-6.929862",
        "name": "Jalan Panjunan",
        "role": "virtual",
        "mode": "bus"
      }
    },
    {
      "type": "Feature",
      "geometry": {
        "type": "Point",
        "coordinates": [
          107.5965357,
          -6.9324963
        ]
      },
      "properties": {
        "id": "v_107.596536_-6.932496",
        "name": "Jalan Kyai Haji Wahid Hasyim",
        "role": "virtual",
        "mode": "bus"
      }
    },
    {
      "type": "Feature",
      "geometry": {
        "type": "Point",
        "coordinates": [
          107.5957871,
          -6.9351264
        ]
      },
      "properties": {
        "id": "12806717333",
        "name": "RS Imanuel Pintu Kopo",
        "role": "stop",
        "mode": "bus"
      }
    },
    {
      "type": "Feature",
      "geometry": {
        "type": "Point",
        "coordinates": [
          107.5956524,
          -6.9372267
        ]
      },
      "properties": {
        "id": "11739021652",
        "name": "Rumah Sakit Immanuel A",
        "role": "stop",
        "mode": "bus"
      }
    },
    {
      "type": "Feature",
      "geometry": {
        "type": "Point",
        "coordinates": [
          107.5984843,
          -6.937651
        ]
      },
      "properties": {
        "id": "v_107.598484_-6.937651",
        "name": "Jalan Peta",
        "role": "virtual",
        "mode": "bus"
      }
    },
    {
      "type": "Feature",
      "geometry": {
        "type": "Point",
        "coordinates": [
          107.6020331,
          -6.9371534
        ]
      },
      "properties": {
        "id": "12628930762",
        "name": "Muara A",
        "role": "stop",
        "mode": "bus"
      }
    },
    {
      "type": "Feature",
      "geometry": {
        "type": "Point",
        "coordinates": [
          107.6037009,
          -6.9373001
        ]
      },
      "properties": {
        "id": "12806765746",
        "name": "Taman Tegalega/Sri Baduga",
        "role": "stop",
        "mode": "bus"
      }
    },
    {
      "type": "Feature",
      "geometry": {
        "type": "Point",
        "coordinates": [
          107.6067624,
          -6.9375463
        ]
      },
      "properties": {
        "id": "11707031601",
        "name": "PT INTI B (BKR 5)",
        "role": "stop",
        "mode": "bus"
      }
    },
    {
      "type": "Feature",
      "geometry": {
        "type": "Point",
        "coordinates": [
          107.6083051,
          -6.9375959
        ]
      },
      "properties": {
        "id": "3445680780",
        "name": "Samsudin",
        "role": "stop",
        "mode": "bus"
      }
    },
    {
      "type": "Feature",
      "geometry": {
        "type": "Point",
        "coordinates": [
          107.611406,
          -6.9359826
        ]
      },
      "properties": {
        "id": "v_107.611406_-6.935983",
        "name": "Jalan Mochammad Ramdhan",
        "role": "virtual",
        "mode": "bus"
      }
    },
    {
      "type": "Feature",
      "geometry": {
        "type": "Point",
        "coordinates": [
          107.6138283,
          -6.9337409
        ]
      },
      "properties": {
        "id": "v_107.613828_-6.933741",
        "name": "Jalan Mochammad Ramdhan",
        "role": "virtual",
        "mode": "bus"
      }
    },
    {
      "type": "Feature",
      "geometry": {
        "type": "Point",
        "coordinates": [
          107.6158192,
          -6.9311439
        ]
      },
      "properties": {
        "id": "12806120217",
        "name": "Unla",
        "role": "stop",
        "mode": "bus"
      }
    },
    {
      "type": "Feature",
      "geometry": {
        "type": "Point",
        "coordinates": [
          107.6164624,
          -6.9302033
        ]
      },
      "properties": {
        "id": "3375103664",
        "name": "Lauk Emas",
        "role": "stop",
        "mode": "bus"
      }
    },
    {
      "type": "Feature",
      "geometry": {
        "type": "Point",
        "coordinates": [
          107.6183599,
          -6.9316133
        ]
      },
      "properties": {
        "id": "3376282080",
        "name": "Banteng Sadakeling",
        "role": "stop",
        "mode": "bus"
      }
    },
    {
      "type": "Feature",
      "geometry": {
        "type": "Point",
        "coordinates": [
          107.619075,
          -6.931384
        ]
      },
      "properties": {
        "id": "1982390333",
        "name": "SMK Medina",
        "role": "stop",
        "mode": "bus"
      }
    },
    {
      "type": "Feature",
      "geometry": {
        "type": "Point",
        "coordinates": [
          107.6203316,
          -6.9317067
        ]
      },
      "properties": {
        "id": "2250581874",
        "name": "GOR Lodaya",
        "role": "stop",
        "mode": "bus"
      }
    },
    {
      "type": "Feature",
      "geometry": {
        "type": "Point",
        "coordinates": [
          107.6221815,
          -6.9318636
        ]
      },
      "properties": {
        "id": "12806537958",
        "name": "Yayasan Kemala Bhayangkari",
        "role": "stop",
        "mode": "bus"
      }
    },
    {
      "type": "Feature",
      "geometry": {
        "type": "Point",
        "coordinates": [
          107.6230578,
          -6.928673
        ]
      },
      "properties": {
        "id": "v_107.623058_-6.928673",
        "name": "Jalan Palasari",
        "role": "virtual",
        "mode": "bus"
      }
    },
    {
      "type": "Feature",
      "geometry": {
        "type": "Point",
        "coordinates": [
          107.623714,
          -6.925252
        ]
      },
      "properties": {
        "id": "v_107.623714_-6.925252",
        "name": "Jalan Malabar",
        "role": "virtual",
        "mode": "bus"
      }
    },
    {
      "type": "Feature",
      "geometry": {
        "type": "Point",
        "coordinates": [
          107.6268157,
          -6.924329
        ]
      },
      "properties": {
        "id": "12806717340",
        "name": "Aneka Jeans",
        "role": "stop",
        "mode": "bus"
      }
    },
    {
      "type": "Feature",
      "geometry": {
        "type": "Point",
        "coordinates": [
          107.6279241,
          -6.9236669
        ]
      },
      "properties": {
        "id": "12806717344",
        "name": "SPBU Laswi",
        "role": "stop",
        "mode": "bus"
      }
    },
    {
      "type": "Feature",
      "geometry": {
        "type": "Point",
        "coordinates": [
          107.630294,
          -6.9221533
        ]
      },
      "properties": {
        "id": "v_107.630294_-6.922153",
        "name": "Jalan Laswi",
        "role": "virtual",
        "mode": "bus"
      }
    },
    {
      "type": "Feature",
      "geometry": {
        "type": "Point",
        "coordinates": [
          107.6312506,
          -6.9184177
        ]
      },
      "properties": {
        "id": "11707030859",
        "name": "Bandung Creative Hub B",
        "role": "stop",
        "mode": "bus"
      }
    },
    {
      "type": "Feature",
      "geometry": {
        "type": "Point",
        "coordinates": [
          107.6292904,
          -6.9161976
        ]
      },
      "properties": {
        "id": "11735248690",
        "name": "Stadion Persib Sidolig",
        "role": "stop",
        "mode": "bus"
      }
    },
    {
      "type": "Feature",
      "geometry": {
        "type": "Point",
        "coordinates": [
          107.6258024,
          -6.9189956
        ]
      },
      "properties": {
        "id": "12637510528",
        "name": "Stasiun Cikudapateuh",
        "role": "stop_exit_only",
        "mode": "bus"
      }
    }
  ]
}