{
  "type": "FeatureCollection",
  "features": [
    {
      "type": "Feature",
      "geometry": {
        "type": "Point",
        "coordinates": [
          107.5753653,
          -6.9129722
        ]
      },
      "properties": {
        "id": "11711326972",
        "name": "Plaza Telkom Rajawali",
        "role": "stop_entry_only",
        "isReal": true,
        "mode": "bus"
      }
    },
    {
      "type": "Feature",
      "geometry": {
        "type": "Point",
        "coordinates": [
          107.5781901,
          -6.9137773
        ]
      },
      "properties": {
        "id": "11735239264",
        "name": "Rajawali 1",
        "role": "stop",
        "isReal": true,
        "mode": "bus"
      }
    },
    {
      "type": "Feature",
      "geometry": {
        "type": "Point",
        "coordinates": [
          107.57975,
          -6.9141241
        ]
      },
      "properties": {
        "id": "virtual_107.5798_-6.9141",
        "name": "Jalan Rajawali Timur",
        "role": "virtual",
        "isReal": false,
        "mode": "bus"
      }
    },
    {
      "type": "Feature",
      "geometry": {
        "type": "Point",
        "coordinates": [
          107.5813503,
          -6.9144835
        ]
      },
      "properties": {
        "id": "virtual_107.5814_-6.9145",
        "name": "Jalan Rajawali Timur",
        "role": "virtual",
        "isReal": false,
        "mode": "bus"
      }
    },
    {
      "type": "Feature",
      "geometry": {
        "type": "Point",
        "coordinates": [
          107.5828928,
          -6.9149105
        ]
      },
      "properties": {
        "id": "11735239266",
        "name": "Dunguscariang",
        "role": "stop",
        "isReal": true,
        "mode": "bus"
      }
    },
    {
      "type": "Feature",
      "geometry": {
        "type": "Point",
        "coordinates": [
          107.5853751,
          -6.9157549
        ]
      },
      "properties": {
        "id": "1911635044",
        "name": "Yayasan LPPN",
        "role": "stop",
        "isReal": true,
        "mode": "bus"
      }
    },
    {
      "type": "Feature",
      "geometry": {
        "type": "Point",
        "coordinates": [
          107.5871346,
          -6.9161385
        ]
      },
      "properties": {
        "id": "virtual_107.5871_-6.9161",
        "name": "Jalan Rajawali Timur",
        "role": "virtual",
        "isReal": false,
        "mode": "bus"
      }
    },
    {
      "type": "Feature",
      "geometry": {
        "type": "Point",
        "coordinates": [
          107.5895623,
          -6.9164063
        ]
      },
      "properties": {
        "id": "virtual_107.5896_-6.9164",
        "name": "Jalan Rajawali Timur",
        "role": "virtual",
        "isReal": false,
        "mode": "bus"
      }
    },
    {
      "type": "Feature",
      "geometry": {
        "type": "Point",
        "coordinates": [
          107.5917121,
          -6.9165436
        ]
      },
      "properties": {
        "id": "11735239268",
        "name": "SMA Trinitas",
        "role": "stop_entry_only",
        "isReal": true,
        "mode": "bus"
      }
    },
    {
      "type": "Feature",
      "geometry": {
        "type": "Point",
        "coordinates": [
          107.59315386666667,
          -6.916511266666666
        ]
      },
      "properties": {
        "id": "virtual_107.5932_-6.9165",
        "name": "Jalan terdekat",
        "role": "virtual",
        "isReal": false,
        "mode": "bus"
      }
    },
    {
      "type": "Feature",
      "geometry": {
        "type": "Point",
        "coordinates": [
          107.5966005,
          -6.9163694
        ]
      },
      "properties": {
        "id": "11735248671",
        "name": "Rumah Sakit Kebon Jati",
        "role": "stop",
        "isReal": true,
        "mode": "bus"
      }
    },
    {
      "type": "Feature",
      "geometry": {
        "type": "Point",
        "coordinates": [
          107.5982915,
          -6.9178883
        ]
      },
      "properties": {
        "id": "virtual_107.5983_-6.9179",
        "name": "Jalan Gardujati",
        "role": "virtual",
        "isReal": false,
        "mode": "bus"
      }
    },
    {
      "type": "Feature",
      "geometry": {
        "type": "Point",
        "coordinates": [
          107.5983508,
          -6.9202439
        ]
      },
      "properties": {
        "id": "virtual_107.5984_-6.9202",
        "name": "Jalan Astana Anyar",
        "role": "virtual",
        "isReal": false,
        "mode": "bus"
      }
    },
    {
      "type": "Feature",
      "geometry": {
        "type": "Point",
        "coordinates": [
          107.598583,
          -6.9226401
        ]
      },
      "properties": {
        "id": "virtual_107.5986_-6.9226",
        "name": "Jalan Astana Anyar",
        "role": "virtual",
        "isReal": false,
        "mode": "bus"
      }
    },
    {
      "type": "Feature",
      "geometry": {
        "type": "Point",
        "coordinates": [
          107.5990381,
          -6.9244659
        ]
      },
      "properties": {
        "id": "virtual_107.5990_-6.9245",
        "name": "Jalan Astana Anyar",
        "role": "virtual",
        "isReal": false,
        "mode": "bus"
      }
    },
    {
      "type": "Feature",
      "geometry": {
        "type": "Point",
        "coordinates": [
          107.6001956,
          -6.9277355
        ]
      },
      "properties": {
        "id": "virtual_107.6002_-6.9277",
        "name": "Jalan Astana Anyar",
        "role": "virtual",
        "isReal": false,
        "mode": "bus"
      }
    },
    {
      "type": "Feature",
      "geometry": {
        "type": "Point",
        "coordinates": [
          107.6007351,
          -6.9295707
        ]
      },
      "properties": {
        "id": "virtual_107.6007_-6.9296",
        "name": "Jalan Astana Anyar",
        "role": "virtual",
        "isReal": false,
        "mode": "bus"
      }
    },
    {
      "type": "Feature",
      "geometry": {
        "type": "Point",
        "coordinates": [
          107.5965357,
          -6.9324963
        ]
      },
      "properties": {
        "id": "virtual_107.5965_-6.9325",
        "name": "Jalan Kyai Haji Wahid Hasyim",
        "role": "virtual",
        "isReal": false,
        "mode": "bus"
      }
    },
    {
      "type": "Feature",
      "geometry": {
        "type": "Point",
        "coordinates": [
          107.5957871,
          -6.9351264
        ]
      },
      "properties": {
        "id": "12806717333",
        "name": "RS Imanuel Pintu Kopo",
        "role": "stop",
        "isReal": true,
        "mode": "bus"
      }
    },
    {
      "type": "Feature",
      "geometry": {
        "type": "Point",
        "coordinates": [
          107.5956524,
          -6.9372267
        ]
      },
      "properties": {
        "id": "11739021652",
        "name": "Rumah Sakit Immanuel A",
        "role": "stop",
        "isReal": true,
        "mode": "bus"
      }
    },
    {
      "type": "Feature",
      "geometry": {
        "type": "Point",
        "coordinates": [
          107.59711073333332,
          -6.9376882
        ]
      },
      "properties": {
        "id": "virtual_107.5971_-6.9377",
        "name": "Jalan terdekat",
        "role": "virtual",
        "isReal": false,
        "mode": "bus"
      }
    },
    {
      "type": "Feature",
      "geometry": {
        "type": "Point",
        "coordinates": [
          107.59945733333333,
          -6.937470766666666
        ]
      },
      "properties": {
        "id": "virtual_107.5995_-6.9375",
        "name": "Jalan terdekat",
        "role": "virtual",
        "isReal": false,
        "mode": "bus"
      }
    },
    {
      "type": "Feature",
      "geometry": {
        "type": "Point",
        "coordinates": [
          107.6020331,
          -6.9371534
        ]
      },
      "properties": {
        "id": "12628930762",
        "name": "Muara A",
        "role": "stop",
        "isReal": true,
        "mode": "bus"
      }
    },
    {
      "type": "Feature",
      "geometry": {
        "type": "Point",
        "coordinates": [
          107.6037009,
          -6.9373001
        ]
      },
      "properties": {
        "id": "12806765746",
        "name": "Taman Tegalega/Sri Baduga",
        "role": "stop",
        "isReal": true,
        "mode": "bus"
      }
    },
    {
      "type": "Feature",
      "geometry": {
        "type": "Point",
        "coordinates": [
          107.6067624,
          -6.9375463
        ]
      },
      "properties": {
        "id": "11707031601",
        "name": "PT INTI B (BKR 5)",
        "role": "stop",
        "isReal": true,
        "mode": "bus"
      }
    },
    {
      "type": "Feature",
      "geometry": {
        "type": "Point",
        "coordinates": [
          107.6083051,
          -6.9375959
        ]
      },
      "properties": {
        "id": "3445680780",
        "name": "Samsudin",
        "role": "stop",
        "isReal": true,
        "mode": "bus"
      }
    },
    {
      "type": "Feature",
      "geometry": {
        "type": "Point",
        "coordinates": [
          107.6105338,
          -6.93664068
        ]
      },
      "properties": {
        "id": "virtual_107.6105_-6.9366",
        "name": "Jalan terdekat",
        "role": "virtual",
        "isReal": false,
        "mode": "bus"
      }
    },
    {
      "type": "Feature",
      "geometry": {
        "type": "Point",
        "coordinates": [
          107.61297446,
          -6.93458956
        ]
      },
      "properties": {
        "id": "virtual_107.6130_-6.9346",
        "name": "Jalan terdekat",
        "role": "virtual",
        "isReal": false,
        "mode": "bus"
      }
    },
    {
      "type": "Feature",
      "geometry": {
        "type": "Point",
        "coordinates": [
          107.61497062000001,
          -6.9324322800000004
        ]
      },
      "properties": {
        "id": "virtual_107.6150_-6.9324",
        "name": "Jalan terdekat",
        "role": "virtual",
        "isReal": false,
        "mode": "bus"
      }
    },
    {
      "type": "Feature",
      "geometry": {
        "type": "Point",
        "coordinates": [
          107.6158192,
          -6.9311439
        ]
      },
      "properties": {
        "id": "12806120217",
        "name": "Unla",
        "role": "stop",
        "isReal": true,
        "mode": "bus"
      }
    },
    {
      "type": "Feature",
      "geometry": {
        "type": "Point",
        "coordinates": [
          107.6164624,
          -6.9302033
        ]
      },
      "properties": {
        "id": "3375103664",
        "name": "Lauk Emas",
        "role": "stop",
        "isReal": true,
        "mode": "bus"
      }
    },
    {
      "type": "Feature",
      "geometry": {
        "type": "Point",
        "coordinates": [
          107.6183599,
          -6.9316133
        ]
      },
      "properties": {
        "id": "3376282080",
        "name": "Banteng Sadakeling",
        "role": "stop",
        "isReal": true,
        "mode": "bus"
      }
    },
    {
      "type": "Feature",
      "geometry": {
        "type": "Point",
        "coordinates": [
          107.619075,
          -6.931384
        ]
      },
      "properties": {
        "id": "1982390333",
        "name": "SMK Medina",
        "role": "stop",
        "isReal": true,
        "mode": "bus"
      }
    },
    {
      "type": "Feature",
      "geometry": {
        "type": "Point",
        "coordinates": [
          107.6203316,
          -6.9317067
        ]
      },
      "properties": {
        "id": "2250581874",
        "name": "GOR Lodaya",
        "role": "stop",
        "isReal": true,
        "mode": "bus"
      }
    },
    {
      "type": "Feature",
      "geometry": {
        "type": "Point",
        "coordinates": [
          107.6221815,
          -6.9318636
        ]
      },
      "properties": {
        "id": "12806537958",
        "name": "Yayasan Kemala Bhayangkari",
        "role": "stop",
        "isReal": true,
        "mode": "bus"
      }
    },
    {
      "type": "Feature",
      "geometry": {
        "type": "Point",
        "coordinates": [
          107.622579,
          -6.9304538
        ]
      },
      "properties": {
        "id": "2607816747",
        "name": "Simpang Pasar Palasari",
        "role": "stop",
        "isReal": true,
        "mode": "bus"
      }
    },
    {
      "type": "Feature",
      "geometry": {
        "type": "Point",
        "coordinates": [
          107.6231948,
          -6.9281529
        ]
      },
      "properties": {
        "id": "12986852698",
        "name": "Universitas Aisyiyah",
        "role": "stop",
        "isReal": true,
        "mode": "bus"
      }
    },
    {
      "type": "Feature",
      "geometry": {
        "type": "Point",
        "coordinates": [
          107.62372383333333,
          -6.925177766666667
        ]
      },
      "properties": {
        "id": "virtual_107.6237_-6.9252",
        "name": "Jalan terdekat",
        "role": "virtual",
        "isReal": false,
        "mode": "bus"
      }
    },
    {
      "type": "Feature",
      "geometry": {
        "type": "Point",
        "coordinates": [
          107.6268157,
          -6.924329
        ]
      },
      "properties": {
        "id": "12806717340",
        "name": "Aneka Jeans",
        "role": "stop",
        "isReal": true,
        "mode": "bus"
      }
    },
    {
      "type": "Feature",
      "geometry": {
        "type": "Point",
        "coordinates": [
          107.6279241,
          -6.9236669
        ]
      },
      "properties": {
        "id": "12806717344",
        "name": "SPBU Laswi",
        "role": "stop",
        "isReal": true,
        "mode": "bus"
      }
    },
    {
      "type": "Feature",
      "geometry": {
        "type": "Point",
        "coordinates": [
          107.62902983333333,
          -6.9227911
        ]
      },
      "properties": {
        "id": "virtual_107.6290_-6.9228",
        "name": "Jalan terdekat",
        "role": "virtual",
        "isReal": false,
        "mode": "bus"
      }
    },
    {
      "type": "Feature",
      "geometry": {
        "type": "Point",
        "coordinates": [
          107.63070956666667,
          -6.9210559
        ]
      },
      "properties": {
        "id": "virtual_107.6307_-6.9211",
        "name": "Jalan terdekat",
        "role": "virtual",
        "isReal": false,
        "mode": "bus"
      }
    },
    {
      "type": "Feature",
      "geometry": {
        "type": "Point",
        "coordinates": [
          107.6312506,
          -6.9184177
        ]
      },
      "properties": {
        "id": "11707030859",
        "name": "Bandung Creative Hub B",
        "role": "stop",
        "isReal": true,
        "mode": "bus"
      }
    },
    {
      "type": "Feature",
      "geometry": {
        "type": "Point",
        "coordinates": [
          107.6292904,
          -6.9161976
        ]
      },
      "properties": {
        "id": "11735248690",
        "name": "Stadion Persib Sidolig",
        "role": "stop",
        "isReal": true,
        "mode": "bus"
      }
    },
    {
      "type": "Feature",
      "geometry": {
        "type": "Point",
        "coordinates": [
          107.62645775,
          -6.91767435
        ]
      },
      "properties": {
        "id": "virtual_107.6265_-6.9177",
        "name": "Jalan terdekat",
        "role": "virtual",
        "isReal": false,
        "mode": "bus"
      }
    },
    {
      "type": "Feature",
      "geometry": {
        "type": "Point",
        "coordinates": [
          107.6258024,
          -6.9189956
        ]
      },
      "properties": {
        "id": "12637510528",
        "name": "Stasiun Cikudapateuh",
        "role": "stop_exit_only",
        "isReal": true,
        "mode": "bus"
      }
    }
  ]
}