{
  "type": "FeatureCollection",
  "features": [
    {
      "type": "Feature",
      "geometry": {
        "type": "Point",
        "coordinates": [
          107.5753653,
          -6.9129722
        ]
      },
      "properties": {
        "id": "11711326972",
        "name": "Plaza Telkom Rajawali",
        "role": "stop_entry_only",
        "mode": "bus"
      }
    },
    {
      "type": "Feature",
      "geometry": {
        "type": "Point",
        "coordinates": [
          107.5766744,
          -6.9134545
        ]
      },
      "properties": {
        "id": "v_107.576674_-6.913455",
        "name": "Jalan Rajawali Timur",
        "role": "virtual",
        "mode": "bus"
      }
    },
    {
      "type": "Feature",
      "geometry": {
        "type": "Point",
        "coordinates": [
          107.5781901,
          -6.9137773
        ]
      },
      "properties": {
        "id": "11735239264",
        "name": "Rajawali 1",
        "role": "stop",
        "mode": "bus"
      }
    },
    {
      "type": "Feature",
      "geometry": {
        "type": "Point",
        "coordinates": [
          107.5797157,
          -6.9141156
        ]
      },
      "properties": {
        "id": "v_107.579716_-6.914116",
        "name": "Jalan Rajawali Timur",
        "role": "virtual",
        "mode": "bus"
      }
    },
    {
      "type": "Feature",
      "geometry": {
        "type": "Point",
        "coordinates": [
          107.5811424,
          -6.9144359
        ]
      },
      "properties": {
        "id": "v_107.581142_-6.914436",
        "name": "Jalan Rajawali Timur",
        "role": "virtual",
        "mode": "bus"
      }
    },
    {
      "type": "Feature",
      "geometry": {
        "type": "Point",
        "coordinates": [
          107.5828928,
          -6.9149105
        ]
      },
      "properties": {
        "id": "11735239266",
        "name": "Dunguscariang",
        "role": "stop",
        "mode": "bus"
      }
    },
    {
      "type": "Feature",
      "geometry": {
        "type": "Point",
        "coordinates": [
          107.5853751,
          -6.9157549
        ]
      },
      "properties": {
        "id": "1911635044",
        "name": "Yayasan LPPN",
        "role": "stop",
        "mode": "bus"
      }
    },
    {
      "type": "Feature",
      "geometry": {
        "type": "Point",
        "coordinates": [
          107.5869745,
          -6.9161187
        ]
      },
      "properties": {
        "id": "v_107.586974_-6.916119",
        "name": "Jalan Rajawali Timur",
        "role": "virtual",
        "mode": "bus"
      }
    },
    {
      "type": "Feature",
      "geometry": {
        "type": "Point",
        "coordinates": [
          107.5884105,
          -6.9162695
        ]
      },
      "properties": {
        "id": "v_107.588410_-6.916270",
        "name": "Jalan Rajawali Timur",
        "role": "virtual",
        "mode": "bus"
      }
    },
    {
      "type": "Feature",
      "geometry": {
        "type": "Point",
        "coordinates": [
          107.5900726,
          -6.9164713
        ]
      },
      "properties": {
        "id": "v_107.590073_-6.916471",
        "name": "Jalan Rajawali Timur",
        "role": "virtual",
        "mode": "bus"
      }
    },
    {
      "type": "Feature",
      "geometry": {
        "type": "Point",
        "coordinates": [
          107.5917121,
          -6.9165436
        ]
      },
      "properties": {
        "id": "11735239268",
        "name": "SMA Trinitas",
        "role": "stop_entry_only",
        "mode": "bus"
      }
    },
    {
      "type": "Feature",
      "geometry": {
        "type": "Point",
        "coordinates": [
          107.5933422,
          -6.9165018
        ]
      },
      "properties": {
        "id": "v_107.593342_-6.916502",
        "name": "Jalan Kebon Jati",
        "role": "virtual",
        "mode": "bus"
      }
    },
    {
      "type": "Feature",
      "geometry": {
        "type": "Point",
        "coordinates": [
          107.5966005,
          -6.9163694
        ]
      },
      "properties": {
        "id": "11735248671",
        "name": "Rumah Sakit Kebon Jati",
        "role": "stop",
        "mode": "bus"
      }
    },
    {
      "type": "Feature",
      "geometry": {
        "type": "Point",
        "coordinates": [
          107.5980505,
          -6.9163289
        ]
      },
      "properties": {
        "id": "v_107.598050_-6.916329",
        "name": "Jalan Kebon Jati",
        "role": "virtual",
        "mode": "bus"
      }
    },
    {
      "type": "Feature",
      "geometry": {
        "type": "Point",
        "coordinates": [
          107.5982915,
          -6.9178883
        ]
      },
      "properties": {
        "id": "v_107.598292_-6.917888",
        "name": "Jalan Gardujati",
        "role": "virtual",
        "mode": "bus"
      }
    },
    {
      "type": "Feature",
      "geometry": {
        "type": "Point",
        "coordinates": [
          107.5983085,
          -6.9194279
        ]
      },
      "properties": {
        "id": "v_107.598309_-6.919428",
        "name": "Jalan Gardujati",
        "role": "virtual",
        "mode": "bus"
      }
    },
    {
      "type": "Feature",
      "geometry": {
        "type": "Point",
        "coordinates": [
          107.5984122,
          -6.9208607
        ]
      },
      "properties": {
        "id": "v_107.598412_-6.920861",
        "name": "Jalan Astana Anyar",
        "role": "virtual",
        "mode": "bus"
      }
    },
    {
      "type": "Feature",
      "geometry": {
        "type": "Point",
        "coordinates": [
          107.5985679,
          -6.9225334
        ]
      },
      "properties": {
        "id": "v_107.598568_-6.922533",
        "name": "Jalan Astana Anyar",
        "role": "virtual",
        "mode": "bus"
      }
    },
    {
      "type": "Feature",
      "geometry": {
        "type": "Point",
        "coordinates": [
          107.5988393,
          -6.9239196
        ]
      },
      "properties": {
        "id": "v_107.598839_-6.923920",
        "name": "Jalan Astana Anyar",
        "role": "virtual",
        "mode": "bus"
      }
    },
    {
      "type": "Feature",
      "geometry": {
        "type": "Point",
        "coordinates": [
          107.5995204,
          -6.9258084
        ]
      },
      "properties": {
        "id": "v_107.599520_-6.925808",
        "name": "Jalan Astana Anyar",
        "role": "virtual",
        "mode": "bus"
      }
    },
    {
      "type": "Feature",
      "geometry": {
        "type": "Point",
        "coordinates": [
          107.6001956,
          -6.9277355
        ]
      },
      "properties": {
        "id": "v_107.600196_-6.927735",
        "name": "Jalan Astana Anyar",
        "role": "virtual",
        "mode": "bus"
      }
    },
    {
      "type": "Feature",
      "geometry": {
        "type": "Point",
        "coordinates": [
          107.6006731,
          -6.9290234
        ]
      },
      "properties": {
        "id": "v_107.600673_-6.929023",
        "name": "Jalan Astana Anyar",
        "role": "virtual",
        "mode": "bus"
      }
    },
    {
      "type": "Feature",
      "geometry": {
        "type": "Point",
        "coordinates": [
          107.5995398,
          -6.9300939
        ]
      },
      "properties": {
        "id": "v_107.599540_-6.930094",
        "name": "Jalan Panjunan",
        "role": "virtual",
        "mode": "bus"
      }
    },
    {
      "type": "Feature",
      "geometry": {
        "type": "Point",
        "coordinates": [
          107.5973451,
          -6.9298621
        ]
      },
      "properties": {
        "id": "v_107.597345_-6.929862",
        "name": "Jalan Panjunan",
        "role": "virtual",
        "mode": "bus"
      }
    },
    {
      "type": "Feature",
      "geometry": {
        "type": "Point",
        "coordinates": [
          107.5969018,
          -6.9312049
        ]
      },
      "properties": {
        "id": "v_107.596902_-6.931205",
        "name": "Jalan Kyai Haji Wahid Hasyim",
        "role": "virtual",
        "mode": "bus"
      }
    },
    {
      "type": "Feature",
      "geometry": {
        "type": "Point",
        "coordinates": [
          107.5964545,
          -6.9328118
        ]
      },
      "properties": {
        "id": "v_107.596454_-6.932812",
        "name": "Jalan Kyai Haji Wahid Hasyim",
        "role": "virtual",
        "mode": "bus"
      }
    },
    {
      "type": "Feature",
      "geometry": {
        "type": "Point",
        "coordinates": [
          107.5957871,
          -6.9351264
        ]
      },
      "properties": {
        "id": "12806717333",
        "name": "RS Imanuel Pintu Kopo",
        "role": "stop",
        "mode": "bus"
      }
    },
    {
      "type": "Feature",
      "geometry": {
        "type": "Point",
        "coordinates": [
          107.5956524,
          -6.9372267
        ]
      },
      "properties": {
        "id": "11739021652",
        "name": "Rumah Sakit Immanuel A",
        "role": "stop",
        "mode": "bus"
      }
    },
    {
      "type": "Feature",
      "geometry": {
        "type": "Point",
        "coordinates": [
          107.5970266,
          -6.9376757
        ]
      },
      "properties": {
        "id": "v_107.597027_-6.937676",
        "name": "Jalan Peta",
        "role": "virtual",
        "mode": "bus"
      }
    },
    {
      "type": "Feature",
      "geometry": {
        "type": "Point",
        "coordinates": [
          107.5984843,
          -6.937651
        ]
      },
      "properties": {
        "id": "v_107.598484_-6.937651",
        "name": "Jalan Peta",
        "role": "virtual",
        "mode": "bus"
      }
    },
    {
      "type": "Feature",
      "geometry": {
        "type": "Point",
        "coordinates": [
          107.6001982,
          -6.9373255
        ]
      },
      "properties": {
        "id": "v_107.600198_-6.937326",
        "name": "Jalan Peta",
        "role": "virtual",
        "mode": "bus"
      }
    },
    {
      "type": "Feature",
      "geometry": {
        "type": "Point",
        "coordinates": [
          107.6020331,
          -6.9371534
        ]
      },
      "properties": {
        "id": "12628930762",
        "name": "Muara A",
        "role": "stop",
        "mode": "bus"
      }
    },
    {
      "type": "Feature",
      "geometry": {
        "type": "Point",
        "coordinates": [
          107.6037009,
          -6.9373001
        ]
      },
      "properties": {
        "id": "12806765746",
        "name": "Taman Tegalega/Sri Baduga",
        "role": "stop",
        "mode": "bus"
      }
    },
    {
      "type": "Feature",
      "geometry": {
        "type": "Point",
        "coordinates": [
          107.6067624,
          -6.9375463
        ]
      },
      "properties": {
        "id": "11707031601",
        "name": "PT INTI B (BKR 5)",
        "role": "stop",
        "mode": "bus"
      }
    },
    {
      "type": "Feature",
      "geometry": {
        "type": "Point",
        "coordinates": [
          107.6083051,
          -6.9375959
        ]
      },
      "properties": {
        "id": "3445680780",
        "name": "Samsudin",
        "role": "stop",
        "mode": "bus"
      }
    },
    {
      "type": "Feature",
      "geometry": {
        "type": "Point",
        "coordinates": [
          107.6096423,
          -6.9372363
        ]
      },
      "properties": {
        "id": "v_107.609642_-6.937236",
        "name": "Jalan Mochammad Ramdhan",
        "role": "virtual",
        "mode": "bus"
      }
    },
    {
      "type": "Feature",
      "geometry": {
        "type": "Point",
        "coordinates": [
          107.611406,
          -6.9359826
        ]
      },
      "properties": {
        "id": "v_107.611406_-6.935983",
        "name": "Jalan Mochammad Ramdhan",
        "role": "virtual",
        "mode": "bus"
      }
    },
    {
      "type": "Feature",
      "geometry": {
        "type": "Point",
        "coordinates": [
          107.6127563,
          -6.9348062
        ]
      },
      "properties": {
        "id": "v_107.612756_-6.934806",
        "name": "Jalan Mochammad Ramdhan",
        "role": "virtual",
        "mode": "bus"
      }
    },
    {
      "type": "Feature",
      "geometry": {
        "type": "Point",
        "coordinates": [
          107.6138283,
          -6.9337409
        ]
      },
      "properties": {
        "id": "v_107.613828_-6.933741",
        "name": "Jalan Mochammad Ramdhan",
        "role": "virtual",
        "mode": "bus"
      }
    },
    {
      "type": "Feature",
      "geometry": {
        "type": "Point",
        "coordinates": [
          107.6149112,
          -6.9325381
        ]
      },
      "properties": {
        "id": "v_107.614911_-6.932538",
        "name": "Jalan Mochammad Ramdhan",
        "role": "virtual",
        "mode": "bus"
      }
    },
    {
      "type": "Feature",
      "geometry": {
        "type": "Point",
        "coordinates": [
          107.6158192,
          -6.9311439
        ]
      },
      "properties": {
        "id": "12806120217",
        "name": "Unla",
        "role": "stop",
        "mode": "bus"
      }
    },
    {
      "type": "Feature",
      "geometry": {
        "type": "Point",
        "coordinates": [
          107.6164624,
          -6.9302033
        ]
      },
      "properties": {
        "id": "3375103664",
        "name": "Lauk Emas",
        "role": "stop",
        "mode": "bus"
      }
    },
    {
      "type": "Feature",
      "geometry": {
        "type": "Point",
        "coordinates": [
          107.6183599,
          -6.9316133
        ]
      },
      "properties": {
        "id": "3376282080",
        "name": "Banteng Sadakeling",
        "role": "stop",
        "mode": "bus"
      }
    },
    {
      "type": "Feature",
      "geometry": {
        "type": "Point",
        "coordinates": [
          107.619075,
          -6.931384
        ]
      },
      "properties": {
        "id": "1982390333",
        "name": "SMK Medina",
        "role": "stop",
        "mode": "bus"
      }
    },
    {
      "type": "Feature",
      "geometry": {
        "type": "Point",
        "coordinates": [
          107.6203316,
          -6.9317067
        ]
      },
      "properties": {
        "id": "2250581874",
        "name": "GOR Lodaya",
        "role": "stop",
        "mode": "bus"
      }
    },
    {
      "type": "Feature",
      "geometry": {
        "type": "Point",
        "coordinates": [
          107.6221815,
          -6.9318636
        ]
      },
      "properties": {
        "id": "12806537958",
        "name": "Yayasan Kemala Bhayangkari",
        "role": "stop",
        "mode": "bus"
      }
    },
    {
      "type": "Feature",
      "geometry": {
        "type": "Point",
        "coordinates": [
          107.6225611,
          -6.9305163
        ]
      },
      "properties": {
        "id": "v_107.622561_-6.930516",
        "name": "Jalan Palasari",
        "role": "virtual",
        "mode": "bus"
      }
    },
    {
      "type": "Feature",
      "geometry": {
        "type": "Point",
        "coordinates": [
          107.6230578,
          -6.928673
        ]
      },
      "properties": {
        "id": "v_107.623058_-6.928673",
        "name": "Jalan Palasari",
        "role": "virtual",
        "mode": "bus"
      }
    },
    {
      "type": "Feature",
      "geometry": {
        "type": "Point",
        "coordinates": [
          107.6234197,
          -6.9272967
        ]
      },
      "properties": {
        "id": "v_107.623420_-6.927297",
        "name": "Jalan Palasari",
        "role": "virtual",
        "mode": "bus"
      }
    },
    {
      "type": "Feature",
      "geometry": {
        "type": "Point",
        "coordinates": [
          107.623714,
          -6.925252
        ]
      },
      "properties": {
        "id": "v_107.623714_-6.925252",
        "name": "Jalan Malabar",
        "role": "virtual",
        "mode": "bus"
      }
    },
    {
      "type": "Feature",
      "geometry": {
        "type": "Point",
        "coordinates": [
          107.6242404,
          -6.9237756
        ]
      },
      "properties": {
        "id": "v_107.624240_-6.923776",
        "name": "Jalan Malabar",
        "role": "virtual",
        "mode": "bus"
      }
    },
    {
      "type": "Feature",
      "geometry": {
        "type": "Point",
        "coordinates": [
          107.6268157,
          -6.924329
        ]
      },
      "properties": {
        "id": "12806717340",
        "name": "Aneka Jeans",
        "role": "stop",
        "mode": "bus"
      }
    },
    {
      "type": "Feature",
      "geometry": {
        "type": "Point",
        "coordinates": [
          107.6279241,
          -6.9236669
        ]
      },
      "properties": {
        "id": "12806717344",
        "name": "SPBU Laswi",
        "role": "stop",
        "mode": "bus"
      }
    },
    {
      "type": "Feature",
      "geometry": {
        "type": "Point",
        "coordinates": [
          107.6291891,
          -6.9227221
        ]
      },
      "properties": {
        "id": "v_107.629189_-6.922722",
        "name": "Jalan Laswi",
        "role": "virtual",
        "mode": "bus"
      }
    },
    {
      "type": "Feature",
      "geometry": {
        "type": "Point",
        "coordinates": [
          107.6303825,
          -6.9220654
        ]
      },
      "properties": {
        "id": "v_107.630382_-6.922065",
        "name": "Jalan Laswi",
        "role": "virtual",
        "mode": "bus"
      }
    },
    {
      "type": "Feature",
      "geometry": {
        "type": "Point",
        "coordinates": [
          107.630896,
          -6.920344
        ]
      },
      "properties": {
        "id": "v_107.630896_-6.920344",
        "name": "Jalan Laswi",
        "role": "virtual",
        "mode": "bus"
      }
    },
    {
      "type": "Feature",
      "geometry": {
        "type": "Point",
        "coordinates": [
          107.6312506,
          -6.9184177
        ]
      },
      "properties": {
        "id": "11707030859",
        "name": "Bandung Creative Hub B",
        "role": "stop",
        "mode": "bus"
      }
    },
    {
      "type": "Feature",
      "geometry": {
        "type": "Point",
        "coordinates": [
          107.6306282,
          -6.9171247
        ]
      },
      "properties": {
        "id": "v_107.630628_-6.917125",
        "name": "Jalan Laswi",
        "role": "virtual",
        "mode": "bus"
      }
    },
    {
      "type": "Feature",
      "geometry": {
        "type": "Point",
        "coordinates": [
          107.6292904,
          -6.9161976
        ]
      },
      "properties": {
        "id": "11735248690",
        "name": "Stadion Persib Sidolig",
        "role": "stop",
        "mode": "bus"
      }
    },
    {
      "type": "Feature",
      "geometry": {
        "type": "Point",
        "coordinates": [
          107.6274434,
          -6.9171135
        ]
      },
      "properties": {
        "id": "v_107.627443_-6.917114",
        "name": "Jalan Jenderal Ahmad Yani",
        "role": "virtual",
        "mode": "bus"
      }
    },
    {
      "type": "Feature",
      "geometry": {
        "type": "Point",
        "coordinates": [
          107.6258024,
          -6.9189956
        ]
      },
      "properties": {
        "id": "12637510528",
        "name": "Stasiun Cikudapateuh",
        "role": "stop_exit_only",
        "mode": "bus"
      }
    }
  ]
}