{"type":"FeatureCollection","features":[{"type":"Feature","geometry":{"type":"Point","coordinates":[107.607149,-6.9212854]},"properties":{"id":1013421519,"bench":"yes","bus":"yes","highway":"bus_stop","name":"Alun-Alun Bandung","public_transport":"platform","route_ref":"2;3","shelter":"yes"}},{"type":"Feature","geometry":{"type":"Point","coordinates":[107.6362265,-6.9729415]},"properties":{"id":3890313810,"bus":"yes","highway":"bus_stop","name":"Permata Buah Batu","public_transport":"platform","route_ref":"3"}},{"type":"Feature","geometry":{"type":"Point","coordinates":[107.6105067,-6.9125289]},"properties":{"id":10778322185,"alt_name":"Santa Angela","bench":"yes","bus":"yes","highway":"bus_stop","name":"Merdeka","public_transport":"platform","ramp":"no","route_ref":"3;4","shelter":"yes","tactile_paving":"yes","wheelchair":"no"}},{"type":"Feature","geometry":{"type":"Point","coordinates":[107.6033297,-6.934006]},"properties":{"id":10815698569,"bus":"yes","highway":"bus_stop","name":"Taman Tegallega","public_transport":"platform","route_ref":"3","shelter":"no","source":"POI_WRI_Survey_2023","wheelchair":"no"}},{"type":"Feature","geometry":{"type":"Point","coordinates":[107.6063532,-6.9389947]},"properties":{"id":10815724000,"bus":"yes","highway":"bus_stop","name":"Muhammad Toha 1 (PT INTI A)","public_transport":"platform","route_ref":"3;5;6","shelter":"yes","source":"POI_WRI_Survey_2023","wheelchair":"no"}},{"type":"Feature","geometry":{"type":"Point","coordinates":[107.6339645,-6.9484506]},"properties":{"id":11079292221,"bus":"yes","highway":"bus_stop","name":"Taman Buah Batu","public_transport":"platform","route_ref":"3"}},{"type":"Feature","geometry":{"type":"Point","coordinates":[107.6376602,-6.9672094]},"properties":{"id":11102748150,"bus":"yes","highway":"bus_stop","name":"Transmart Buahbatu","public_transport":"platform","route_ref":"3","shelter":"no"}},{"type":"Feature","geometry":{"type":"Point","coordinates":[107.609698,-6.9100874]},"properties":{"id":11549655660,"bus":"yes","highway":"bus_stop","name":"Museum Kota Bandung","public_transport":"platform","route_ref":"3","shelter":"no"}},{"type":"Feature","geometry":{"type":"Point","coordinates":[107.6040007,-6.9230321]},"properties":{"id":11739021638,"bus":"yes","highway":"bus_stop","name":"Toko Mas ABC","public_transport":"platform","route_ref":"3"}},{"type":"Feature","geometry":{"type":"Point","coordinates":[107.6036723,-6.9280476]},"properties":{"id":11739021640,"bus":"yes","highway":"bus_stop","name":"Simpang Ijan","public_transport":"platform","route_ref":"3","shelter":"no"}},{"type":"Feature","geometry":{"type":"Point","coordinates":[107.6084009,-6.9451896]},"properties":{"id":11739021650,"bus":"yes","highway":"bus_stop","name":"Madurasa Tengah","public_transport":"platform","route_ref":"3"}},{"type":"Feature","geometry":{"type":"Point","coordinates":[107.6121647,-6.9484533]},"properties":{"id":11871900166,"bus":"yes","highway":"bus_stop","name":"PLN UP3 Bandung B","public_transport":"platform","route_ref":"3"}},{"type":"Feature","geometry":{"type":"Point","coordinates":[107.6248232,-6.9494075]},"properties":{"id":11871900167,"bus":"yes","highway":"bus_stop","name":"LPKIA B","public_transport":"platform","route_ref":"3"}},{"type":"Feature","geometry":{"type":"Point","coordinates":[107.628094,-6.9492972]},"properties":{"id":11871900168,"bus":"yes","highway":"bus_stop","name":"Bangunan Mart B","public_transport":"platform","route_ref":"3"}},{"type":"Feature","geometry":{"type":"Point","coordinates":[107.6358162,-6.950362]},"properties":{"id":11871915369,"bus":"yes","highway":"bus_stop","name":"Swadarma BNI","public_transport":"platform","route_ref":"3"}},{"type":"Feature","geometry":{"type":"Point","coordinates":[107.6387339,-6.9534628]},"properties":{"id":11871915370,"bus":"yes","highway":"bus_stop","name":"Pasar Kordon B","public_transport":"platform","route_ref":"3"}},{"type":"Feature","geometry":{"type":"Point","coordinates":[107.6395287,-6.9584133]},"properties":{"id":11871915371,"bus":"yes","highway":"bus_stop","name":"Bluebird B","public_transport":"platform","route_ref":"3"}},{"type":"Feature","geometry":{"type":"Point","coordinates":[107.6381537,-6.9649738]},"properties":{"id":11871915372,"bus":"yes","highway":"bus_stop","name":"Puskesmas Kujangsari B","public_transport":"platform","route_ref":"3"}},{"type":"Feature","geometry":{"type":"Point","coordinates":[107.6356723,-6.9749878]},"properties":{"id":11871915373,"bus":"yes","highway":"bus_stop","name":"Podomoro","public_transport":"platform","route_ref":"3","shelter":"yes"}},{"type":"Feature","geometry":{"type":"Point","coordinates":[107.6339776,-6.9819837]},"properties":{"id":11871915374,"bus":"yes","highway":"bus_stop","name":"AHASS","public_transport":"platform","route_ref":"3"}},{"type":"Feature","geometry":{"type":"Point","coordinates":[107.6328882,-6.9857385]},"properties":{"id":11871915375,"bus":"yes","highway":"bus_stop","name":"Griya Bandung Asri","public_transport":"platform","route_ref":"3;6"}},{"type":"Feature","geometry":{"type":"Point","coordinates":[107.6317045,-6.9914388]},"properties":{"id":11871915376,"bus":"yes","highway":"bus_stop","name":"Alfamart SPBU Bojongsoang","public_transport":"platform","route_ref":"3"}},{"type":"Feature","geometry":{"type":"Point","coordinates":[107.6318834,-7.0003056]},"properties":{"id":11871915377,"bus":"yes","highway":"bus_stop","name":"Masjid Jami' Baitul Huda B","public_transport":"platform","route_ref":"3"}},{"type":"Feature","geometry":{"type":"Point","coordinates":[107.6309367,-7.005515]},"properties":{"id":11871915378,"bus":"yes","highway":"bus_stop","name":"Apotek K24","public_transport":"platform","route_ref":"3"}},{"type":"Feature","geometry":{"type":"Point","coordinates":[107.6236048,-7.0060152]},"properties":{"id":11871915379,"bus":"yes","highway":"bus_stop","name":"KEJARI Bale Bandung","public_transport":"platform","route_ref":"3"}},{"type":"Feature","geometry":{"type":"Point","coordinates":[107.6243373,-7.007447]},"properties":{"id":11871915380,"bus":"yes","highway":"bus_stop","name":"RS Al-Ihsan","public_transport":"platform","route_ref":"3"}},{"type":"Feature","geometry":{"type":"Point","coordinates":[107.6191679,-6.9489281]},"properties":{"id":12626529701,"bus":"yes","highway":"bus_stop","name":"PT LEN Industri B","public_transport":"platform","route_ref":"3"}},{"type":"Feature","geometry":{"type":"Point","coordinates":[107.6094288,-6.9081566]},"properties":{"id":11739021631,"bus":"yes","highway":"bus_stop","name":"Bandung Electronic Center","public_transport":"platform","route_ref":"3"}},{"type":"Feature","geometry":{"type":"Point","coordinates":[107.6260876,-7.006678]},"properties":{"id":11871915381,"bus":"yes","highway":"bus_stop","name":"Baleendah","public_transport":"platform","route_ref":"3"}}]}