{"type":"FeatureCollection","features":[{"type":"Feature","geometry":{"type":"Point","coordinates":[107.5377021,-6.8737945]},"properties":{"id":1858790193,"bus":"yes","highway":"bus_stop","name":"Pojok, Cimahi","public_transport":"stop_position","ref":"Pojok, Cimahi"}},{"type":"Feature","geometry":{"type":"Point","coordinates":[107.5347611,-6.8699025]},"properties":{"id":3468354453,"bus":"yes","name":"Jl. Sangkuriang, Cimahi","public_transport":"platform","ref":"Jl. Sangkuriang, Cimahi"}},{"type":"Feature","geometry":{"type":"Point","coordinates":[107.5367271,-6.8764294]},"properties":{"id":3468354455,"bus":"yes","name":"Pasopati, Cimahi","public_transport":"platform","ref":"Pasopati, Cimahi"}},{"type":"Feature","geometry":{"type":"Point","coordinates":[107.5380542,-6.8806832]},"properties":{"id":3468354466,"bus":"yes","highway":"bus_stop","name":"Pasar Antri","public_transport":"platform","ref":"Terminal Pasar Antri Cimahi"}},{"type":"Feature","geometry":{"type":"Point","coordinates":[107.5032966,-6.8633214]},"properties":{"id":3468494605,"bus":"yes","highway":"bus_stop","name":"Cimareme","public_transport":"platform","ref":"Cimareme"}},{"type":"Feature","geometry":{"type":"Point","coordinates":[107.5154998,-6.8660042]},"properties":{"id":3468494607,"bus":"yes","highway":"bus_stop","name":"Stasiun Gadobangkong","public_transport":"platform","ref":"Stasiun Gadobangkong"}},{"type":"Feature","geometry":{"type":"Point","coordinates":[107.4972764,-6.8514498]},"properties":{"id":3468494609,"bus":"yes","highway":"bus_stop","name":"Gerbang Tol Padalarang","public_transport":"platform"}},{"type":"Feature","geometry":{"type":"Point","coordinates":[107.4849802,-6.842545]},"properties":{"id":3889788940,"bus":"yes","highway":"bus_stop","name":"Simpang Pasar Tagog","public_transport":"platform"}}]}