{
  "type": "FeatureCollection",
  "features": [
    {
      "type": "Feature",
      "geometry": {
        "type": "Point",
        "coordinates": [
          107.5749699,
          -6.8827073
        ]
      },
      "properties": {
        "id": "1585594342",
        "name": "Rusun Sarijadi",
        "role": "stop_entry_only",
        "isReal": true,
        "mode": "bus"
      }
    },
    {
      "type": "Feature",
      "geometry": {
        "type": "Point",
        "coordinates": [
          107.578425,
          -6.8816653
        ]
      },
      "properties": {
        "id": "12628813986",
        "name": "Sarijadi",
        "role": "stop",
        "isReal": true,
        "mode": "bus"
      }
    },
    {
      "type": "Feature",
      "geometry": {
        "type": "Point",
        "coordinates": [
          107.5787258,
          -6.8813034
        ]
      },
      "properties": {
        "id": "12628813987",
        "name": "Lemahneundeut",
        "role": "stop",
        "isReal": true,
        "mode": "bus"
      }
    },
    {
      "type": "Feature",
      "geometry": {
        "type": "Point",
        "coordinates": [
          107.5808999,
          -6.8800589
        ]
      },
      "properties": {
        "id": "virtual_107.5809_-6.8801",
        "name": "Jalan Terusan Profesor Dokter Sutami",
        "role": "virtual",
        "isReal": false,
        "mode": "bus"
      }
    },
    {
      "type": "Feature",
      "geometry": {
        "type": "Point",
        "coordinates": [
          107.5814944,
          -6.8821984
        ]
      },
      "properties": {
        "id": "12628813990",
        "name": "Setrasari",
        "role": "stop",
        "isReal": true,
        "mode": "bus"
      }
    },
    {
      "type": "Feature",
      "geometry": {
        "type": "Point",
        "coordinates": [
          107.5814407,
          -6.885752350000001
        ]
      },
      "properties": {
        "id": "virtual_107.5814_-6.8858",
        "name": "Jalan terdekat",
        "role": "virtual",
        "isReal": false,
        "mode": "bus"
      }
    },
    {
      "type": "Feature",
      "geometry": {
        "type": "Point",
        "coordinates": [
          107.5814622,
          -6.8889233
        ]
      },
      "properties": {
        "id": "virtual_107.5815_-6.8889",
        "name": "Jalan Surya Sumantri",
        "role": "virtual",
        "isReal": false,
        "mode": "bus"
      }
    },
    {
      "type": "Feature",
      "geometry": {
        "type": "Point",
        "coordinates": [
          107.58147075,
          -6.8911853
        ]
      },
      "properties": {
        "id": "virtual_107.5815_-6.8912",
        "name": "Jalan terdekat",
        "role": "virtual",
        "isReal": false,
        "mode": "bus"
      }
    },
    {
      "type": "Feature",
      "geometry": {
        "type": "Point",
        "coordinates": [
          107.5829072,
          -6.8922539
        ]
      },
      "properties": {
        "id": "1658426541",
        "name": "BPJS Pasteur",
        "role": "stop",
        "isReal": true,
        "mode": "bus"
      }
    },
    {
      "type": "Feature",
      "geometry": {
        "type": "Point",
        "coordinates": [
          107.5849478,
          -6.8925604
        ]
      },
      "properties": {
        "id": "12013144935",
        "name": "Mall d'Botanica",
        "role": "stop",
        "isReal": true,
        "mode": "bus"
      }
    },
    {
      "type": "Feature",
      "geometry": {
        "type": "Point",
        "coordinates": [
          107.5856805,
          -6.8929291
        ]
      },
      "properties": {
        "id": "2958261155",
        "name": "Djundjunan 3",
        "role": "stop",
        "isReal": true,
        "mode": "bus"
      }
    },
    {
      "type": "Feature",
      "geometry": {
        "type": "Point",
        "coordinates": [
          107.5883918,
          -6.8948914
        ]
      },
      "properties": {
        "id": "12628813992",
        "name": "Griya Pasteur 2",
        "role": "stop",
        "isReal": true,
        "mode": "bus"
      }
    },
    {
      "type": "Feature",
      "geometry": {
        "type": "Point",
        "coordinates": [
          107.5901962,
          -6.8960883
        ]
      },
      "properties": {
        "id": "virtual_107.5902_-6.8961",
        "name": "Jalan Dr. Djunjunan",
        "role": "virtual",
        "isReal": false,
        "mode": "bus"
      }
    },
    {
      "type": "Feature",
      "geometry": {
        "type": "Point",
        "coordinates": [
          107.5921671,
          -6.8971698
        ]
      },
      "properties": {
        "id": "virtual_107.5922_-6.8972",
        "name": "Jalan Dr. Djunjunan",
        "role": "virtual",
        "isReal": false,
        "mode": "bus"
      }
    },
    {
      "type": "Feature",
      "geometry": {
        "type": "Point",
        "coordinates": [
          107.5944451,
          -6.8989736
        ]
      },
      "properties": {
        "id": "virtual_107.5944_-6.8990",
        "name": "Jalan Dr. Djunjunan",
        "role": "virtual",
        "isReal": false,
        "mode": "bus"
      }
    },
    {
      "type": "Feature",
      "geometry": {
        "type": "Point",
        "coordinates": [
          107.5963399,
          -6.9001472
        ]
      },
      "properties": {
        "id": "virtual_107.5963_-6.9001",
        "name": "Jalan Dr. Djunjunan",
        "role": "virtual",
        "isReal": false,
        "mode": "bus"
      }
    },
    {
      "type": "Feature",
      "geometry": {
        "type": "Point",
        "coordinates": [
          107.5974649,
          -6.9013037
        ]
      },
      "properties": {
        "id": "12809082512",
        "name": "Seberang IWU",
        "role": "stop",
        "isReal": true,
        "mode": "bus"
      }
    },
    {
      "type": "Feature",
      "geometry": {
        "type": "Point",
        "coordinates": [
          107.5975385,
          -6.9033942
        ]
      },
      "properties": {
        "id": "12809082511",
        "name": "Seberang BPK Penabur",
        "role": "stop",
        "isReal": true,
        "mode": "bus"
      }
    },
    {
      "type": "Feature",
      "geometry": {
        "type": "Point",
        "coordinates": [
          107.5976013,
          -6.9054493
        ]
      },
      "properties": {
        "id": "3377321687",
        "name": "Depan Istana Plaza",
        "role": "stop",
        "isReal": true,
        "mode": "bus"
      }
    },
    {
      "type": "Feature",
      "geometry": {
        "type": "Point",
        "coordinates": [
          107.5992067,
          -6.9068065
        ]
      },
      "properties": {
        "id": "2012498684",
        "name": "Taman Adipura",
        "role": "stop",
        "isReal": true,
        "mode": "bus"
      }
    },
    {
      "type": "Feature",
      "geometry": {
        "type": "Point",
        "coordinates": [
          107.599992,
          -6.906861
        ]
      },
      "properties": {
        "id": "11138593915",
        "name": "SDN Pajajaran",
        "role": "stop",
        "isReal": true,
        "mode": "bus"
      }
    },
    {
      "type": "Feature",
      "geometry": {
        "type": "Point",
        "coordinates": [
          107.6019252,
          -6.9070015
        ]
      },
      "properties": {
        "id": "25500626",
        "name": "GOR Padjajaran",
        "role": "stop",
        "isReal": true,
        "mode": "bus"
      }
    },
    {
      "type": "Feature",
      "geometry": {
        "type": "Point",
        "coordinates": [
          107.6044661,
          -6.9077123
        ]
      },
      "properties": {
        "id": "3376669069",
        "name": "Kimia Farma",
        "role": "stop",
        "isReal": true,
        "mode": "bus"
      }
    },
    {
      "type": "Feature",
      "geometry": {
        "type": "Point",
        "coordinates": [
          107.60408495,
          -6.91053895
        ]
      },
      "properties": {
        "id": "virtual_107.6041_-6.9105",
        "name": "Jalan terdekat",
        "role": "virtual",
        "isReal": false,
        "mode": "bus"
      }
    },
    {
      "type": "Feature",
      "geometry": {
        "type": "Point",
        "coordinates": [
          107.6029303,
          -6.9125954
        ]
      },
      "properties": {
        "id": "293384756",
        "name": "Stasiun Bandung",
        "role": "stop",
        "isReal": true,
        "mode": "bus"
      }
    },
    {
      "type": "Feature",
      "geometry": {
        "type": "Point",
        "coordinates": [
          107.6007223,
          -6.9124771
        ]
      },
      "properties": {
        "id": "12806120204",
        "name": "Haji Mesri",
        "role": "stop",
        "isReal": true,
        "mode": "bus"
      }
    },
    {
      "type": "Feature",
      "geometry": {
        "type": "Point",
        "coordinates": [
          107.5980575,
          -6.9134521
        ]
      },
      "properties": {
        "id": "virtual_107.5981_-6.9135",
        "name": "Jalan HOS. Cokroaminoto",
        "role": "virtual",
        "isReal": false,
        "mode": "bus"
      }
    },
    {
      "type": "Feature",
      "geometry": {
        "type": "Point",
        "coordinates": [
          107.5988546,
          -6.916282
        ]
      },
      "properties": {
        "id": "25434237",
        "name": "GKI Kebonjati",
        "role": "stop",
        "isReal": true,
        "mode": "bus"
      }
    },
    {
      "type": "Feature",
      "geometry": {
        "type": "Point",
        "coordinates": [
          107.599627,
          -6.9162422
        ]
      },
      "properties": {
        "id": "11735248674",
        "name": "SMA Pasundan",
        "role": "stop",
        "isReal": true,
        "mode": "bus"
      }
    },
    {
      "type": "Feature",
      "geometry": {
        "type": "Point",
        "coordinates": [
          107.6024001,
          -6.9161478
        ]
      },
      "properties": {
        "id": "1013407725",
        "name": "Stasiun Hall",
        "role": "stop_exit_only",
        "isReal": true,
        "mode": "bus"
      }
    }
  ]
}