{
  "type": "FeatureCollection",
  "features": [
    {
      "type": "Feature",
      "geometry": {
        "type": "Point",
        "coordinates": [
          107.576498,
          -6.8822436
        ]
      },
      "properties": {
        "id": "v_107.576498_-6.882244",
        "name": "Jalan Sariwangi",
        "role": "virtual",
        "mode": "bus"
      }
    },
    {
      "type": "Feature",
      "geometry": {
        "type": "Point",
        "coordinates": [
          107.5749699,
          -6.8827073
        ]
      },
      "properties": {
        "id": "1585594342",
        "name": "Rusun Sarijadi",
        "role": "stop_entry_only",
        "mode": "bus"
      }
    },
    {
      "type": "Feature",
      "geometry": {
        "type": "Point",
        "coordinates": [
          107.576498,
          -6.8822436
        ]
      },
      "properties": {
        "id": "v_107.576498_-6.882244",
        "name": "Jalan Sariwangi",
        "role": "virtual",
        "mode": "bus"
      }
    },
    {
      "type": "Feature",
      "geometry": {
        "type": "Point",
        "coordinates": [
          107.578425,
          -6.8816653
        ]
      },
      "properties": {
        "id": "12628813986",
        "name": "Sarijadi",
        "role": "stop",
        "mode": "bus"
      }
    },
    {
      "type": "Feature",
      "geometry": {
        "type": "Point",
        "coordinates": [
          107.5787258,
          -6.8813034
        ]
      },
      "properties": {
        "id": "12628813987",
        "name": "Lemahneundeut",
        "role": "stop",
        "mode": "bus"
      }
    },
    {
      "type": "Feature",
      "geometry": {
        "type": "Point",
        "coordinates": [
          107.5800531,
          -6.8803113
        ]
      },
      "properties": {
        "id": "v_107.580053_-6.880311",
        "name": "Jalan Terusan Profesor Dokter Sutami",
        "role": "virtual",
        "mode": "bus"
      }
    },
    {
      "type": "Feature",
      "geometry": {
        "type": "Point",
        "coordinates": [
          107.5814944,
          -6.8821984
        ]
      },
      "properties": {
        "id": "12628813990",
        "name": "Setrasari",
        "role": "stop",
        "mode": "bus"
      }
    },
    {
      "type": "Feature",
      "geometry": {
        "type": "Point",
        "coordinates": [
          107.5814786,
          -6.8839443
        ]
      },
      "properties": {
        "id": "v_107.581479_-6.883944",
        "name": "Jalan Surya Sumantri",
        "role": "virtual",
        "mode": "bus"
      }
    },
    {
      "type": "Feature",
      "geometry": {
        "type": "Point",
        "coordinates": [
          107.581452,
          -6.8853263
        ]
      },
      "properties": {
        "id": "v_107.581452_-6.885326",
        "name": "Jalan Surya Sumantri",
        "role": "virtual",
        "mode": "bus"
      }
    },
    {
      "type": "Feature",
      "geometry": {
        "type": "Point",
        "coordinates": [
          107.5814137,
          -6.8867428
        ]
      },
      "properties": {
        "id": "v_107.581414_-6.886743",
        "name": "Jalan Surya Sumantri",
        "role": "virtual",
        "mode": "bus"
      }
    },
    {
      "type": "Feature",
      "geometry": {
        "type": "Point",
        "coordinates": [
          107.5814582,
          -6.888877
        ]
      },
      "properties": {
        "id": "v_107.581458_-6.888877",
        "name": "Jalan Surya Sumantri",
        "role": "virtual",
        "mode": "bus"
      }
    },
    {
      "type": "Feature",
      "geometry": {
        "type": "Point",
        "coordinates": [
          107.5815452,
          -6.8903052
        ]
      },
      "properties": {
        "id": "v_107.581545_-6.890305",
        "name": "Jalan Surya Sumantri",
        "role": "virtual",
        "mode": "bus"
      }
    },
    {
      "type": "Feature",
      "geometry": {
        "type": "Point",
        "coordinates": [
          107.581475,
          -6.8919045
        ]
      },
      "properties": {
        "id": "v_107.581475_-6.891904",
        "name": "Jalan terdekat",
        "role": "virtual",
        "mode": "bus"
      }
    },
    {
      "type": "Feature",
      "geometry": {
        "type": "Point",
        "coordinates": [
          107.5829072,
          -6.8922539
        ]
      },
      "properties": {
        "id": "1658426541",
        "name": "BPJS Pasteur",
        "role": "stop",
        "mode": "bus"
      }
    },
    {
      "type": "Feature",
      "geometry": {
        "type": "Point",
        "coordinates": [
          107.5849478,
          -6.8925604
        ]
      },
      "properties": {
        "id": "12013144935",
        "name": "Mall d'Botanica",
        "role": "stop",
        "mode": "bus"
      }
    },
    {
      "type": "Feature",
      "geometry": {
        "type": "Point",
        "coordinates": [
          107.5856805,
          -6.8929291
        ]
      },
      "properties": {
        "id": "2958261155",
        "name": "Djundjunan 3",
        "role": "stop",
        "mode": "bus"
      }
    },
    {
      "type": "Feature",
      "geometry": {
        "type": "Point",
        "coordinates": [
          107.5869911,
          -6.8938819
        ]
      },
      "properties": {
        "id": "v_107.586991_-6.893882",
        "name": "Jalan Dr. Djunjunan",
        "role": "virtual",
        "mode": "bus"
      }
    },
    {
      "type": "Feature",
      "geometry": {
        "type": "Point",
        "coordinates": [
          107.5883918,
          -6.8948914
        ]
      },
      "properties": {
        "id": "12628813992",
        "name": "Griya Pasteur 2",
        "role": "stop",
        "mode": "bus"
      }
    },
    {
      "type": "Feature",
      "geometry": {
        "type": "Point",
        "coordinates": [
          107.5895178,
          -6.8957186
        ]
      },
      "properties": {
        "id": "v_107.589518_-6.895719",
        "name": "Jalan Dr. Djunjunan",
        "role": "virtual",
        "mode": "bus"
      }
    },
    {
      "type": "Feature",
      "geometry": {
        "type": "Point",
        "coordinates": [
          107.5907946,
          -6.8964009
        ]
      },
      "properties": {
        "id": "v_107.590795_-6.896401",
        "name": "Jalan Dr. Djunjunan",
        "role": "virtual",
        "mode": "bus"
      }
    },
    {
      "type": "Feature",
      "geometry": {
        "type": "Point",
        "coordinates": [
          107.5921671,
          -6.8971698
        ]
      },
      "properties": {
        "id": "v_107.592167_-6.897170",
        "name": "Jalan Dr. Djunjunan",
        "role": "virtual",
        "mode": "bus"
      }
    },
    {
      "type": "Feature",
      "geometry": {
        "type": "Point",
        "coordinates": [
          107.5935309,
          -6.8982345
        ]
      },
      "properties": {
        "id": "v_107.593531_-6.898235",
        "name": "Jalan Dr. Djunjunan",
        "role": "virtual",
        "mode": "bus"
      }
    },
    {
      "type": "Feature",
      "geometry": {
        "type": "Point",
        "coordinates": [
          107.5947669,
          -6.8992747
        ]
      },
      "properties": {
        "id": "v_107.594767_-6.899275",
        "name": "Jalan Dr. Djunjunan",
        "role": "virtual",
        "mode": "bus"
      }
    },
    {
      "type": "Feature",
      "geometry": {
        "type": "Point",
        "coordinates": [
          107.5960113,
          -6.9000567
        ]
      },
      "properties": {
        "id": "v_107.596011_-6.900057",
        "name": "Jalan Dr. Djunjunan",
        "role": "virtual",
        "mode": "bus"
      }
    },
    {
      "type": "Feature",
      "geometry": {
        "type": "Point",
        "coordinates": [
          107.5974649,
          -6.9013037
        ]
      },
      "properties": {
        "id": "12809082512",
        "name": "Seberang IWU",
        "role": "stop",
        "mode": "bus"
      }
    },
    {
      "type": "Feature",
      "geometry": {
        "type": "Point",
        "coordinates": [
          107.5975385,
          -6.9033942
        ]
      },
      "properties": {
        "id": "12809082511",
        "name": "Seberang BPK Penabur",
        "role": "stop",
        "mode": "bus"
      }
    },
    {
      "type": "Feature",
      "geometry": {
        "type": "Point",
        "coordinates": [
          107.5976013,
          -6.9054493
        ]
      },
      "properties": {
        "id": "3377321687",
        "name": "Depan Istana Plaza",
        "role": "stop",
        "mode": "bus"
      }
    },
    {
      "type": "Feature",
      "geometry": {
        "type": "Point",
        "coordinates": [
          107.5992067,
          -6.9068065
        ]
      },
      "properties": {
        "id": "2012498684",
        "name": "Taman Adipura",
        "role": "stop",
        "mode": "bus"
      }
    },
    {
      "type": "Feature",
      "geometry": {
        "type": "Point",
        "coordinates": [
          107.599992,
          -6.906861
        ]
      },
      "properties": {
        "id": "11138593915",
        "name": "SDN Pajajaran",
        "role": "stop",
        "mode": "bus"
      }
    },
    {
      "type": "Feature",
      "geometry": {
        "type": "Point",
        "coordinates": [
          107.6019252,
          -6.9070015
        ]
      },
      "properties": {
        "id": "25500626",
        "name": "GOR Padjajaran",
        "role": "stop",
        "mode": "bus"
      }
    },
    {
      "type": "Feature",
      "geometry": {
        "type": "Point",
        "coordinates": [
          107.6044661,
          -6.9077123
        ]
      },
      "properties": {
        "id": "3376669069",
        "name": "Kimia Farma",
        "role": "stop",
        "mode": "bus"
      }
    },
    {
      "type": "Feature",
      "geometry": {
        "type": "Point",
        "coordinates": [
          107.6044333,
          -6.9091247
        ]
      },
      "properties": {
        "id": "v_107.604433_-6.909125",
        "name": "Jalan Cicendo",
        "role": "virtual",
        "mode": "bus"
      }
    },
    {
      "type": "Feature",
      "geometry": {
        "type": "Point",
        "coordinates": [
          107.6040749,
          -6.9106747
        ]
      },
      "properties": {
        "id": "v_107.604075_-6.910675",
        "name": "Jalan Cicendo",
        "role": "virtual",
        "mode": "bus"
      }
    },
    {
      "type": "Feature",
      "geometry": {
        "type": "Point",
        "coordinates": [
          107.6029303,
          -6.9125954
        ]
      },
      "properties": {
        "id": "293384756",
        "name": "Stasiun Bandung",
        "role": "stop",
        "mode": "bus"
      }
    },
    {
      "type": "Feature",
      "geometry": {
        "type": "Point",
        "coordinates": [
          107.6007223,
          -6.9124771
        ]
      },
      "properties": {
        "id": "12806120204",
        "name": "Haji Mesri",
        "role": "stop",
        "mode": "bus"
      }
    },
    {
      "type": "Feature",
      "geometry": {
        "type": "Point",
        "coordinates": [
          107.5990408,
          -6.912374
        ]
      },
      "properties": {
        "id": "v_107.599041_-6.912374",
        "name": "Jalan Kebon Kawung",
        "role": "virtual",
        "mode": "bus"
      }
    },
    {
      "type": "Feature",
      "geometry": {
        "type": "Point",
        "coordinates": [
          107.598065,
          -6.9133326
        ]
      },
      "properties": {
        "id": "v_107.598065_-6.913333",
        "name": "Jalan HOS. Cokroaminoto",
        "role": "virtual",
        "mode": "bus"
      }
    },
    {
      "type": "Feature",
      "geometry": {
        "type": "Point",
        "coordinates": [
          107.5981172,
          -6.9147779
        ]
      },
      "properties": {
        "id": "v_107.598117_-6.914778",
        "name": "Jalan HOS. Cokroaminoto",
        "role": "virtual",
        "mode": "bus"
      }
    },
    {
      "type": "Feature",
      "geometry": {
        "type": "Point",
        "coordinates": [
          107.5988546,
          -6.916282
        ]
      },
      "properties": {
        "id": "25434237",
        "name": "GKI Kebonjati",
        "role": "stop",
        "mode": "bus"
      }
    },
    {
      "type": "Feature",
      "geometry": {
        "type": "Point",
        "coordinates": [
          107.599627,
          -6.9162422
        ]
      },
      "properties": {
        "id": "11735248674",
        "name": "SMA Pasundan",
        "role": "stop",
        "mode": "bus"
      }
    },
    {
      "type": "Feature",
      "geometry": {
        "type": "Point",
        "coordinates": [
          107.6024001,
          -6.9161478
        ]
      },
      "properties": {
        "id": "1013407725",
        "name": "Stasiun Hall",
        "role": "stop_exit_only",
        "mode": "bus"
      }
    }
  ]
}