{
  "type": "FeatureCollection",
  "features": [
    {
      "type": "Feature",
      "geometry": {
        "type": "Point",
        "coordinates": [
          107.5749699,
          -6.8827073
        ]
      },
      "properties": {
        "id": "1585594342",
        "name": "Rusun Sarijadi",
        "role": "stop_entry_only",
        "mode": "bus"
      }
    },
    {
      "type": "Feature",
      "geometry": {
        "type": "Point",
        "coordinates": [
          107.578425,
          -6.8816653
        ]
      },
      "properties": {
        "id": "12628813986",
        "name": "Sarijadi",
        "role": "stop",
        "mode": "bus"
      }
    },
    {
      "type": "Feature",
      "geometry": {
        "type": "Point",
        "coordinates": [
          107.5787258,
          -6.8813034
        ]
      },
      "properties": {
        "id": "12628813987",
        "name": "Lemahneundeut",
        "role": "stop",
        "mode": "bus"
      }
    },
    {
      "type": "Feature",
      "geometry": {
        "type": "Point",
        "coordinates": [
          107.5814944,
          -6.8821984
        ]
      },
      "properties": {
        "id": "12628813990",
        "name": "Setrasari",
        "role": "stop",
        "mode": "bus"
      }
    },
    {
      "type": "Feature",
      "geometry": {
        "type": "Point",
        "coordinates": [
          107.5814137,
          -6.8867428
        ]
      },
      "properties": {
        "id": "v_107.581414_-6.886743",
        "name": "Jalan Surya Sumantri",
        "role": "virtual",
        "mode": "bus"
      }
    },
    {
      "type": "Feature",
      "geometry": {
        "type": "Point",
        "coordinates": [
          107.5829072,
          -6.8922539
        ]
      },
      "properties": {
        "id": "1658426541",
        "name": "BPJS Pasteur",
        "role": "stop",
        "mode": "bus"
      }
    },
    {
      "type": "Feature",
      "geometry": {
        "type": "Point",
        "coordinates": [
          107.5849478,
          -6.8925604
        ]
      },
      "properties": {
        "id": "12013144935",
        "name": "Mall d'Botanica",
        "role": "stop",
        "mode": "bus"
      }
    },
    {
      "type": "Feature",
      "geometry": {
        "type": "Point",
        "coordinates": [
          107.5856805,
          -6.8929291
        ]
      },
      "properties": {
        "id": "2958261155",
        "name": "Djundjunan 3",
        "role": "stop",
        "mode": "bus"
      }
    },
    {
      "type": "Feature",
      "geometry": {
        "type": "Point",
        "coordinates": [
          107.5883918,
          -6.8948914
        ]
      },
      "properties": {
        "id": "12628813992",
        "name": "Griya Pasteur 2",
        "role": "stop",
        "mode": "bus"
      }
    },
    {
      "type": "Feature",
      "geometry": {
        "type": "Point",
        "coordinates": [
          107.5924064,
          -6.8973127
        ]
      },
      "properties": {
        "id": "v_107.592406_-6.897313",
        "name": "Jalan Dr. Djunjunan",
        "role": "virtual",
        "mode": "bus"
      }
    },
    {
      "type": "Feature",
      "geometry": {
        "type": "Point",
        "coordinates": [
          107.5974649,
          -6.9013037
        ]
      },
      "properties": {
        "id": "12809082512",
        "name": "Seberang IWU",
        "role": "stop",
        "mode": "bus"
      }
    },
    {
      "type": "Feature",
      "geometry": {
        "type": "Point",
        "coordinates": [
          107.5975385,
          -6.9033942
        ]
      },
      "properties": {
        "id": "12809082511",
        "name": "Seberang BPK Penabur",
        "role": "stop",
        "mode": "bus"
      }
    },
    {
      "type": "Feature",
      "geometry": {
        "type": "Point",
        "coordinates": [
          107.5976013,
          -6.9054493
        ]
      },
      "properties": {
        "id": "3377321687",
        "name": "Depan Istana Plaza",
        "role": "stop",
        "mode": "bus"
      }
    },
    {
      "type": "Feature",
      "geometry": {
        "type": "Point",
        "coordinates": [
          107.5992067,
          -6.9068065
        ]
      },
      "properties": {
        "id": "2012498684",
        "name": "Taman Adipura",
        "role": "stop",
        "mode": "bus"
      }
    },
    {
      "type": "Feature",
      "geometry": {
        "type": "Point",
        "coordinates": [
          107.599992,
          -6.906861
        ]
      },
      "properties": {
        "id": "11138593915",
        "name": "SDN Pajajaran",
        "role": "stop",
        "mode": "bus"
      }
    },
    {
      "type": "Feature",
      "geometry": {
        "type": "Point",
        "coordinates": [
          107.6019252,
          -6.9070015
        ]
      },
      "properties": {
        "id": "25500626",
        "name": "GOR Padjajaran",
        "role": "stop",
        "mode": "bus"
      }
    },
    {
      "type": "Feature",
      "geometry": {
        "type": "Point",
        "coordinates": [
          107.6044661,
          -6.9077123
        ]
      },
      "properties": {
        "id": "3376669069",
        "name": "Kimia Farma",
        "role": "stop",
        "mode": "bus"
      }
    },
    {
      "type": "Feature",
      "geometry": {
        "type": "Point",
        "coordinates": [
          107.6029303,
          -6.9125954
        ]
      },
      "properties": {
        "id": "293384756",
        "name": "Stasiun Bandung",
        "role": "stop",
        "mode": "bus"
      }
    },
    {
      "type": "Feature",
      "geometry": {
        "type": "Point",
        "coordinates": [
          107.6007223,
          -6.9124771
        ]
      },
      "properties": {
        "id": "12806120204",
        "name": "Haji Mesri",
        "role": "stop",
        "mode": "bus"
      }
    },
    {
      "type": "Feature",
      "geometry": {
        "type": "Point",
        "coordinates": [
          107.5988546,
          -6.916282
        ]
      },
      "properties": {
        "id": "25434237",
        "name": "GKI Kebonjati",
        "role": "stop",
        "mode": "bus"
      }
    },
    {
      "type": "Feature",
      "geometry": {
        "type": "Point",
        "coordinates": [
          107.599627,
          -6.9162422
        ]
      },
      "properties": {
        "id": "11735248674",
        "name": "SMA Pasundan",
        "role": "stop",
        "mode": "bus"
      }
    },
    {
      "type": "Feature",
      "geometry": {
        "type": "Point",
        "coordinates": [
          107.6024001,
          -6.9161478
        ]
      },
      "properties": {
        "id": "1013407725",
        "name": "Stasiun Hall",
        "role": "stop_exit_only",
        "mode": "bus"
      }
    }
  ]
}