{
  "type": "FeatureCollection",
  "features": [
    {
      "type": "Feature",
      "geometry": {
        "type": "Point",
        "coordinates": [
          107.6144033,
          -6.8948409
        ]
      },
      "properties": {
        "id": "12637472327",
        "name": "Surya Kencana",
        "role": "stop_entry_only",
        "isReal": true,
        "mode": "bus"
      }
    },
    {
      "type": "Feature",
      "geometry": {
        "type": "Point",
        "coordinates": [
          107.6161542,
          -6.8979225
        ]
      },
      "properties": {
        "id": "11707030826",
        "name": "Panatayudha A",
        "role": "stop",
        "isReal": true,
        "mode": "bus"
      }
    },
    {
      "type": "Feature",
      "geometry": {
        "type": "Point",
        "coordinates": [
          107.6179657,
          -6.8992842
        ]
      },
      "properties": {
        "id": "1660289593",
        "name": "Gasibu",
        "role": "stop",
        "isReal": true,
        "mode": "bus"
      }
    },
    {
      "type": "Feature",
      "geometry": {
        "type": "Point",
        "coordinates": [
          107.6204436,
          -6.89928
        ]
      },
      "properties": {
        "id": "12806309232",
        "name": "Jalan Merak",
        "role": "stop",
        "isReal": true,
        "mode": "bus"
      }
    },
    {
      "type": "Feature",
      "geometry": {
        "type": "Point",
        "coordinates": [
          107.6227599,
          -6.8992307
        ]
      },
      "properties": {
        "id": "12628813998",
        "name": "Distan Jabar",
        "role": "stop",
        "isReal": true,
        "mode": "bus"
      }
    },
    {
      "type": "Feature",
      "geometry": {
        "type": "Point",
        "coordinates": [
          107.6234921,
          -6.8992266
        ]
      },
      "properties": {
        "id": "12814453796",
        "name": "Jalan Gagak",
        "role": "stop",
        "isReal": true,
        "mode": "bus"
      }
    },
    {
      "type": "Feature",
      "geometry": {
        "type": "Point",
        "coordinates": [
          107.6259835,
          -6.8992435
        ]
      },
      "properties": {
        "id": "5832220640",
        "name": "PUSDAI",
        "role": "stop",
        "isReal": true,
        "mode": "bus"
      }
    },
    {
      "type": "Feature",
      "geometry": {
        "type": "Point",
        "coordinates": [
          107.6285873,
          -6.8998503
        ]
      },
      "properties": {
        "id": "12628814000",
        "name": "Dapen Telkom",
        "role": "stop",
        "isReal": true,
        "mode": "bus"
      }
    },
    {
      "type": "Feature",
      "geometry": {
        "type": "Point",
        "coordinates": [
          107.6312754,
          -6.8988684
        ]
      },
      "properties": {
        "id": "12814754607",
        "name": "Seberang Imigrasi Bandung",
        "role": "stop",
        "isReal": true,
        "mode": "bus"
      }
    },
    {
      "type": "Feature",
      "geometry": {
        "type": "Point",
        "coordinates": [
          107.6321413,
          -6.8983546
        ]
      },
      "properties": {
        "id": "12628835702",
        "name": "Jalaprang",
        "role": "stop",
        "isReal": true,
        "mode": "bus"
      }
    },
    {
      "type": "Feature",
      "geometry": {
        "type": "Point",
        "coordinates": [
          107.6336231,
          -6.897911
        ]
      },
      "properties": {
        "id": "virtual_107.6336_-6.8979",
        "name": "Jalan Surapati",
        "role": "virtual",
        "isReal": false,
        "mode": "bus"
      }
    },
    {
      "type": "Feature",
      "geometry": {
        "type": "Point",
        "coordinates": [
          107.6362093,
          -6.8982483
        ]
      },
      "properties": {
        "id": "12013144934",
        "name": "ITENAS",
        "role": "stop",
        "isReal": true,
        "mode": "bus"
      }
    },
    {
      "type": "Feature",
      "geometry": {
        "type": "Point",
        "coordinates": [
          107.6370787,
          -6.8984458
        ]
      },
      "properties": {
        "id": "5832220656",
        "name": "Sukasenang Raya 2",
        "role": "stop",
        "isReal": true,
        "mode": "bus"
      }
    },
    {
      "type": "Feature",
      "geometry": {
        "type": "Point",
        "coordinates": [
          107.6378565,
          -6.8986302
        ]
      },
      "properties": {
        "id": "12806309238",
        "name": "STIE Ekuitas",
        "role": "stop",
        "isReal": true,
        "mode": "bus"
      }
    },
    {
      "type": "Feature",
      "geometry": {
        "type": "Point",
        "coordinates": [
          107.6404383,
          -6.8992417
        ]
      },
      "properties": {
        "id": "12628835705",
        "name": "Sekolah Pribadi",
        "role": "stop",
        "isReal": true,
        "mode": "bus"
      }
    },
    {
      "type": "Feature",
      "geometry": {
        "type": "Point",
        "coordinates": [
          107.6421976,
          -6.8996594
        ]
      },
      "properties": {
        "id": "virtual_107.6422_-6.8997",
        "name": "Jalan PH. H. Mustofa",
        "role": "virtual",
        "isReal": false,
        "mode": "bus"
      }
    },
    {
      "type": "Feature",
      "geometry": {
        "type": "Point",
        "coordinates": [
          107.6439328,
          -6.9000256
        ]
      },
      "properties": {
        "id": "5832221887",
        "name": "Sukapada",
        "role": "stop",
        "isReal": true,
        "mode": "bus"
      }
    },
    {
      "type": "Feature",
      "geometry": {
        "type": "Point",
        "coordinates": [
          107.64542695,
          -6.9004686
        ]
      },
      "properties": {
        "id": "virtual_107.6454_-6.9005",
        "name": "Jalan terdekat",
        "role": "virtual",
        "isReal": false,
        "mode": "bus"
      }
    },
    {
      "type": "Feature",
      "geometry": {
        "type": "Point",
        "coordinates": [
          107.64718984999999,
          -6.9013424
        ]
      },
      "properties": {
        "id": "virtual_107.6472_-6.9013",
        "name": "Jalan terdekat",
        "role": "virtual",
        "isReal": false,
        "mode": "bus"
      }
    },
    {
      "type": "Feature",
      "geometry": {
        "type": "Point",
        "coordinates": [
          107.64997142499999,
          -6.90174955
        ]
      },
      "properties": {
        "id": "virtual_107.6500_-6.9017",
        "name": "Jalan terdekat",
        "role": "virtual",
        "isReal": false,
        "mode": "bus"
      }
    },
    {
      "type": "Feature",
      "geometry": {
        "type": "Point",
        "coordinates": [
          107.6525276,
          -6.9018908
        ]
      },
      "properties": {
        "id": "12628835709",
        "name": "Surapati Core",
        "role": "stop",
        "isReal": true,
        "mode": "bus"
      }
    },
    {
      "type": "Feature",
      "geometry": {
        "type": "Point",
        "coordinates": [
          107.6551205,
          -6.9020246
        ]
      },
      "properties": {
        "id": "virtual_107.6551_-6.9020",
        "name": "Jalan PH. H. Mustofa",
        "role": "virtual",
        "isReal": false,
        "mode": "bus"
      }
    },
    {
      "type": "Feature",
      "geometry": {
        "type": "Point",
        "coordinates": [
          107.6567969,
          -6.9021302
        ]
      },
      "properties": {
        "id": "5832221935",
        "name": "Seberang Terminal Cicaheum",
        "role": "stop",
        "isReal": true,
        "mode": "bus"
      }
    },
    {
      "type": "Feature",
      "geometry": {
        "type": "Point",
        "coordinates": [
          107.660220475,
          -6.9022466
        ]
      },
      "properties": {
        "id": "virtual_107.6602_-6.9022",
        "name": "Jalan terdekat",
        "role": "virtual",
        "isReal": false,
        "mode": "bus"
      }
    },
    {
      "type": "Feature",
      "geometry": {
        "type": "Point",
        "coordinates": [
          107.661478,
          -6.903514299999999
        ]
      },
      "properties": {
        "id": "virtual_107.6615_-6.9035",
        "name": "Jalan terdekat",
        "role": "virtual",
        "isReal": false,
        "mode": "bus"
      }
    },
    {
      "type": "Feature",
      "geometry": {
        "type": "Point",
        "coordinates": [
          107.66398579999999,
          -6.9038685
        ]
      },
      "properties": {
        "id": "virtual_107.6640_-6.9039",
        "name": "Jalan terdekat",
        "role": "virtual",
        "isReal": false,
        "mode": "bus"
      }
    },
    {
      "type": "Feature",
      "geometry": {
        "type": "Point",
        "coordinates": [
          107.6656526,
          -6.9040466
        ]
      },
      "properties": {
        "id": "12806309242",
        "name": "SDN Cikadut",
        "role": "stop",
        "isReal": true,
        "mode": "bus"
      }
    },
    {
      "type": "Feature",
      "geometry": {
        "type": "Point",
        "coordinates": [
          107.6673559,
          -6.9041911
        ]
      },
      "properties": {
        "id": "virtual_107.6674_-6.9042",
        "name": "Jalan Abdul Haris Nasution",
        "role": "virtual",
        "isReal": false,
        "mode": "bus"
      }
    },
    {
      "type": "Feature",
      "geometry": {
        "type": "Point",
        "coordinates": [
          107.6703958,
          -6.9042415
        ]
      },
      "properties": {
        "id": "virtual_107.6704_-6.9042",
        "name": "Jalan Abdul Haris Nasution",
        "role": "virtual",
        "isReal": false,
        "mode": "bus"
      }
    },
    {
      "type": "Feature",
      "geometry": {
        "type": "Point",
        "coordinates": [
          107.6718533,
          -6.9044513
        ]
      },
      "properties": {
        "id": "12806309246",
        "name": "Gang H.M. Syarief",
        "role": "stop",
        "isReal": true,
        "mode": "bus"
      }
    },
    {
      "type": "Feature",
      "geometry": {
        "type": "Point",
        "coordinates": [
          107.6742142,
          -6.9046579
        ]
      },
      "properties": {
        "id": "virtual_107.6742_-6.9047",
        "name": "Jalan Abdul Haris Nasution",
        "role": "virtual",
        "isReal": false,
        "mode": "bus"
      }
    },
    {
      "type": "Feature",
      "geometry": {
        "type": "Point",
        "coordinates": [
          107.6759315,
          -6.904729
        ]
      },
      "properties": {
        "id": "12806309248",
        "name": "Borma Pasirimpun",
        "role": "stop",
        "isReal": true,
        "mode": "bus"
      }
    },
    {
      "type": "Feature",
      "geometry": {
        "type": "Point",
        "coordinates": [
          107.67775032,
          -6.9047896799999995
        ]
      },
      "properties": {
        "id": "virtual_107.6778_-6.9048",
        "name": "Jalan terdekat",
        "role": "virtual",
        "isReal": false,
        "mode": "bus"
      }
    },
    {
      "type": "Feature",
      "geometry": {
        "type": "Point",
        "coordinates": [
          107.67948532,
          -6.90499462
        ]
      },
      "properties": {
        "id": "virtual_107.6795_-6.9050",
        "name": "Jalan terdekat",
        "role": "virtual",
        "isReal": false,
        "mode": "bus"
      }
    },
    {
      "type": "Feature",
      "geometry": {
        "type": "Point",
        "coordinates": [
          107.68151895999999,
          -6.90529454
        ]
      },
      "properties": {
        "id": "virtual_107.6815_-6.9053",
        "name": "Jalan terdekat",
        "role": "virtual",
        "isReal": false,
        "mode": "bus"
      }
    },
    {
      "type": "Feature",
      "geometry": {
        "type": "Point",
        "coordinates": [
          107.68390376,
          -6.90632042
        ]
      },
      "properties": {
        "id": "virtual_107.6839_-6.9063",
        "name": "Jalan terdekat",
        "role": "virtual",
        "isReal": false,
        "mode": "bus"
      }
    },
    {
      "type": "Feature",
      "geometry": {
        "type": "Point",
        "coordinates": [
          107.6864696,
          -6.9074116
        ]
      },
      "properties": {
        "id": "11047579524",
        "name": "UPTD Laboratorium Lingkungan Hidup",
        "role": "stop_exit_only",
        "isReal": true,
        "mode": "bus"
      }
    },
    {
      "type": "Feature",
      "geometry": {
        "type": "Point",
        "coordinates": [
          107.6880941,
          -6.908290766666666
        ]
      },
      "properties": {
        "id": "virtual_107.6881_-6.9083",
        "name": "Jalan terdekat",
        "role": "virtual",
        "isReal": false,
        "mode": "bus"
      }
    },
    {
      "type": "Feature",
      "geometry": {
        "type": "Point",
        "coordinates": [
          107.68923706666666,
          -6.9098272666666665
        ]
      },
      "properties": {
        "id": "virtual_107.6892_-6.9098",
        "name": "Jalan terdekat",
        "role": "virtual",
        "isReal": false,
        "mode": "bus"
      }
    },
    {
      "type": "Feature",
      "geometry": {
        "type": "Point",
        "coordinates": [
          107.69191845,
          -6.9124817499999995
        ]
      },
      "properties": {
        "id": "virtual_107.6919_-6.9125",
        "name": "Jalan terdekat",
        "role": "virtual",
        "isReal": false,
        "mode": "bus"
      }
    },
    {
      "type": "Feature",
      "geometry": {
        "type": "Point",
        "coordinates": [
          107.69592366666667,
          -6.913764366666666
        ]
      },
      "properties": {
        "id": "virtual_107.6959_-6.9138",
        "name": "Jalan terdekat",
        "role": "virtual",
        "isReal": false,
        "mode": "bus"
      }
    },
    {
      "type": "Feature",
      "geometry": {
        "type": "Point",
        "coordinates": [
          107.69938841666666,
          -6.9146671500000005
        ]
      },
      "properties": {
        "id": "virtual_107.6994_-6.9147",
        "name": "Jalan terdekat",
        "role": "virtual",
        "isReal": false,
        "mode": "bus"
      }
    },
    {
      "type": "Feature",
      "geometry": {
        "type": "Point",
        "coordinates": [
          107.6987998,
          -6.9176505
        ]
      },
      "properties": {
        "id": "virtual_107.6988_-6.9177",
        "name": "Jalan Rumah Sakit",
        "role": "virtual",
        "isReal": false,
        "mode": "bus"
      }
    },
    {
      "type": "Feature",
      "geometry": {
        "type": "Point",
        "coordinates": [
          107.69732981666667,
          -6.92178245
        ]
      },
      "properties": {
        "id": "virtual_107.6973_-6.9218",
        "name": "Jalan terdekat",
        "role": "virtual",
        "isReal": false,
        "mode": "bus"
      }
    },
    {
      "type": "Feature",
      "geometry": {
        "type": "Point",
        "coordinates": [
          107.69578343333333,
          -6.9248239
        ]
      },
      "properties": {
        "id": "virtual_107.6958_-6.9248",
        "name": "Jalan terdekat",
        "role": "virtual",
        "isReal": false,
        "mode": "bus"
      }
    },
    {
      "type": "Feature",
      "geometry": {
        "type": "Point",
        "coordinates": [
          107.6936852,
          -6.9304087
        ]
      },
      "properties": {
        "id": "virtual_107.6937_-6.9304",
        "name": "Jalan terdekat",
        "role": "virtual",
        "isReal": false,
        "mode": "bus"
      }
    },
    {
      "type": "Feature",
      "geometry": {
        "type": "Point",
        "coordinates": [
          107.69722603333334,
          -6.932462233333333
        ]
      },
      "properties": {
        "id": "virtual_107.6972_-6.9325",
        "name": "Jalan terdekat",
        "role": "virtual",
        "isReal": false,
        "mode": "bus"
      }
    },
    {
      "type": "Feature",
      "geometry": {
        "type": "Point",
        "coordinates": [
          107.69714125,
          -6.9347419666666665
        ]
      },
      "properties": {
        "id": "virtual_107.6971_-6.9347",
        "name": "Jalan terdekat",
        "role": "virtual",
        "isReal": false,
        "mode": "bus"
      }
    },
    {
      "type": "Feature",
      "geometry": {
        "type": "Point",
        "coordinates": [
          107.6972019,
          -6.9364151
        ]
      },
      "properties": {
        "id": "3780800108",
        "name": "Pasar Induk Gedebage",
        "role": "stop_exit_only",
        "isReal": true,
        "mode": "bus"
      }
    }
  ]
}