{
  "type": "FeatureCollection",
  "features": [
    {
      "type": "Feature",
      "geometry": {
        "type": "Point",
        "coordinates": [
          107.6144033,
          -6.8948409
        ]
      },
      "properties": {
        "id": "12637472327",
        "name": "Surya Kencana",
        "role": "stop_entry_only",
        "isReal": true,
        "mode": "bus"
      }
    },
    {
      "type": "Feature",
      "geometry": {
        "type": "Point",
        "coordinates": [
          107.6161542,
          -6.8979225
        ]
      },
      "properties": {
        "id": "11707030826",
        "name": "Panatayudha A",
        "role": "stop",
        "isReal": true,
        "mode": "bus"
      }
    },
    {
      "type": "Feature",
      "geometry": {
        "type": "Point",
        "coordinates": [
          107.6179657,
          -6.8992842
        ]
      },
      "properties": {
        "id": "1660289593",
        "name": "Gasibu",
        "role": "stop",
        "isReal": true,
        "mode": "bus"
      }
    },
    {
      "type": "Feature",
      "geometry": {
        "type": "Point",
        "coordinates": [
          107.6204436,
          -6.89928
        ]
      },
      "properties": {
        "id": "12806309232",
        "name": "Jalan Merak",
        "role": "stop",
        "isReal": true,
        "mode": "bus"
      }
    },
    {
      "type": "Feature",
      "geometry": {
        "type": "Point",
        "coordinates": [
          107.6227599,
          -6.8992307
        ]
      },
      "properties": {
        "id": "12628813998",
        "name": "Distan Jabar",
        "role": "stop",
        "isReal": true,
        "mode": "bus"
      }
    },
    {
      "type": "Feature",
      "geometry": {
        "type": "Point",
        "coordinates": [
          107.6234921,
          -6.8992266
        ]
      },
      "properties": {
        "id": "12814453796",
        "name": "Jalan Gagak",
        "role": "stop",
        "isReal": true,
        "mode": "bus"
      }
    },
    {
      "type": "Feature",
      "geometry": {
        "type": "Point",
        "coordinates": [
          107.6259835,
          -6.8992435
        ]
      },
      "properties": {
        "id": "5832220640",
        "name": "PUSDAI",
        "role": "stop",
        "isReal": true,
        "mode": "bus"
      }
    },
    {
      "type": "Feature",
      "geometry": {
        "type": "Point",
        "coordinates": [
          107.6285873,
          -6.8998503
        ]
      },
      "properties": {
        "id": "12628814000",
        "name": "Dapen Telkom",
        "role": "stop",
        "isReal": true,
        "mode": "bus"
      }
    },
    {
      "type": "Feature",
      "geometry": {
        "type": "Point",
        "coordinates": [
          107.6312754,
          -6.8988684
        ]
      },
      "properties": {
        "id": "12814754607",
        "name": "Seberang Imigrasi Bandung",
        "role": "stop",
        "isReal": true,
        "mode": "bus"
      }
    },
    {
      "type": "Feature",
      "geometry": {
        "type": "Point",
        "coordinates": [
          107.6321413,
          -6.8983546
        ]
      },
      "properties": {
        "id": "12628835702",
        "name": "Jalaprang",
        "role": "stop",
        "isReal": true,
        "mode": "bus"
      }
    },
    {
      "type": "Feature",
      "geometry": {
        "type": "Point",
        "coordinates": [
          107.6362093,
          -6.8982483
        ]
      },
      "properties": {
        "id": "12013144934",
        "name": "ITENAS",
        "role": "stop",
        "isReal": true,
        "mode": "bus"
      }
    },
    {
      "type": "Feature",
      "geometry": {
        "type": "Point",
        "coordinates": [
          107.6370787,
          -6.8984458
        ]
      },
      "properties": {
        "id": "5832220656",
        "name": "Sukasenang Raya 2",
        "role": "stop",
        "isReal": true,
        "mode": "bus"
      }
    },
    {
      "type": "Feature",
      "geometry": {
        "type": "Point",
        "coordinates": [
          107.6378565,
          -6.8986302
        ]
      },
      "properties": {
        "id": "12806309238",
        "name": "STIE Ekuitas",
        "role": "stop",
        "isReal": true,
        "mode": "bus"
      }
    },
    {
      "type": "Feature",
      "geometry": {
        "type": "Point",
        "coordinates": [
          107.6404383,
          -6.8992417
        ]
      },
      "properties": {
        "id": "12628835705",
        "name": "Sekolah Pribadi",
        "role": "stop",
        "isReal": true,
        "mode": "bus"
      }
    },
    {
      "type": "Feature",
      "geometry": {
        "type": "Point",
        "coordinates": [
          107.6439328,
          -6.9000256
        ]
      },
      "properties": {
        "id": "5832221887",
        "name": "Sukapada",
        "role": "stop",
        "isReal": true,
        "mode": "bus"
      }
    },
    {
      "type": "Feature",
      "geometry": {
        "type": "Point",
        "coordinates": [
          107.6525276,
          -6.9018908
        ]
      },
      "properties": {
        "id": "12628835709",
        "name": "Surapati Core",
        "role": "stop",
        "isReal": true,
        "mode": "bus"
      }
    },
    {
      "type": "Feature",
      "geometry": {
        "type": "Point",
        "coordinates": [
          107.6567969,
          -6.9021302
        ]
      },
      "properties": {
        "id": "5832221935",
        "name": "Seberang Terminal Cicaheum",
        "role": "stop",
        "isReal": true,
        "mode": "bus"
      }
    },
    {
      "type": "Feature",
      "geometry": {
        "type": "Point",
        "coordinates": [
          107.661478,
          -6.903514299999999
        ]
      },
      "properties": {
        "id": "virtual_107.6615_-6.9035",
        "name": "Jalan terdekat",
        "role": "virtual",
        "isReal": false,
        "mode": "bus"
      }
    },
    {
      "type": "Feature",
      "geometry": {
        "type": "Point",
        "coordinates": [
          107.6656526,
          -6.9040466
        ]
      },
      "properties": {
        "id": "12806309242",
        "name": "SDN Cikadut",
        "role": "stop",
        "isReal": true,
        "mode": "bus"
      }
    },
    {
      "type": "Feature",
      "geometry": {
        "type": "Point",
        "coordinates": [
          107.6718533,
          -6.9044513
        ]
      },
      "properties": {
        "id": "12806309246",
        "name": "Gang H.M. Syarief",
        "role": "stop",
        "isReal": true,
        "mode": "bus"
      }
    },
    {
      "type": "Feature",
      "geometry": {
        "type": "Point",
        "coordinates": [
          107.6759315,
          -6.904729
        ]
      },
      "properties": {
        "id": "12806309248",
        "name": "Borma Pasirimpun",
        "role": "stop",
        "isReal": true,
        "mode": "bus"
      }
    },
    {
      "type": "Feature",
      "geometry": {
        "type": "Point",
        "coordinates": [
          107.6810282,
          -6.90521455
        ]
      },
      "properties": {
        "id": "virtual_107.6810_-6.9052",
        "name": "Jalan terdekat",
        "role": "virtual",
        "isReal": false,
        "mode": "bus"
      }
    },
    {
      "type": "Feature",
      "geometry": {
        "type": "Point",
        "coordinates": [
          107.6864696,
          -6.9074116
        ]
      },
      "properties": {
        "id": "11047579524",
        "name": "UPTD Laboratorium Lingkungan Hidup",
        "role": "stop_exit_only",
        "isReal": true,
        "mode": "bus"
      }
    },
    {
      "type": "Feature",
      "geometry": {
        "type": "Point",
        "coordinates": [
          107.69191845,
          -6.9124817499999995
        ]
      },
      "properties": {
        "id": "virtual_107.6919_-6.9125",
        "name": "Jalan terdekat",
        "role": "virtual",
        "isReal": false,
        "mode": "bus"
      }
    },
    {
      "type": "Feature",
      "geometry": {
        "type": "Point",
        "coordinates": [
          107.6987998,
          -6.9176505
        ]
      },
      "properties": {
        "id": "virtual_107.6988_-6.9177",
        "name": "Jalan Rumah Sakit",
        "role": "virtual",
        "isReal": false,
        "mode": "bus"
      }
    },
    {
      "type": "Feature",
      "geometry": {
        "type": "Point",
        "coordinates": [
          107.6936852,
          -6.9304087
        ]
      },
      "properties": {
        "id": "virtual_107.6937_-6.9304",
        "name": "Jalan terdekat",
        "role": "virtual",
        "isReal": false,
        "mode": "bus"
      }
    },
    {
      "type": "Feature",
      "geometry": {
        "type": "Point",
        "coordinates": [
          107.6972019,
          -6.9364151
        ]
      },
      "properties": {
        "id": "3780800108",
        "name": "Pasar Induk Gedebage",
        "role": "stop_exit_only",
        "isReal": true,
        "mode": "bus"
      }
    }
  ]
}