{
  "type": "FeatureCollection",
  "features": [
    {
      "type": "Feature",
      "geometry": {
        "type": "Point",
        "coordinates": [
          107.6144033,
          -6.8948409
        ]
      },
      "properties": {
        "id": "12637472327",
        "name": "Surya Kencana",
        "role": "stop_entry_only",
        "mode": "bus"
      }
    },
    {
      "type": "Feature",
      "geometry": {
        "type": "Point",
        "coordinates": [
          107.6161542,
          -6.8979225
        ]
      },
      "properties": {
        "id": "11707030826",
        "name": "Panatayudha A",
        "role": "stop",
        "mode": "bus"
      }
    },
    {
      "type": "Feature",
      "geometry": {
        "type": "Point",
        "coordinates": [
          107.6179657,
          -6.8992842
        ]
      },
      "properties": {
        "id": "1660289593",
        "name": "Gasibu",
        "role": "stop",
        "mode": "bus"
      }
    },
    {
      "type": "Feature",
      "geometry": {
        "type": "Point",
        "coordinates": [
          107.6204436,
          -6.89928
        ]
      },
      "properties": {
        "id": "12806309232",
        "name": "Jalan Merak",
        "role": "stop",
        "mode": "bus"
      }
    },
    {
      "type": "Feature",
      "geometry": {
        "type": "Point",
        "coordinates": [
          107.6227599,
          -6.8992307
        ]
      },
      "properties": {
        "id": "12628813998",
        "name": "Distan Jabar",
        "role": "stop",
        "mode": "bus"
      }
    },
    {
      "type": "Feature",
      "geometry": {
        "type": "Point",
        "coordinates": [
          107.6234921,
          -6.8992266
        ]
      },
      "properties": {
        "id": "12814453796",
        "name": "Jalan Gagak",
        "role": "stop",
        "mode": "bus"
      }
    },
    {
      "type": "Feature",
      "geometry": {
        "type": "Point",
        "coordinates": [
          107.6259835,
          -6.8992435
        ]
      },
      "properties": {
        "id": "5832220640",
        "name": "PUSDAI",
        "role": "stop",
        "mode": "bus"
      }
    },
    {
      "type": "Feature",
      "geometry": {
        "type": "Point",
        "coordinates": [
          107.6285873,
          -6.8998503
        ]
      },
      "properties": {
        "id": "12628814000",
        "name": "Dapen Telkom",
        "role": "stop",
        "mode": "bus"
      }
    },
    {
      "type": "Feature",
      "geometry": {
        "type": "Point",
        "coordinates": [
          107.6312754,
          -6.8988684
        ]
      },
      "properties": {
        "id": "12814754607",
        "name": "Seberang Imigrasi Bandung",
        "role": "stop",
        "mode": "bus"
      }
    },
    {
      "type": "Feature",
      "geometry": {
        "type": "Point",
        "coordinates": [
          107.6321413,
          -6.8983546
        ]
      },
      "properties": {
        "id": "12628835702",
        "name": "Jalaprang",
        "role": "stop",
        "mode": "bus"
      }
    },
    {
      "type": "Feature",
      "geometry": {
        "type": "Point",
        "coordinates": [
          107.6362093,
          -6.8982483
        ]
      },
      "properties": {
        "id": "12013144934",
        "name": "ITENAS",
        "role": "stop",
        "mode": "bus"
      }
    },
    {
      "type": "Feature",
      "geometry": {
        "type": "Point",
        "coordinates": [
          107.6370787,
          -6.8984458
        ]
      },
      "properties": {
        "id": "5832220656",
        "name": "Sukasenang Raya 2",
        "role": "stop",
        "mode": "bus"
      }
    },
    {
      "type": "Feature",
      "geometry": {
        "type": "Point",
        "coordinates": [
          107.6378565,
          -6.8986302
        ]
      },
      "properties": {
        "id": "12806309238",
        "name": "STIE Ekuitas",
        "role": "stop",
        "mode": "bus"
      }
    },
    {
      "type": "Feature",
      "geometry": {
        "type": "Point",
        "coordinates": [
          107.6404383,
          -6.8992417
        ]
      },
      "properties": {
        "id": "12628835705",
        "name": "Sekolah Pribadi",
        "role": "stop",
        "mode": "bus"
      }
    },
    {
      "type": "Feature",
      "geometry": {
        "type": "Point",
        "coordinates": [
          107.6439328,
          -6.9000256
        ]
      },
      "properties": {
        "id": "5832221887",
        "name": "Sukapada",
        "role": "stop",
        "mode": "bus"
      }
    },
    {
      "type": "Feature",
      "geometry": {
        "type": "Point",
        "coordinates": [
          107.6469046,
          -6.9012136
        ]
      },
      "properties": {
        "id": "v_107.646905_-6.901214",
        "name": "Jalan PH. H. Mustofa",
        "role": "virtual",
        "mode": "bus"
      }
    },
    {
      "type": "Feature",
      "geometry": {
        "type": "Point",
        "coordinates": [
          107.6497732,
          -6.9017359
        ]
      },
      "properties": {
        "id": "v_107.649773_-6.901736",
        "name": "Jalan PH. H. Mustofa",
        "role": "virtual",
        "mode": "bus"
      }
    },
    {
      "type": "Feature",
      "geometry": {
        "type": "Point",
        "coordinates": [
          107.6525276,
          -6.9018908
        ]
      },
      "properties": {
        "id": "12628835709",
        "name": "Surapati Core",
        "role": "stop",
        "mode": "bus"
      }
    },
    {
      "type": "Feature",
      "geometry": {
        "type": "Point",
        "coordinates": [
          107.6567969,
          -6.9021302
        ]
      },
      "properties": {
        "id": "5832221935",
        "name": "Seberang Terminal Cicaheum",
        "role": "stop",
        "mode": "bus"
      }
    },
    {
      "type": "Feature",
      "geometry": {
        "type": "Point",
        "coordinates": [
          107.6595339,
          -6.9022128
        ]
      },
      "properties": {
        "id": "v_107.659534_-6.902213",
        "name": "Jalan Abdul Haris Nasution",
        "role": "virtual",
        "mode": "bus"
      }
    },
    {
      "type": "Feature",
      "geometry": {
        "type": "Point",
        "coordinates": [
          107.6623517,
          -6.9036867
        ]
      },
      "properties": {
        "id": "v_107.662352_-6.903687",
        "name": "Jalan Abdul Haris Nasution",
        "role": "virtual",
        "mode": "bus"
      }
    },
    {
      "type": "Feature",
      "geometry": {
        "type": "Point",
        "coordinates": [
          107.6656526,
          -6.9040466
        ]
      },
      "properties": {
        "id": "12806309242",
        "name": "SDN Cikadut",
        "role": "stop",
        "mode": "bus"
      }
    },
    {
      "type": "Feature",
      "geometry": {
        "type": "Point",
        "coordinates": [
          107.6718533,
          -6.9044513
        ]
      },
      "properties": {
        "id": "12806309246",
        "name": "Gang H.M. Syarief",
        "role": "stop",
        "mode": "bus"
      }
    },
    {
      "type": "Feature",
      "geometry": {
        "type": "Point",
        "coordinates": [
          107.6759315,
          -6.904729
        ]
      },
      "properties": {
        "id": "12806309248",
        "name": "Borma Pasirimpun",
        "role": "stop",
        "mode": "bus"
      }
    },
    {
      "type": "Feature",
      "geometry": {
        "type": "Point",
        "coordinates": [
          107.6786894,
          -6.904896
        ]
      },
      "properties": {
        "id": "v_107.678689_-6.904896",
        "name": "Jalan Abdul Haris Nasution",
        "role": "virtual",
        "mode": "bus"
      }
    },
    {
      "type": "Feature",
      "geometry": {
        "type": "Point",
        "coordinates": [
          107.6815606,
          -6.9053016
        ]
      },
      "properties": {
        "id": "v_107.681561_-6.905302",
        "name": "Jalan Abdul Haris Nasution",
        "role": "virtual",
        "mode": "bus"
      }
    },
    {
      "type": "Feature",
      "geometry": {
        "type": "Point",
        "coordinates": [
          107.6864696,
          -6.9074116
        ]
      },
      "properties": {
        "id": "11047579524",
        "name": "UPTD Laboratorium Lingkungan Hidup",
        "role": "stop_exit_only",
        "mode": "bus"
      }
    },
    {
      "type": "Feature",
      "geometry": {
        "type": "Point",
        "coordinates": [
          107.6888218,
          -6.9091822
        ]
      },
      "properties": {
        "id": "v_107.688822_-6.909182",
        "name": "Jalan Abdul Haris Nasution",
        "role": "virtual",
        "mode": "bus"
      }
    },
    {
      "type": "Feature",
      "geometry": {
        "type": "Point",
        "coordinates": [
          107.6904642,
          -6.9114295
        ]
      },
      "properties": {
        "id": "v_107.690464_-6.911429",
        "name": "Jalan Abdul Haris Nasution",
        "role": "virtual",
        "mode": "bus"
      }
    },
    {
      "type": "Feature",
      "geometry": {
        "type": "Point",
        "coordinates": [
          107.6932002,
          -6.9128981
        ]
      },
      "properties": {
        "id": "v_107.693200_-6.912898",
        "name": "Jalan Abdul Haris Nasution",
        "role": "virtual",
        "mode": "bus"
      }
    },
    {
      "type": "Feature",
      "geometry": {
        "type": "Point",
        "coordinates": [
          107.6966396,
          -6.9139937
        ]
      },
      "properties": {
        "id": "v_107.696640_-6.913994",
        "name": "Jalan Abdul Haris Nasution",
        "role": "virtual",
        "mode": "bus"
      }
    },
    {
      "type": "Feature",
      "geometry": {
        "type": "Point",
        "coordinates": [
          107.6993869,
          -6.9140921
        ]
      },
      "properties": {
        "id": "v_107.699387_-6.914092",
        "name": "Jalan Abdul Haris Nasution",
        "role": "virtual",
        "mode": "bus"
      }
    },
    {
      "type": "Feature",
      "geometry": {
        "type": "Point",
        "coordinates": [
          107.6990476,
          -6.9168421
        ]
      },
      "properties": {
        "id": "v_107.699048_-6.916842",
        "name": "Jalan Rumah Sakit",
        "role": "virtual",
        "mode": "bus"
      }
    },
    {
      "type": "Feature",
      "geometry": {
        "type": "Point",
        "coordinates": [
          107.6980602,
          -6.9194497
        ]
      },
      "properties": {
        "id": "v_107.698060_-6.919450",
        "name": "Jalan Rumah Sakit",
        "role": "virtual",
        "mode": "bus"
      }
    },
    {
      "type": "Feature",
      "geometry": {
        "type": "Point",
        "coordinates": [
          107.6972209,
          -6.9220427
        ]
      },
      "properties": {
        "id": "v_107.697221_-6.922043",
        "name": "Jalan Rumah Sakit",
        "role": "virtual",
        "mode": "bus"
      }
    },
    {
      "type": "Feature",
      "geometry": {
        "type": "Point",
        "coordinates": [
          107.6958313,
          -6.9247123
        ]
      },
      "properties": {
        "id": "v_107.695831_-6.924712",
        "name": "Jalan Rumah Sakit",
        "role": "virtual",
        "mode": "bus"
      }
    },
    {
      "type": "Feature",
      "geometry": {
        "type": "Point",
        "coordinates": [
          107.6945747,
          -6.9280103
        ]
      },
      "properties": {
        "id": "v_107.694575_-6.928010",
        "name": "Jalan Rumah Sakit",
        "role": "virtual",
        "mode": "bus"
      }
    },
    {
      "type": "Feature",
      "geometry": {
        "type": "Point",
        "coordinates": [
          107.6935668,
          -6.9307515
        ]
      },
      "properties": {
        "id": "v_107.693567_-6.930752",
        "name": "Jalan Rumah Sakit",
        "role": "virtual",
        "mode": "bus"
      }
    },
    {
      "type": "Feature",
      "geometry": {
        "type": "Point",
        "coordinates": [
          107.6961928,
          -6.9320421
        ]
      },
      "properties": {
        "id": "v_107.696193_-6.932042",
        "name": "Jalan terdekat",
        "role": "virtual",
        "mode": "bus"
      }
    },
    {
      "type": "Feature",
      "geometry": {
        "type": "Point",
        "coordinates": [
          107.6972019,
          -6.9364151
        ]
      },
      "properties": {
        "id": "3780800108",
        "name": "Pasar Induk Gedebage",
        "role": "stop_exit_only",
        "mode": "bus"
      }
    }
  ]
}