{
  "type": "FeatureCollection",
  "features": [
    {
      "type": "Feature",
      "geometry": {
        "type": "Point",
        "coordinates": [
          107.6144033,
          -6.8948409
        ]
      },
      "properties": {
        "id": "12637472327",
        "name": "Surya Kencana",
        "role": "stop_entry_only",
        "isReal": true,
        "mode": "bus"
      }
    },
    {
      "type": "Feature",
      "geometry": {
        "type": "Point",
        "coordinates": [
          107.6161542,
          -6.8979225
        ]
      },
      "properties": {
        "id": "11707030826",
        "name": "Panatayudha A",
        "role": "stop",
        "isReal": true,
        "mode": "bus"
      }
    },
    {
      "type": "Feature",
      "geometry": {
        "type": "Point",
        "coordinates": [
          107.6179657,
          -6.8992842
        ]
      },
      "properties": {
        "id": "1660289593",
        "name": "Gasibu",
        "role": "stop",
        "isReal": true,
        "mode": "bus"
      }
    },
    {
      "type": "Feature",
      "geometry": {
        "type": "Point",
        "coordinates": [
          107.6204436,
          -6.89928
        ]
      },
      "properties": {
        "id": "12806309232",
        "name": "Jalan Merak",
        "role": "stop",
        "isReal": true,
        "mode": "bus"
      }
    },
    {
      "type": "Feature",
      "geometry": {
        "type": "Point",
        "coordinates": [
          107.6227599,
          -6.8992307
        ]
      },
      "properties": {
        "id": "12628813998",
        "name": "Distan Jabar",
        "role": "stop",
        "isReal": true,
        "mode": "bus"
      }
    },
    {
      "type": "Feature",
      "geometry": {
        "type": "Point",
        "coordinates": [
          107.6234921,
          -6.8992266
        ]
      },
      "properties": {
        "id": "12814453796",
        "name": "Jalan Gagak",
        "role": "stop",
        "isReal": true,
        "mode": "bus"
      }
    },
    {
      "type": "Feature",
      "geometry": {
        "type": "Point",
        "coordinates": [
          107.6259835,
          -6.8992435
        ]
      },
      "properties": {
        "id": "5832220640",
        "name": "PUSDAI",
        "role": "stop",
        "isReal": true,
        "mode": "bus"
      }
    },
    {
      "type": "Feature",
      "geometry": {
        "type": "Point",
        "coordinates": [
          107.6285873,
          -6.8998503
        ]
      },
      "properties": {
        "id": "12628814000",
        "name": "Dapen Telkom",
        "role": "stop",
        "isReal": true,
        "mode": "bus"
      }
    },
    {
      "type": "Feature",
      "geometry": {
        "type": "Point",
        "coordinates": [
          107.6312754,
          -6.8988684
        ]
      },
      "properties": {
        "id": "12814754607",
        "name": "Seberang Imigrasi Bandung",
        "role": "stop",
        "isReal": true,
        "mode": "bus"
      }
    },
    {
      "type": "Feature",
      "geometry": {
        "type": "Point",
        "coordinates": [
          107.6321413,
          -6.8983546
        ]
      },
      "properties": {
        "id": "12628835702",
        "name": "Jalaprang",
        "role": "stop",
        "isReal": true,
        "mode": "bus"
      }
    },
    {
      "type": "Feature",
      "geometry": {
        "type": "Point",
        "coordinates": [
          107.6336231,
          -6.897911
        ]
      },
      "properties": {
        "id": "virtual_107.6336_-6.8979",
        "name": "Jalan Surapati",
        "role": "virtual",
        "isReal": false,
        "mode": "bus"
      }
    },
    {
      "type": "Feature",
      "geometry": {
        "type": "Point",
        "coordinates": [
          107.6362093,
          -6.8982483
        ]
      },
      "properties": {
        "id": "12013144934",
        "name": "ITENAS",
        "role": "stop",
        "isReal": true,
        "mode": "bus"
      }
    },
    {
      "type": "Feature",
      "geometry": {
        "type": "Point",
        "coordinates": [
          107.6370787,
          -6.8984458
        ]
      },
      "properties": {
        "id": "5832220656",
        "name": "Sukasenang Raya 2",
        "role": "stop",
        "isReal": true,
        "mode": "bus"
      }
    },
    {
      "type": "Feature",
      "geometry": {
        "type": "Point",
        "coordinates": [
          107.6378565,
          -6.8986302
        ]
      },
      "properties": {
        "id": "12806309238",
        "name": "STIE Ekuitas",
        "role": "stop",
        "isReal": true,
        "mode": "bus"
      }
    },
    {
      "type": "Feature",
      "geometry": {
        "type": "Point",
        "coordinates": [
          107.6404383,
          -6.8992417
        ]
      },
      "properties": {
        "id": "12628835705",
        "name": "Sekolah Pribadi",
        "role": "stop",
        "isReal": true,
        "mode": "bus"
      }
    },
    {
      "type": "Feature",
      "geometry": {
        "type": "Point",
        "coordinates": [
          107.6421976,
          -6.8996594
        ]
      },
      "properties": {
        "id": "virtual_107.6422_-6.8997",
        "name": "Jalan PH. H. Mustofa",
        "role": "virtual",
        "isReal": false,
        "mode": "bus"
      }
    },
    {
      "type": "Feature",
      "geometry": {
        "type": "Point",
        "coordinates": [
          107.6439328,
          -6.9000256
        ]
      },
      "properties": {
        "id": "5832221887",
        "name": "Sukapada",
        "role": "stop",
        "isReal": true,
        "mode": "bus"
      }
    },
    {
      "type": "Feature",
      "geometry": {
        "type": "Point",
        "coordinates": [
          107.64542695,
          -6.9004686
        ]
      },
      "properties": {
        "id": "virtual_107.6454_-6.9005",
        "name": "Jalan terdekat",
        "role": "virtual",
        "isReal": false,
        "mode": "bus"
      }
    },
    {
      "type": "Feature",
      "geometry": {
        "type": "Point",
        "coordinates": [
          107.64718984999999,
          -6.9013424
        ]
      },
      "properties": {
        "id": "virtual_107.6472_-6.9013",
        "name": "Jalan terdekat",
        "role": "virtual",
        "isReal": false,
        "mode": "bus"
      }
    },
    {
      "type": "Feature",
      "geometry": {
        "type": "Point",
        "coordinates": [
          107.64997142499999,
          -6.90174955
        ]
      },
      "properties": {
        "id": "virtual_107.6500_-6.9017",
        "name": "Jalan terdekat",
        "role": "virtual",
        "isReal": false,
        "mode": "bus"
      }
    },
    {
      "type": "Feature",
      "geometry": {
        "type": "Point",
        "coordinates": [
          107.6525276,
          -6.9018908
        ]
      },
      "properties": {
        "id": "12628835709",
        "name": "Surapati Core",
        "role": "stop",
        "isReal": true,
        "mode": "bus"
      }
    },
    {
      "type": "Feature",
      "geometry": {
        "type": "Point",
        "coordinates": [
          107.6551205,
          -6.9020246
        ]
      },
      "properties": {
        "id": "virtual_107.6551_-6.9020",
        "name": "Jalan PH. H. Mustofa",
        "role": "virtual",
        "isReal": false,
        "mode": "bus"
      }
    },
    {
      "type": "Feature",
      "geometry": {
        "type": "Point",
        "coordinates": [
          107.6567969,
          -6.9021302
        ]
      },
      "properties": {
        "id": "5832221935",
        "name": "Seberang Terminal Cicaheum",
        "role": "stop",
        "isReal": true,
        "mode": "bus"
      }
    },
    {
      "type": "Feature",
      "geometry": {
        "type": "Point",
        "coordinates": [
          107.65965766,
          -6.90221616
        ]
      },
      "properties": {
        "id": "virtual_107.6597_-6.9022",
        "name": "Jalan terdekat",
        "role": "virtual",
        "isReal": false,
        "mode": "bus"
      }
    },
    {
      "type": "Feature",
      "geometry": {
        "type": "Point",
        "coordinates": [
          107.66107744,
          -6.90309832
        ]
      },
      "properties": {
        "id": "virtual_107.6611_-6.9031",
        "name": "Jalan terdekat",
        "role": "virtual",
        "isReal": false,
        "mode": "bus"
      }
    },
    {
      "type": "Feature",
      "geometry": {
        "type": "Point",
        "coordinates": [
          107.6623753,
          -6.903689379999999
        ]
      },
      "properties": {
        "id": "virtual_107.6624_-6.9037",
        "name": "Jalan terdekat",
        "role": "virtual",
        "isReal": false,
        "mode": "bus"
      }
    },
    {
      "type": "Feature",
      "geometry": {
        "type": "Point",
        "coordinates": [
          107.6656526,
          -6.9040466
        ]
      },
      "properties": {
        "id": "12806309242",
        "name": "SDN Cikadut",
        "role": "stop",
        "isReal": true,
        "mode": "bus"
      }
    },
    {
      "type": "Feature",
      "geometry": {
        "type": "Point",
        "coordinates": [
          107.6673559,
          -6.9041911
        ]
      },
      "properties": {
        "id": "virtual_107.6674_-6.9042",
        "name": "Jalan Abdul Haris Nasution",
        "role": "virtual",
        "isReal": false,
        "mode": "bus"
      }
    },
    {
      "type": "Feature",
      "geometry": {
        "type": "Point",
        "coordinates": [
          107.6703958,
          -6.9042415
        ]
      },
      "properties": {
        "id": "virtual_107.6704_-6.9042",
        "name": "Jalan Abdul Haris Nasution",
        "role": "virtual",
        "isReal": false,
        "mode": "bus"
      }
    },
    {
      "type": "Feature",
      "geometry": {
        "type": "Point",
        "coordinates": [
          107.6718533,
          -6.9044513
        ]
      },
      "properties": {
        "id": "12806309246",
        "name": "Gang H.M. Syarief",
        "role": "stop",
        "isReal": true,
        "mode": "bus"
      }
    },
    {
      "type": "Feature",
      "geometry": {
        "type": "Point",
        "coordinates": [
          107.6742142,
          -6.9046579
        ]
      },
      "properties": {
        "id": "virtual_107.6742_-6.9047",
        "name": "Jalan Abdul Haris Nasution",
        "role": "virtual",
        "isReal": false,
        "mode": "bus"
      }
    },
    {
      "type": "Feature",
      "geometry": {
        "type": "Point",
        "coordinates": [
          107.6759315,
          -6.904729
        ]
      },
      "properties": {
        "id": "12806309248",
        "name": "Borma Pasirimpun",
        "role": "stop",
        "isReal": true,
        "mode": "bus"
      }
    },
    {
      "type": "Feature",
      "geometry": {
        "type": "Point",
        "coordinates": [
          107.67775032,
          -6.9047896799999995
        ]
      },
      "properties": {
        "id": "virtual_107.6778_-6.9048",
        "name": "Jalan terdekat",
        "role": "virtual",
        "isReal": false,
        "mode": "bus"
      }
    },
    {
      "type": "Feature",
      "geometry": {
        "type": "Point",
        "coordinates": [
          107.67948532,
          -6.90499462
        ]
      },
      "properties": {
        "id": "virtual_107.6795_-6.9050",
        "name": "Jalan terdekat",
        "role": "virtual",
        "isReal": false,
        "mode": "bus"
      }
    },
    {
      "type": "Feature",
      "geometry": {
        "type": "Point",
        "coordinates": [
          107.68151895999999,
          -6.90529454
        ]
      },
      "properties": {
        "id": "virtual_107.6815_-6.9053",
        "name": "Jalan terdekat",
        "role": "virtual",
        "isReal": false,
        "mode": "bus"
      }
    },
    {
      "type": "Feature",
      "geometry": {
        "type": "Point",
        "coordinates": [
          107.68390376,
          -6.90632042
        ]
      },
      "properties": {
        "id": "virtual_107.6839_-6.9063",
        "name": "Jalan terdekat",
        "role": "virtual",
        "isReal": false,
        "mode": "bus"
      }
    },
    {
      "type": "Feature",
      "geometry": {
        "type": "Point",
        "coordinates": [
          107.6864696,
          -6.9074116
        ]
      },
      "properties": {
        "id": "11047579524",
        "name": "UPTD Laboratorium Lingkungan Hidup",
        "role": "stop_exit_only",
        "isReal": true,
        "mode": "bus"
      }
    },
    {
      "type": "Feature",
      "geometry": {
        "type": "Point",
        "coordinates": [
          107.68789002857143,
          -6.908082
        ]
      },
      "properties": {
        "id": "virtual_107.6879_-6.9081",
        "name": "Jalan terdekat",
        "role": "virtual",
        "isReal": false,
        "mode": "bus"
      }
    },
    {
      "type": "Feature",
      "geometry": {
        "type": "Point",
        "coordinates": [
          107.68884922857143,
          -6.909222485714285
        ]
      },
      "properties": {
        "id": "virtual_107.6888_-6.9092",
        "name": "Jalan terdekat",
        "role": "virtual",
        "isReal": false,
        "mode": "bus"
      }
    },
    {
      "type": "Feature",
      "geometry": {
        "type": "Point",
        "coordinates": [
          107.69069395714286,
          -6.911694657142857
        ]
      },
      "properties": {
        "id": "virtual_107.6907_-6.9117",
        "name": "Jalan terdekat",
        "role": "virtual",
        "isReal": false,
        "mode": "bus"
      }
    },
    {
      "type": "Feature",
      "geometry": {
        "type": "Point",
        "coordinates": [
          107.69378338571428,
          -6.9130877
        ]
      },
      "properties": {
        "id": "virtual_107.6938_-6.9131",
        "name": "Jalan terdekat",
        "role": "virtual",
        "isReal": false,
        "mode": "bus"
      }
    },
    {
      "type": "Feature",
      "geometry": {
        "type": "Point",
        "coordinates": [
          107.69781715714286,
          -6.914051585714286
        ]
      },
      "properties": {
        "id": "virtual_107.6978_-6.9141",
        "name": "Jalan terdekat",
        "role": "virtual",
        "isReal": false,
        "mode": "bus"
      }
    },
    {
      "type": "Feature",
      "geometry": {
        "type": "Point",
        "coordinates": [
          107.6993740857143,
          -6.915212299999999
        ]
      },
      "properties": {
        "id": "virtual_107.6994_-6.9152",
        "name": "Jalan terdekat",
        "role": "virtual",
        "isReal": false,
        "mode": "bus"
      }
    },
    {
      "type": "Feature",
      "geometry": {
        "type": "Point",
        "coordinates": [
          107.6987998,
          -6.9176505
        ]
      },
      "properties": {
        "id": "virtual_107.6988_-6.9177",
        "name": "Jalan Rumah Sakit",
        "role": "virtual",
        "isReal": false,
        "mode": "bus"
      }
    },
    {
      "type": "Feature",
      "geometry": {
        "type": "Point",
        "coordinates": [
          107.69745022857143,
          -6.921472514285715
        ]
      },
      "properties": {
        "id": "virtual_107.6975_-6.9215",
        "name": "Jalan terdekat",
        "role": "virtual",
        "isReal": false,
        "mode": "bus"
      }
    },
    {
      "type": "Feature",
      "geometry": {
        "type": "Point",
        "coordinates": [
          107.69617742857142,
          -6.923970114285715
        ]
      },
      "properties": {
        "id": "virtual_107.6962_-6.9240",
        "name": "Jalan terdekat",
        "role": "virtual",
        "isReal": false,
        "mode": "bus"
      }
    },
    {
      "type": "Feature",
      "geometry": {
        "type": "Point",
        "coordinates": [
          107.69450619999999,
          -6.9281979
        ]
      },
      "properties": {
        "id": "virtual_107.6945_-6.9282",
        "name": "Jalan terdekat",
        "role": "virtual",
        "isReal": false,
        "mode": "bus"
      }
    },
    {
      "type": "Feature",
      "geometry": {
        "type": "Point",
        "coordinates": [
          107.69348412857143,
          -6.931037642857143
        ]
      },
      "properties": {
        "id": "virtual_107.6935_-6.9310",
        "name": "Jalan terdekat",
        "role": "virtual",
        "isReal": false,
        "mode": "bus"
      }
    },
    {
      "type": "Feature",
      "geometry": {
        "type": "Point",
        "coordinates": [
          107.6970332,
          -6.9330672714285715
        ]
      },
      "properties": {
        "id": "virtual_107.6970_-6.9331",
        "name": "Jalan terdekat",
        "role": "virtual",
        "isReal": false,
        "mode": "bus"
      }
    },
    {
      "type": "Feature",
      "geometry": {
        "type": "Point",
        "coordinates": [
          107.69714942857144,
          -6.934907971428571
        ]
      },
      "properties": {
        "id": "virtual_107.6971_-6.9349",
        "name": "Jalan terdekat",
        "role": "virtual",
        "isReal": false,
        "mode": "bus"
      }
    },
    {
      "type": "Feature",
      "geometry": {
        "type": "Point",
        "coordinates": [
          107.6972019,
          -6.9364151
        ]
      },
      "properties": {
        "id": "3780800108",
        "name": "Pasar Induk Gedebage",
        "role": "stop_exit_only",
        "isReal": true,
        "mode": "bus"
      }
    }
  ]
}