{"type":"FeatureCollection","features":[{"type":"Feature","geometry":{"type":"Point","coordinates":[107.6173056,-6.9719807]},"properties":{"id":3889011981,"bus":"yes","highway":"bus_stop","name":"Palasari Ceres","public_transport":"platform","route_ref":"6"}},{"type":"Feature","geometry":{"type":"Point","coordinates":[107.6083159,-6.945451]},"properties":{"id":10815837029,"alt_name":"Mohammad Toha","bus":"yes","highway":"bus_stop","name":"TK Kemala Bhayangkari","public_transport":"platform","route_ref":"3;6","shelter":"yes","source":"POI_WRI_Survey_2023","wheelchair":"no"}},{"type":"Feature","geometry":{"type":"Point","coordinates":[107.6055293,-6.9375952]},"properties":{"id":11690907978,"bus":"yes","highway":"bus_stop","image":"https://commons.wikimedia.org/wiki/File:HALTE_SIMPANG_M._TOHA.jpg","name":"Simpang Mohamad Toha Biddokkes","public_transport":"platform","ramp":"no","route_ref":"4;6","tactile_paving":"no","wheelchair":"no"}},{"type":"Feature","geometry":{"type":"Point","coordinates":[107.6330256,-6.9845251]},"properties":{"id":11876512404,"bus":"yes","highway":"bus_stop","name":"Borma Bojongsoang","public_transport":"platform","route_ref":"3;6"}},{"type":"Feature","geometry":{"type":"Point","coordinates":[107.6315849,-6.99904]},"properties":{"id":12628930750,"bus":"yes","highway":"bus_stop","name":"Pasar Baleendah B","public_transport":"platform","route_ref":"6"}},{"type":"Feature","geometry":{"type":"Point","coordinates":[107.656361,-7.0207779]},"properties":{"id":12628930756,"bus":"yes","highway":"bus_stop","name":"Giriharja Jelekong","public_transport":"platform","route_ref":"6"}},{"type":"Feature","geometry":{"type":"Point","coordinates":[107.7601717,-7.0478024]},"properties":{"id":3888893413,"amenity":"bus_station","bus":"yes","name":"Terminal Majalaya","public_transport":"station","ref":"Majalaya","route_ref":"6"}},{"type":"Feature","geometry":{"type":"Point","coordinates":[107.5931658,-6.9459528]},"properties":{"id":11953687683,"bus":"yes","highway":"bus_stop","name":"Terminal Leuwipanjang","public_transport":"platform","route_ref":"1;4;6"}}]}