{"type":"FeatureCollection","features":[{"type":"Feature","geometry":{"type":"Point","coordinates":[107.6065579,-6.9187567]},"properties":{"id":29354882,"bus":"yes","highway":"bus_stop","name":"Banceuy","public_transport":"platform","ref":"Banceuy/ABC","route_ref":"3"}},{"type":"Feature","geometry":{"type":"Point","coordinates":[107.607149,-6.9212854]},"properties":{"id":1013421519,"bench":"yes","bus":"yes","highway":"bus_stop","name":"Alun-Alun Bandung","public_transport":"platform","route_ref":"2;3","shelter":"yes"}},{"type":"Feature","geometry":{"type":"Point","coordinates":[107.6062243,-6.9391033]},"properties":{"id":3272569139,"bus":"yes","highway":"bus_stop","name":"Sekolah Ganesha","public_transport":"platform","ref":"Sekolah Ganesha","route_ref":"3","shelter":"no"}},{"type":"Feature","geometry":{"type":"Point","coordinates":[107.6043586,-6.9065179]},"properties":{"id":3376669070,"bus":"yes","highway":"bus_stop","name":"STHB","public_transport":"platform","route_ref":"3","shelter":"no"}},{"type":"Feature","geometry":{"type":"Point","coordinates":[107.6191075,-6.9491517]},"properties":{"id":3384018112,"bus":"yes","highway":"bus_stop","name":"PT LEN Industri A","public_transport":"platform","route_ref":"3"}},{"type":"Feature","geometry":{"type":"Point","coordinates":[107.6044803,-6.9153549]},"properties":{"id":10778347105,"bus":"yes","highway":"bus_stop","name":"Stasiun Timur","public_transport":"platform","route_ref":"3","shelter":"no"}},{"type":"Feature","geometry":{"type":"Point","coordinates":[107.6059335,-6.9266974]},"properties":{"id":10794770951,"bus":"yes","highway":"bus_stop","name":"ITC Kebon Kalapa","public_transport":"platform","route_ref":"3"}},{"type":"Feature","geometry":{"type":"Point","coordinates":[107.6083159,-6.945451]},"properties":{"id":10815837029,"alt_name":"Mohammad Toha","bus":"yes","highway":"bus_stop","name":"TK Kemala Bhayangkari","public_transport":"platform","route_ref":"3;6","shelter":"yes","source":"POI_WRI_Survey_2023","wheelchair":"no"}},{"type":"Feature","geometry":{"type":"Point","coordinates":[107.6374074,-6.9676031]},"properties":{"id":11102748151,"bus":"yes","highway":"bus_stop","name":"Puskesmas Bojongsoang","public_transport":"platform","route_ref":"3","shelter":"no"}},{"type":"Feature","geometry":{"type":"Point","coordinates":[107.5999956,-6.9067937]},"properties":{"id":11138593914,"bus":"yes","departures_board":"no","highway":"bus_stop","name":"SDN Pajajaran","public_transport":"platform","route_ref":"3","shelter":"yes"}},{"type":"Feature","geometry":{"type":"Point","coordinates":[107.6029202,-6.9126596]},"properties":{"id":11138593921,"bus":"yes","highway":"bus_stop","name":"Stasiun Bandung","public_transport":"platform","route_ref":"3"}},{"type":"Feature","geometry":{"type":"Point","coordinates":[107.6062226,-6.9365605]},"properties":{"id":11181449063,"bus":"yes","highway":"bus_stop","name":"Taman Tegalega 3","public_transport":"platform","route_ref":"3","shelter":"yes"}},{"type":"Feature","geometry":{"type":"Point","coordinates":[107.5978589,-6.9114176]},"properties":{"id":11739021628,"bench":"no","bus":"yes","highway":"bus_stop","name":"SMAN 6 Bandung","public_transport":"platform","route_ref":"3","shelter":"no"}},{"type":"Feature","geometry":{"type":"Point","coordinates":[107.6062023,-6.923845]},"properties":{"id":11871900165,"bus":"yes","highway":"bus_stop","name":"Grand Yogya Kepatihan","public_transport":"platform","route_ref":"3"}},{"type":"Feature","geometry":{"type":"Point","coordinates":[107.6287133,-7.0059241]},"properties":{"id":11876512399,"bus":"yes","highway":"bus_stop","name":"Masjid Al-Amanah","public_transport":"platform","route_ref":"3"}},{"type":"Feature","geometry":{"type":"Point","coordinates":[107.6311822,-7.0040227]},"properties":{"id":11876512400,"bus":"yes","highway":"bus_stop","name":"Matahari Land","public_transport":"platform","route_ref":"3"}},{"type":"Feature","geometry":{"type":"Point","coordinates":[107.6318407,-7.0002137]},"properties":{"id":11876512401,"bus":"yes","highway":"bus_stop","name":"Masjid Jami' Baitul Huda A","public_transport":"platform","route_ref":"3"}},{"type":"Feature","geometry":{"type":"Point","coordinates":[107.630756,-6.9946728]},"properties":{"id":11876512402,"bus":"yes","highway":"bus_stop","name":"Bubur Ayam H. Amid","public_transport":"platform","route_ref":"3"}},{"type":"Feature","geometry":{"type":"Point","coordinates":[107.6330256,-6.9845251]},"properties":{"id":11876512404,"bus":"yes","highway":"bus_stop","name":"Borma Bojongsoang","public_transport":"platform","route_ref":"3;6"}},{"type":"Feature","geometry":{"type":"Point","coordinates":[107.635151,-6.9763774]},"properties":{"id":11876512406,"bus":"yes","highway":"bus_stop","name":"SD Negeri Lengkong","public_transport":"platform","route_ref":"3"}},{"type":"Feature","geometry":{"type":"Point","coordinates":[107.6394485,-6.9576973]},"properties":{"id":11876512409,"bus":"yes","highway":"bus_stop","name":"Bluebird A","public_transport":"platform","route_ref":"3"}},{"type":"Feature","geometry":{"type":"Point","coordinates":[107.6388882,-6.9542]},"properties":{"id":11876512410,"bus":"yes","highway":"bus_stop","name":"Pasar Kordon A","public_transport":"platform","route_ref":"3"}},{"type":"Feature","geometry":{"type":"Point","coordinates":[107.6364471,-6.9512527]},"properties":{"id":11876512411,"bus":"yes","highway":"bus_stop","name":"JAPNAS","public_transport":"platform","route_ref":"3"}},{"type":"Feature","geometry":{"type":"Point","coordinates":[107.6323261,-6.9484832]},"properties":{"id":11876512412,"bus":"yes","highway":"bus_stop","name":"Medal Sekarwangi","public_transport":"platform","route_ref":"3"}},{"type":"Feature","geometry":{"type":"Point","coordinates":[107.6281594,-6.9494917]},"properties":{"id":11876512413,"bus":"yes","highway":"bus_stop","name":"Bangunan Mart A","public_transport":"platform","route_ref":"3"}},{"type":"Feature","geometry":{"type":"Point","coordinates":[107.6242341,-6.9495579]},"properties":{"id":11876512414,"bus":"yes","highway":"bus_stop","name":"LPKIA A","public_transport":"platform","route_ref":"3"}},{"type":"Feature","geometry":{"type":"Point","coordinates":[107.6120894,-6.9486572]},"properties":{"id":11876512415,"bus":"yes","highway":"bus_stop","name":"PLN UP3 Bandung A","public_transport":"platform","route_ref":"3"}},{"type":"Feature","geometry":{"type":"Point","coordinates":[107.6067372,-6.9301233]},"properties":{"id":11883812980,"bus":"yes","highway":"bus_stop","name":"SDN Moh. Toha","public_transport":"platform","route_ref":"3"}},{"type":"Feature","geometry":{"type":"Point","coordinates":[107.6260876,-7.006678]},"properties":{"id":11871915381,"bus":"yes","highway":"bus_stop","name":"Baleendah","public_transport":"platform","route_ref":"3"}},{"type":"Feature","geometry":{"type":"Point","coordinates":[107.6094288,-6.9081566]},"properties":{"id":11739021631,"bus":"yes","highway":"bus_stop","name":"Bandung Electronic Center","public_transport":"platform","route_ref":"3"}}]}