{
  "type": "FeatureCollection",
  "features": [
    {
      "type": "Feature",
      "geometry": {
        "type": "Point",
        "coordinates": [
          107.6437793,
          -6.9142126
        ]
      },
      "properties": {
        "id": "12633822765",
        "name": "Seberang Kiara Artha",
        "role": "stop_entry_only",
        "mode": "bus"
      }
    },
    {
      "type": "Feature",
      "geometry": {
        "type": "Point",
        "coordinates": [
          107.6442909,
          -6.9196178
        ]
      },
      "properties": {
        "id": "12806853454",
        "name": "SDN 083 Babakan Surabaya Selatan",
        "role": "stop",
        "mode": "bus"
      }
    },
    {
      "type": "Feature",
      "geometry": {
        "type": "Point",
        "coordinates": [
          107.6444041,
          -6.9221685
        ]
      },
      "properties": {
        "id": "12806853450",
        "name": "Griya Kiaracondong",
        "role": "stop",
        "mode": "bus"
      }
    },
    {
      "type": "Feature",
      "geometry": {
        "type": "Point",
        "coordinates": [
          107.6444424,
          -6.9274017
        ]
      },
      "properties": {
        "id": "12806853449",
        "name": "Jalan PSM",
        "role": "stop",
        "mode": "bus"
      }
    },
    {
      "type": "Feature",
      "geometry": {
        "type": "Point",
        "coordinates": [
          107.6438759,
          -6.9310003
        ]
      },
      "properties": {
        "id": "12806853447",
        "name": "Honda Daya Motor Kiaracondong",
        "role": "stop",
        "mode": "bus"
      }
    },
    {
      "type": "Feature",
      "geometry": {
        "type": "Point",
        "coordinates": [
          107.642917,
          -6.9333993
        ]
      },
      "properties": {
        "id": "12806853446",
        "name": "SDN 38 Kiaracondong",
        "role": "stop",
        "mode": "bus"
      }
    },
    {
      "type": "Feature",
      "geometry": {
        "type": "Point",
        "coordinates": [
          107.6424362,
          -6.9380472
        ]
      },
      "properties": {
        "id": "12806853442",
        "name": "Kebon Kangkung 11",
        "role": "stop",
        "mode": "bus"
      }
    },
    {
      "type": "Feature",
      "geometry": {
        "type": "Point",
        "coordinates": [
          107.6423227,
          -6.9397848
        ]
      },
      "properties": {
        "id": "12806853440",
        "name": "Den Jasa Ang",
        "role": "stop",
        "mode": "bus"
      }
    },
    {
      "type": "Feature",
      "geometry": {
        "type": "Point",
        "coordinates": [
          107.6421057,
          -6.9428602
        ]
      },
      "properties": {
        "id": "12806853435",
        "name": "SPBU Kebon Kangkung",
        "role": "stop",
        "mode": "bus"
      }
    },
    {
      "type": "Feature",
      "geometry": {
        "type": "Point",
        "coordinates": [
          107.6408496,
          -6.9458361
        ]
      },
      "properties": {
        "id": "12806868670",
        "name": "Tenth Avenue",
        "role": "stop",
        "mode": "bus"
      }
    },
    {
      "type": "Feature",
      "geometry": {
        "type": "Point",
        "coordinates": [
          107.6381159,
          -6.9466415
        ]
      },
      "properties": {
        "id": "12806868674",
        "name": "Sekelimus Tengah",
        "role": "stop",
        "mode": "bus"
      }
    },
    {
      "type": "Feature",
      "geometry": {
        "type": "Point",
        "coordinates": [
          107.6353065,
          -6.9475072
        ]
      },
      "properties": {
        "id": "12806868677",
        "name": "Sekelimus Barat",
        "role": "stop",
        "mode": "bus"
      }
    },
    {
      "type": "Feature",
      "geometry": {
        "type": "Point",
        "coordinates": [
          107.6323136,
          -6.9484371
        ]
      },
      "properties": {
        "id": "2614138793",
        "name": "Medal Sekarwangi",
        "role": "stop",
        "mode": "bus"
      }
    },
    {
      "type": "Feature",
      "geometry": {
        "type": "Point",
        "coordinates": [
          107.6281496,
          -6.9494451
        ]
      },
      "properties": {
        "id": "12626499697",
        "name": "Bangunan Mart A",
        "role": "stop",
        "mode": "bus"
      }
    },
    {
      "type": "Feature",
      "geometry": {
        "type": "Point",
        "coordinates": [
          107.6242225,
          -6.9495008
        ]
      },
      "properties": {
        "id": "12626499700",
        "name": "LPKIA A",
        "role": "stop",
        "mode": "bus"
      }
    },
    {
      "type": "Feature",
      "geometry": {
        "type": "Point",
        "coordinates": [
          107.6227995,
          -6.9493807
        ]
      },
      "properties": {
        "id": "12808867752",
        "name": "STIE Inaba",
        "role": "stop",
        "mode": "bus"
      }
    },
    {
      "type": "Feature",
      "geometry": {
        "type": "Point",
        "coordinates": [
          107.6214461,
          -6.9492577
        ]
      },
      "properties": {
        "id": "2744242982",
        "name": "Pasirluyu Selatan/Sukaati",
        "role": "stop",
        "mode": "bus"
      }
    },
    {
      "type": "Feature",
      "geometry": {
        "type": "Point",
        "coordinates": [
          107.6190348,
          -6.9490929
        ]
      },
      "properties": {
        "id": "3384018111",
        "name": "PT LEN Industri A",
        "role": "stop",
        "mode": "bus"
      }
    },
    {
      "type": "Feature",
      "geometry": {
        "type": "Point",
        "coordinates": [
          107.6180229,
          -6.9490185
        ]
      },
      "properties": {
        "id": "12808867754",
        "name": "Mengger Girang",
        "role": "stop",
        "mode": "bus"
      }
    },
    {
      "type": "Feature",
      "geometry": {
        "type": "Point",
        "coordinates": [
          107.612094,
          -6.9485877
        ]
      },
      "properties": {
        "id": "12626529703",
        "name": "PLN UP3 Bandung A",
        "role": "stop",
        "mode": "bus"
      }
    },
    {
      "type": "Feature",
      "geometry": {
        "type": "Point",
        "coordinates": [
          107.6087518,
          -6.9483342
        ]
      },
      "properties": {
        "id": "11707031627",
        "name": "Simpang By Pass Soekarno Hatta B",
        "role": "stop",
        "mode": "bus"
      }
    },
    {
      "type": "Feature",
      "geometry": {
        "type": "Point",
        "coordinates": [
          107.6050974,
          -6.9480749
        ]
      },
      "properties": {
        "id": "12808867758",
        "name": "Ampera Soekarno Hatta",
        "role": "stop",
        "mode": "bus"
      }
    },
    {
      "type": "Feature",
      "geometry": {
        "type": "Point",
        "coordinates": [
          107.6021954,
          -6.9478683
        ]
      },
      "properties": {
        "id": "12808867763",
        "name": "Karasak Lama",
        "role": "stop",
        "mode": "bus"
      }
    },
    {
      "type": "Feature",
      "geometry": {
        "type": "Point",
        "coordinates": [
          107.592997,
          -6.9469193
        ]
      },
      "properties": {
        "id": "3277891129",
        "name": "Seberang Terminal Leuwipanjang",
        "role": "stop",
        "mode": "bus"
      }
    },
    {
      "type": "Feature",
      "geometry": {
        "type": "Point",
        "coordinates": [
          107.5934341,
          -6.9468277
        ]
      },
      "properties": {
        "id": "11295303565",
        "name": "Leuwipanjang Soekarno Hatta",
        "role": "stop_exit_only",
        "mode": "bus"
      }
    }
  ]
}