{
  "type": "FeatureCollection",
  "features": [
    {
      "type": "Feature",
      "geometry": {
        "type": "Point",
        "coordinates": [
          107.6437793,
          -6.9142126
        ]
      },
      "properties": {
        "id": "12633822765",
        "name": "Seberang Kiara Artha",
        "role": "stop_entry_only",
        "isReal": true,
        "mode": "bus"
      }
    },
    {
      "type": "Feature",
      "geometry": {
        "type": "Point",
        "coordinates": [
          107.64419296666667,
          -6.918090733333333
        ]
      },
      "properties": {
        "id": "virtual_107.6442_-6.9181",
        "name": "Jalan terdekat",
        "role": "virtual",
        "isReal": false,
        "mode": "bus"
      }
    },
    {
      "type": "Feature",
      "geometry": {
        "type": "Point",
        "coordinates": [
          107.6442909,
          -6.9196178
        ]
      },
      "properties": {
        "id": "12806853454",
        "name": "SDN 083 Babakan Surabaya Selatan",
        "role": "stop",
        "isReal": true,
        "mode": "bus"
      }
    },
    {
      "type": "Feature",
      "geometry": {
        "type": "Point",
        "coordinates": [
          107.6444041,
          -6.9221685
        ]
      },
      "properties": {
        "id": "12806853450",
        "name": "Griya Kiaracondong",
        "role": "stop",
        "isReal": true,
        "mode": "bus"
      }
    },
    {
      "type": "Feature",
      "geometry": {
        "type": "Point",
        "coordinates": [
          107.644489,
          -6.9241129
        ]
      },
      "properties": {
        "id": "virtual_107.6445_-6.9241",
        "name": "Jalan H. Ibrahim Adjie",
        "role": "virtual",
        "isReal": false,
        "mode": "bus"
      }
    },
    {
      "type": "Feature",
      "geometry": {
        "type": "Point",
        "coordinates": [
          107.6444424,
          -6.9274017
        ]
      },
      "properties": {
        "id": "12806853449",
        "name": "Jalan PSM",
        "role": "stop",
        "isReal": true,
        "mode": "bus"
      }
    },
    {
      "type": "Feature",
      "geometry": {
        "type": "Point",
        "coordinates": [
          107.64426205000001,
          -6.9289065999999995
        ]
      },
      "properties": {
        "id": "virtual_107.6443_-6.9289",
        "name": "Jalan terdekat",
        "role": "virtual",
        "isReal": false,
        "mode": "bus"
      }
    },
    {
      "type": "Feature",
      "geometry": {
        "type": "Point",
        "coordinates": [
          107.6438759,
          -6.9310003
        ]
      },
      "properties": {
        "id": "12806853447",
        "name": "Honda Daya Motor Kiaracondong",
        "role": "stop",
        "isReal": true,
        "mode": "bus"
      }
    },
    {
      "type": "Feature",
      "geometry": {
        "type": "Point",
        "coordinates": [
          107.642917,
          -6.9333993
        ]
      },
      "properties": {
        "id": "12806853446",
        "name": "SDN 38 Kiaracondong",
        "role": "stop",
        "isReal": true,
        "mode": "bus"
      }
    },
    {
      "type": "Feature",
      "geometry": {
        "type": "Point",
        "coordinates": [
          107.642669,
          -6.9347772
        ]
      },
      "properties": {
        "id": "virtual_107.6427_-6.9348",
        "name": "Jalan H. Ibrahim Adjie",
        "role": "virtual",
        "isReal": false,
        "mode": "bus"
      }
    },
    {
      "type": "Feature",
      "geometry": {
        "type": "Point",
        "coordinates": [
          107.6425277,
          -6.9366887
        ]
      },
      "properties": {
        "id": "virtual_107.6425_-6.9367",
        "name": "Jalan H. Ibrahim Adjie",
        "role": "virtual",
        "isReal": false,
        "mode": "bus"
      }
    },
    {
      "type": "Feature",
      "geometry": {
        "type": "Point",
        "coordinates": [
          107.6424362,
          -6.9380472
        ]
      },
      "properties": {
        "id": "12806853442",
        "name": "Kebon Kangkung 11",
        "role": "stop",
        "isReal": true,
        "mode": "bus"
      }
    },
    {
      "type": "Feature",
      "geometry": {
        "type": "Point",
        "coordinates": [
          107.6423227,
          -6.9397848
        ]
      },
      "properties": {
        "id": "12806853440",
        "name": "Den Jasa Ang",
        "role": "stop",
        "isReal": true,
        "mode": "bus"
      }
    },
    {
      "type": "Feature",
      "geometry": {
        "type": "Point",
        "coordinates": [
          107.6422079,
          -6.9415102
        ]
      },
      "properties": {
        "id": "virtual_107.6422_-6.9415",
        "name": "Jalan H. Ibrahim Adjie",
        "role": "virtual",
        "isReal": false,
        "mode": "bus"
      }
    },
    {
      "type": "Feature",
      "geometry": {
        "type": "Point",
        "coordinates": [
          107.6421057,
          -6.9428602
        ]
      },
      "properties": {
        "id": "12806853435",
        "name": "SPBU Kebon Kangkung",
        "role": "stop",
        "isReal": true,
        "mode": "bus"
      }
    },
    {
      "type": "Feature",
      "geometry": {
        "type": "Point",
        "coordinates": [
          107.6408496,
          -6.9458361
        ]
      },
      "properties": {
        "id": "12806868670",
        "name": "Tenth Avenue",
        "role": "stop",
        "isReal": true,
        "mode": "bus"
      }
    },
    {
      "type": "Feature",
      "geometry": {
        "type": "Point",
        "coordinates": [
          107.6381159,
          -6.9466415
        ]
      },
      "properties": {
        "id": "12806868674",
        "name": "Sekelimus Tengah",
        "role": "stop",
        "isReal": true,
        "mode": "bus"
      }
    },
    {
      "type": "Feature",
      "geometry": {
        "type": "Point",
        "coordinates": [
          107.63674595,
          -6.9470548
        ]
      },
      "properties": {
        "id": "virtual_107.6367_-6.9471",
        "name": "Jalan terdekat",
        "role": "virtual",
        "isReal": false,
        "mode": "bus"
      }
    },
    {
      "type": "Feature",
      "geometry": {
        "type": "Point",
        "coordinates": [
          107.6353065,
          -6.9475072
        ]
      },
      "properties": {
        "id": "12806868677",
        "name": "Sekelimus Barat",
        "role": "stop",
        "isReal": true,
        "mode": "bus"
      }
    },
    {
      "type": "Feature",
      "geometry": {
        "type": "Point",
        "coordinates": [
          107.6323136,
          -6.9484371
        ]
      },
      "properties": {
        "id": "2614138793",
        "name": "Medal Sekarwangi",
        "role": "stop",
        "isReal": true,
        "mode": "bus"
      }
    },
    {
      "type": "Feature",
      "geometry": {
        "type": "Point",
        "coordinates": [
          107.6296209,
          -6.9491718
        ]
      },
      "properties": {
        "id": "virtual_107.6296_-6.9492",
        "name": "Jalan Soekarno-Hatta",
        "role": "virtual",
        "isReal": false,
        "mode": "bus"
      }
    },
    {
      "type": "Feature",
      "geometry": {
        "type": "Point",
        "coordinates": [
          107.6281496,
          -6.9494451
        ]
      },
      "properties": {
        "id": "12626499697",
        "name": "Bangunan Mart A",
        "role": "stop",
        "isReal": true,
        "mode": "bus"
      }
    },
    {
      "type": "Feature",
      "geometry": {
        "type": "Point",
        "coordinates": [
          107.62637219999999,
          -6.949560399999999
        ]
      },
      "properties": {
        "id": "virtual_107.6264_-6.9496",
        "name": "Jalan terdekat",
        "role": "virtual",
        "isReal": false,
        "mode": "bus"
      }
    },
    {
      "type": "Feature",
      "geometry": {
        "type": "Point",
        "coordinates": [
          107.6242225,
          -6.9495008
        ]
      },
      "properties": {
        "id": "12626499700",
        "name": "LPKIA A",
        "role": "stop",
        "isReal": true,
        "mode": "bus"
      }
    },
    {
      "type": "Feature",
      "geometry": {
        "type": "Point",
        "coordinates": [
          107.6227995,
          -6.9493807
        ]
      },
      "properties": {
        "id": "12808867752",
        "name": "STIE Inaba",
        "role": "stop",
        "isReal": true,
        "mode": "bus"
      }
    },
    {
      "type": "Feature",
      "geometry": {
        "type": "Point",
        "coordinates": [
          107.6214461,
          -6.9492577
        ]
      },
      "properties": {
        "id": "2744242982",
        "name": "Pasirluyu Selatan/Sukaati",
        "role": "stop",
        "isReal": true,
        "mode": "bus"
      }
    },
    {
      "type": "Feature",
      "geometry": {
        "type": "Point",
        "coordinates": [
          107.6190348,
          -6.9490929
        ]
      },
      "properties": {
        "id": "3384018111",
        "name": "PT LEN Industri A",
        "role": "stop",
        "isReal": true,
        "mode": "bus"
      }
    },
    {
      "type": "Feature",
      "geometry": {
        "type": "Point",
        "coordinates": [
          107.6180229,
          -6.9490185
        ]
      },
      "properties": {
        "id": "12808867754",
        "name": "Mengger Girang",
        "role": "stop",
        "isReal": true,
        "mode": "bus"
      }
    },
    {
      "type": "Feature",
      "geometry": {
        "type": "Point",
        "coordinates": [
          107.61481153333334,
          -6.948785166666667
        ]
      },
      "properties": {
        "id": "virtual_107.6148_-6.9488",
        "name": "Jalan terdekat",
        "role": "virtual",
        "isReal": false,
        "mode": "bus"
      }
    },
    {
      "type": "Feature",
      "geometry": {
        "type": "Point",
        "coordinates": [
          107.612094,
          -6.9485877
        ]
      },
      "properties": {
        "id": "12626529703",
        "name": "PLN UP3 Bandung A",
        "role": "stop",
        "isReal": true,
        "mode": "bus"
      }
    },
    {
      "type": "Feature",
      "geometry": {
        "type": "Point",
        "coordinates": [
          107.6087518,
          -6.9483342
        ]
      },
      "properties": {
        "id": "11707031627",
        "name": "Simpang By Pass Soekarno Hatta B",
        "role": "stop",
        "isReal": true,
        "mode": "bus"
      }
    },
    {
      "type": "Feature",
      "geometry": {
        "type": "Point",
        "coordinates": [
          107.6072047,
          -6.948227
        ]
      },
      "properties": {
        "id": "virtual_107.6072_-6.9482",
        "name": "Jalan Soekarno-Hatta",
        "role": "virtual",
        "isReal": false,
        "mode": "bus"
      }
    },
    {
      "type": "Feature",
      "geometry": {
        "type": "Point",
        "coordinates": [
          107.6050974,
          -6.9480749
        ]
      },
      "properties": {
        "id": "12808867758",
        "name": "Ampera Soekarno Hatta",
        "role": "stop",
        "isReal": true,
        "mode": "bus"
      }
    },
    {
      "type": "Feature",
      "geometry": {
        "type": "Point",
        "coordinates": [
          107.6021954,
          -6.9478683
        ]
      },
      "properties": {
        "id": "12808867763",
        "name": "Karasak Lama",
        "role": "stop",
        "isReal": true,
        "mode": "bus"
      }
    },
    {
      "type": "Feature",
      "geometry": {
        "type": "Point",
        "coordinates": [
          107.59998858,
          -6.94772466
        ]
      },
      "properties": {
        "id": "virtual_107.6000_-6.9477",
        "name": "Jalan terdekat",
        "role": "virtual",
        "isReal": false,
        "mode": "bus"
      }
    },
    {
      "type": "Feature",
      "geometry": {
        "type": "Point",
        "coordinates": [
          107.59802789999999,
          -6.94766424
        ]
      },
      "properties": {
        "id": "virtual_107.5980_-6.9477",
        "name": "Jalan terdekat",
        "role": "virtual",
        "isReal": false,
        "mode": "bus"
      }
    },
    {
      "type": "Feature",
      "geometry": {
        "type": "Point",
        "coordinates": [
          107.59503954,
          -6.947349699999999
        ]
      },
      "properties": {
        "id": "virtual_107.5950_-6.9473",
        "name": "Jalan terdekat",
        "role": "virtual",
        "isReal": false,
        "mode": "bus"
      }
    },
    {
      "type": "Feature",
      "geometry": {
        "type": "Point",
        "coordinates": [
          107.592997,
          -6.9469193
        ]
      },
      "properties": {
        "id": "3277891129",
        "name": "Seberang Terminal Leuwipanjang",
        "role": "stop",
        "isReal": true,
        "mode": "bus"
      }
    },
    {
      "type": "Feature",
      "geometry": {
        "type": "Point",
        "coordinates": [
          107.5934341,
          -6.9468277
        ]
      },
      "properties": {
        "id": "11295303565",
        "name": "Leuwipanjang Soekarno Hatta",
        "role": "stop_exit_only",
        "isReal": true,
        "mode": "bus"
      }
    }
  ]
}