{"type":"FeatureCollection","features":[{"type":"Feature","geometry":{"type":"Point","coordinates":[107.6230748,-6.8145736]},"properties":{"id":3248857676,"highway":"bus_stop","name":"Lembang"}},{"type":"Feature","geometry":{"type":"Point","coordinates":[107.5756585,-6.7987354]},"properties":{"id":3250474887,"alt_name":"Terminal Curug Pelangi","amenity":"bus_station","bus":"yes","name":"Terminal Cisarua","public_transport":"station","source":"https://angkotbandung.wordpress.com/category/terminal-cisarua/"}},{"type":"Feature","geometry":{"type":"Point","coordinates":[107.6116169,-6.8191418]},"properties":{"id":11877026809,"bus":"yes","highway":"bus_stop","name":"Kolonel Masturi","public_transport":"platform"}},{"type":"Feature","geometry":{"type":"Point","coordinates":[107.6224498,-6.8172713]},"properties":{"id":11877026810,"bus":"yes","highway":"bus_stop","name":"Pasar Panorama Lembang","public_transport":"platform"}},{"type":"Feature","geometry":{"type":"Point","coordinates":[107.6145036,-6.8151188]},"properties":{"id":11877026811,"bus":"yes","highway":"bus_stop","name":"Grand Hotel","public_transport":"platform"}},{"type":"Feature","geometry":{"type":"Point","coordinates":[107.5885735,-6.8044775]},"properties":{"id":11897038139,"bus":"yes","highway":"bus_stop","name":"Kolonel Masturi 2","public_transport":"platform"}}]}