{"type":"FeatureCollection","features":[{"type":"Feature","geometry":{"type":"Point","coordinates":[107.925717,-6.8441335]},"properties":{"id":3193760634,"amenity":"bus_station","bus":"yes","highway":"bus_stop","name":"Subterminal Ketib Sumedang","operator":"Angkutan Pedesaan Tanjungkerta - Bojong - Naluk","public_transport":"platform"}},{"type":"Feature","geometry":{"type":"Point","coordinates":[107.7533879,-6.9398937]},"properties":{"id":3251041603,"amenity":"bus_station","bus":"yes","name":"Terminal Cileunyi","public_transport":"station"}},{"type":"Feature","geometry":{"type":"Point","coordinates":[107.7642127,-6.9358357]},"properties":{"id":3377559904,"bus":"yes","highway":"bus_stop","name":"IPDN Jatinangor","public_transport":"platform","ref":"IPDN Jatinangor"}},{"type":"Feature","geometry":{"type":"Point","coordinates":[107.9257252,-6.8412036]},"properties":{"id":3377653483,"bus":"yes","name":"Perempatan Ojolali Sumedang","public_transport":"platform","ref":"Perempatan Ojolali Sumedang"}},{"type":"Feature","geometry":{"type":"Point","coordinates":[107.9161618,-6.8605884]},"properties":{"id":3377653484,"bus":"yes","name":"Polres Sumedang","public_transport":"platform","ref":"Polres Sumedang"}},{"type":"Feature","geometry":{"type":"Point","coordinates":[107.9216474,-6.8571014]},"properties":{"id":3377653485,"bus":"yes","name":"RSUD Sumedang","public_transport":"platform","ref":"RSUD Sumedang"}},{"type":"Feature","geometry":{"type":"Point","coordinates":[107.9239721,-6.8473993]},"properties":{"id":3377653486,"bus":"yes","name":"Taman Endog Sumedang","public_transport":"platform","ref":"Taman Endog Sumedang"}},{"type":"Feature","geometry":{"type":"Point","coordinates":[107.9235016,-6.8461959]},"properties":{"id":3895635149,"bus":"yes","name":"Jl. Panyingkiran, Sumedang","public_transport":"platform","ref":"Jl. Panyingkiran, Sumedang"}},{"type":"Feature","geometry":{"type":"Point","coordinates":[107.7914945,-6.9196221]},"properties":{"id":11883722656,"bus":"yes","highway":"bus_stop","name":"Cinanjung","public_transport":"platform"}},{"type":"Feature","geometry":{"type":"Point","coordinates":[107.7810106,-6.9289051]},"properties":{"id":11883722657,"bus":"yes","highway":"bus_stop","name":"Cikuda","public_transport":"platform"}},{"type":"Feature","geometry":{"type":"Point","coordinates":[107.794959,-6.9122692]},"properties":{"id":11883722658,"bus":"yes","highway":"bus_stop","name":"Perum Griya Jatinangor II","public_transport":"platform"}},{"type":"Feature","geometry":{"type":"Point","coordinates":[107.7843633,-6.9274185]},"properties":{"id":11883722659,"bus":"yes","highway":"bus_stop","name":"Casa de Aminda","public_transport":"platform"}},{"type":"Feature","geometry":{"type":"Point","coordinates":[107.8325275,-6.8945394]},"properties":{"id":11896496994,"bus":"yes","highway":"bus_stop","name":"Simpang Pamulihan","public_transport":"platform"}}]}