{"type":"FeatureCollection","features":[{"type":"Feature","geometry":{"type":"Point","coordinates":[107.5756825,-6.9133505]},"properties":{"id":25433963,"amenity":"bus_station","bus":"yes","highway":"bus_stop","name":"Terminal Elang","public_transport":"platform"}},{"type":"Feature","geometry":{"type":"Point","coordinates":[107.6413899,-6.9457765]},"properties":{"id":3272242234,"bus":"yes","highway":"bus_stop","name":"Dispenda/Carefour Kiara Condong","public_transport":"platform","ref":"Dispenda/Carefour Kiara Condong"}},{"type":"Feature","geometry":{"type":"Point","coordinates":[107.6258296,-6.9495789]},"properties":{"id":3384018117,"bus":"yes","name":"Waas/Cijagra","public_transport":"platform","ref":"Waas/Cijagra"}},{"type":"Feature","geometry":{"type":"Point","coordinates":[107.6918152,-6.9372506]},"properties":{"id":11132622842,"bus":"yes","highway":"bus_stop","name":"Simpang Gedebage","public_transport":"platform"}},{"type":"Feature","geometry":{"type":"Point","coordinates":[107.5720023,-6.9155783]},"properties":{"id":11711275768,"bus":"yes","highway":"bus_stop","name":"Optik Krida","public_transport":"platform","route_ref":"2"}}]}