{
  "type": "FeatureCollection",
  "features": [
    {
      "type": "Feature",
      "geometry": {
        "type": "Point",
        "coordinates": [
          107.588219,
          -6.9067739
        ]
      },
      "properties": {
        "id": "3377321681",
        "name": "Pintu Masuk Bandara Husein Sastranegara",
        "role": "stop_entry_only",
        "mode": "bus"
      }
    },
    {
      "type": "Feature",
      "geometry": {
        "type": "Point",
        "coordinates": [
          107.5898536,
          -6.90694
        ]
      },
      "properties": {
        "id": "v_107.589854_-6.906940",
        "name": "Jalan Pajajaran",
        "role": "virtual",
        "mode": "bus"
      }
    },
    {
      "type": "Feature",
      "geometry": {
        "type": "Point",
        "coordinates": [
          107.5925401,
          -6.9070991
        ]
      },
      "properties": {
        "id": "7547053355",
        "name": "Pajajaran 1",
        "role": "stop",
        "mode": "bus"
      }
    },
    {
      "type": "Feature",
      "geometry": {
        "type": "Point",
        "coordinates": [
          107.5939013,
          -6.9068851
        ]
      },
      "properties": {
        "id": "v_107.593901_-6.906885",
        "name": "Jalan Pajajaran",
        "role": "virtual",
        "mode": "bus"
      }
    },
    {
      "type": "Feature",
      "geometry": {
        "type": "Point",
        "coordinates": [
          107.5952568,
          -6.9066609
        ]
      },
      "properties": {
        "id": "v_107.595257_-6.906661",
        "name": "Jalan Pajajaran",
        "role": "virtual",
        "mode": "bus"
      }
    },
    {
      "type": "Feature",
      "geometry": {
        "type": "Point",
        "coordinates": [
          107.5967209,
          -6.9063994
        ]
      },
      "properties": {
        "id": "v_107.596721_-6.906399",
        "name": "Jalan Pajajaran",
        "role": "virtual",
        "mode": "bus"
      }
    },
    {
      "type": "Feature",
      "geometry": {
        "type": "Point",
        "coordinates": [
          107.5992067,
          -6.9068065
        ]
      },
      "properties": {
        "id": "2012498684",
        "name": "Taman Adipura",
        "role": "stop",
        "mode": "bus"
      }
    },
    {
      "type": "Feature",
      "geometry": {
        "type": "Point",
        "coordinates": [
          107.599992,
          -6.906861
        ]
      },
      "properties": {
        "id": "11138593915",
        "name": "SDN Pajajaran",
        "role": "stop",
        "mode": "bus"
      }
    },
    {
      "type": "Feature",
      "geometry": {
        "type": "Point",
        "coordinates": [
          107.6019252,
          -6.9070015
        ]
      },
      "properties": {
        "id": "25500626",
        "name": "GOR Padjajaran",
        "role": "stop",
        "mode": "bus"
      }
    },
    {
      "type": "Feature",
      "geometry": {
        "type": "Point",
        "coordinates": [
          107.6044125,
          -6.9064803
        ]
      },
      "properties": {
        "id": "11739021630",
        "name": "STHB (Sekolah Tinggi Hukum Bandung)",
        "role": "stop",
        "mode": "bus"
      }
    },
    {
      "type": "Feature",
      "geometry": {
        "type": "Point",
        "coordinates": [
          107.605369,
          -6.9039986
        ]
      },
      "properties": {
        "id": "12809237525",
        "name": "Linggawastu",
        "role": "stop",
        "mode": "bus"
      }
    },
    {
      "type": "Feature",
      "geometry": {
        "type": "Point",
        "coordinates": [
          107.607265,
          -6.9048943
        ]
      },
      "properties": {
        "id": "3376669071",
        "name": "Pasar Kembang Wastukencana",
        "role": "stop",
        "mode": "bus"
      }
    },
    {
      "type": "Feature",
      "geometry": {
        "type": "Point",
        "coordinates": [
          107.6077494,
          -6.9061802
        ]
      },
      "properties": {
        "id": "v_107.607749_-6.906180",
        "name": "Jalan Wastukencana",
        "role": "virtual",
        "mode": "bus"
      }
    },
    {
      "type": "Feature",
      "geometry": {
        "type": "Point",
        "coordinates": [
          107.6092299,
          -6.9067838
        ]
      },
      "properties": {
        "id": "v_107.609230_-6.906784",
        "name": "Jalan L.L. RE. Martadinata",
        "role": "virtual",
        "mode": "bus"
      }
    },
    {
      "type": "Feature",
      "geometry": {
        "type": "Point",
        "coordinates": [
          107.6093744,
          -6.9081456
        ]
      },
      "properties": {
        "id": "5825243776",
        "name": "Bandung Electronic Center",
        "role": "stop",
        "mode": "bus"
      }
    },
    {
      "type": "Feature",
      "geometry": {
        "type": "Point",
        "coordinates": [
          107.6084529,
          -6.9092079
        ]
      },
      "properties": {
        "id": "v_107.608453_-6.909208",
        "name": "Jalan Purnawarman",
        "role": "virtual",
        "mode": "bus"
      }
    },
    {
      "type": "Feature",
      "geometry": {
        "type": "Point",
        "coordinates": [
          107.6097021,
          -6.9101076
        ]
      },
      "properties": {
        "id": "3376669066",
        "name": "Museum Kota Bandung",
        "role": "stop",
        "mode": "bus"
      }
    },
    {
      "type": "Feature",
      "geometry": {
        "type": "Point",
        "coordinates": [
          107.6111443,
          -6.9097733
        ]
      },
      "properties": {
        "id": "v_107.611144_-6.909773",
        "name": "Jalan Aceh",
        "role": "virtual",
        "mode": "bus"
      }
    },
    {
      "type": "Feature",
      "geometry": {
        "type": "Point",
        "coordinates": [
          107.6126071,
          -6.9098172
        ]
      },
      "properties": {
        "id": "v_107.612607_-6.909817",
        "name": "Jalan Aceh",
        "role": "virtual",
        "mode": "bus"
      }
    },
    {
      "type": "Feature",
      "geometry": {
        "type": "Point",
        "coordinates": [
          107.6138696,
          -6.9105545
        ]
      },
      "properties": {
        "id": "v_107.613870_-6.910554",
        "name": "Jalan Kalimantan",
        "role": "virtual",
        "mode": "bus"
      }
    },
    {
      "type": "Feature",
      "geometry": {
        "type": "Point",
        "coordinates": [
          107.6144635,
          -6.9121644
        ]
      },
      "properties": {
        "id": "v_107.614463_-6.912164",
        "name": "Jalan Kalimantan",
        "role": "virtual",
        "mode": "bus"
      }
    },
    {
      "type": "Feature",
      "geometry": {
        "type": "Point",
        "coordinates": [
          107.615884,
          -6.9116657
        ]
      },
      "properties": {
        "id": "v_107.615884_-6.911666",
        "name": "Jalan Belitung",
        "role": "virtual",
        "mode": "bus"
      }
    },
    {
      "type": "Feature",
      "geometry": {
        "type": "Point",
        "coordinates": [
          107.6175644,
          -6.9115105
        ]
      },
      "properties": {
        "id": "v_107.617564_-6.911511",
        "name": "Jalan Belitung",
        "role": "virtual",
        "mode": "bus"
      }
    },
    {
      "type": "Feature",
      "geometry": {
        "type": "Point",
        "coordinates": [
          107.6186497,
          -6.9124658
        ]
      },
      "properties": {
        "id": "v_107.618650_-6.912466",
        "name": "Jalan Bangka",
        "role": "virtual",
        "mode": "bus"
      }
    },
    {
      "type": "Feature",
      "geometry": {
        "type": "Point",
        "coordinates": [
          107.6188506,
          -6.915098
        ]
      },
      "properties": {
        "id": "v_107.618851_-6.915098",
        "name": "Jalan Bangka",
        "role": "virtual",
        "mode": "bus"
      }
    },
    {
      "type": "Feature",
      "geometry": {
        "type": "Point",
        "coordinates": [
          107.6210127,
          -6.9156209
        ]
      },
      "properties": {
        "id": "v_107.621013_-6.915621",
        "name": "Jalan Gudang Utara",
        "role": "virtual",
        "mode": "bus"
      }
    },
    {
      "type": "Feature",
      "geometry": {
        "type": "Point",
        "coordinates": [
          107.6225707,
          -6.9159978
        ]
      },
      "properties": {
        "id": "v_107.622571_-6.915998",
        "name": "Jalan Gudang Utara",
        "role": "virtual",
        "mode": "bus"
      }
    },
    {
      "type": "Feature",
      "geometry": {
        "type": "Point",
        "coordinates": [
          107.6244453,
          -6.9164512
        ]
      },
      "properties": {
        "id": "v_107.624445_-6.916451",
        "name": "Jalan Gudang Utara",
        "role": "virtual",
        "mode": "bus"
      }
    },
    {
      "type": "Feature",
      "geometry": {
        "type": "Point",
        "coordinates": [
          107.6259467,
          -6.9168185
        ]
      },
      "properties": {
        "id": "v_107.625947_-6.916818",
        "name": "Jalan Gudang Utara",
        "role": "virtual",
        "mode": "bus"
      }
    },
    {
      "type": "Feature",
      "geometry": {
        "type": "Point",
        "coordinates": [
          107.627332,
          -6.9171495
        ]
      },
      "properties": {
        "id": "v_107.627332_-6.917149",
        "name": "Jalan Gudang Utara",
        "role": "virtual",
        "mode": "bus"
      }
    },
    {
      "type": "Feature",
      "geometry": {
        "type": "Point",
        "coordinates": [
          107.6287225,
          -6.9164526
        ]
      },
      "properties": {
        "id": "11735248689",
        "name": "Dinas Pendidikan Kota Bandung",
        "role": "stop",
        "mode": "bus"
      }
    },
    {
      "type": "Feature",
      "geometry": {
        "type": "Point",
        "coordinates": [
          107.6310524,
          -6.9151724
        ]
      },
      "properties": {
        "id": "5391666887",
        "name": "Jalan Mangga",
        "role": "stop",
        "mode": "bus"
      }
    },
    {
      "type": "Feature",
      "geometry": {
        "type": "Point",
        "coordinates": [
          107.6332108,
          -6.9140574
        ]
      },
      "properties": {
        "id": "11735248691",
        "name": "Sekolah Agustinus",
        "role": "stop",
        "mode": "bus"
      }
    },
    {
      "type": "Feature",
      "geometry": {
        "type": "Point",
        "coordinates": [
          107.6345966,
          -6.9133253
        ]
      },
      "properties": {
        "id": "3375793690",
        "name": "A.Yani Supratman",
        "role": "stop",
        "mode": "bus"
      }
    },
    {
      "type": "Feature",
      "geometry": {
        "type": "Point",
        "coordinates": [
          107.6360079,
          -6.9125623
        ]
      },
      "properties": {
        "id": "v_107.636008_-6.912562",
        "name": "Jalan Jenderal Ahmad Yani",
        "role": "virtual",
        "mode": "bus"
      }
    },
    {
      "type": "Feature",
      "geometry": {
        "type": "Point",
        "coordinates": [
          107.637255,
          -6.9119025
        ]
      },
      "properties": {
        "id": "11735248693",
        "name": "Cikaso",
        "role": "stop",
        "mode": "bus"
      }
    },
    {
      "type": "Feature",
      "geometry": {
        "type": "Point",
        "coordinates": [
          107.6396001,
          -6.9106533
        ]
      },
      "properties": {
        "id": "11735248694",
        "name": "Awi Bitung",
        "role": "stop",
        "mode": "bus"
      }
    },
    {
      "type": "Feature",
      "geometry": {
        "type": "Point",
        "coordinates": [
          107.6411552,
          -6.9098264
        ]
      },
      "properties": {
        "id": "v_107.641155_-6.909826",
        "name": "Jalan Jenderal Ahmad Yani",
        "role": "virtual",
        "mode": "bus"
      }
    },
    {
      "type": "Feature",
      "geometry": {
        "type": "Point",
        "coordinates": [
          107.6430381,
          -6.9088519
        ]
      },
      "properties": {
        "id": "v_107.643038_-6.908852",
        "name": "Jalan Jenderal Ahmad Yani",
        "role": "virtual",
        "mode": "bus"
      }
    },
    {
      "type": "Feature",
      "geometry": {
        "type": "Point",
        "coordinates": [
          107.6434825,
          -6.911388
        ]
      },
      "properties": {
        "id": "3248969440",
        "name": "BTM",
        "role": "stop",
        "mode": "bus"
      }
    },
    {
      "type": "Feature",
      "geometry": {
        "type": "Point",
        "coordinates": [
          107.6436233,
          -6.9128822
        ]
      },
      "properties": {
        "id": "v_107.643623_-6.912882",
        "name": "Jalan H. Ibrahim Adjie",
        "role": "virtual",
        "mode": "bus"
      }
    },
    {
      "type": "Feature",
      "geometry": {
        "type": "Point",
        "coordinates": [
          107.6455398,
          -6.9134024
        ]
      },
      "properties": {
        "id": "12809462429",
        "name": "RSIA Grha Bunda",
        "role": "stop",
        "mode": "bus"
      }
    },
    {
      "type": "Feature",
      "geometry": {
        "type": "Point",
        "coordinates": [
          107.6471247,
          -6.913202
        ]
      },
      "properties": {
        "id": "v_107.647125_-6.913202",
        "name": "Jalan Terusan Jakarta",
        "role": "virtual",
        "mode": "bus"
      }
    },
    {
      "type": "Feature",
      "geometry": {
        "type": "Point",
        "coordinates": [
          107.6495005,
          -6.9129025
        ]
      },
      "properties": {
        "id": "2493372403",
        "name": "Borma Antapani",
        "role": "stop",
        "mode": "bus"
      }
    },
    {
      "type": "Feature",
      "geometry": {
        "type": "Point",
        "coordinates": [
          107.6507427,
          -6.9127456
        ]
      },
      "properties": {
        "id": "12809462431",
        "name": "Stikes Dharma Husada",
        "role": "stop",
        "mode": "bus"
      }
    },
    {
      "type": "Feature",
      "geometry": {
        "type": "Point",
        "coordinates": [
          107.6538136,
          -6.9123839
        ]
      },
      "properties": {
        "id": "302241143",
        "name": "bjb Antapani",
        "role": "stop",
        "mode": "bus"
      }
    },
    {
      "type": "Feature",
      "geometry": {
        "type": "Point",
        "coordinates": [
          107.6551351,
          -6.912935
        ]
      },
      "properties": {
        "id": "v_107.655135_-6.912935",
        "name": "Jalan Subang",
        "role": "virtual",
        "mode": "bus"
      }
    },
    {
      "type": "Feature",
      "geometry": {
        "type": "Point",
        "coordinates": [
          107.655052,
          -6.9143921
        ]
      },
      "properties": {
        "id": "v_107.655052_-6.914392",
        "name": "Jalan Subang",
        "role": "virtual",
        "mode": "bus"
      }
    },
    {
      "type": "Feature",
      "geometry": {
        "type": "Point",
        "coordinates": [
          107.654416,
          -6.9158215
        ]
      },
      "properties": {
        "id": "v_107.654416_-6.915821",
        "name": "Jalan Subang",
        "role": "virtual",
        "mode": "bus"
      }
    },
    {
      "type": "Feature",
      "geometry": {
        "type": "Point",
        "coordinates": [
          107.6555204,
          -6.9169619
        ]
      },
      "properties": {
        "id": "v_107.655520_-6.916962",
        "name": "Jalan Purwakarta",
        "role": "virtual",
        "mode": "bus"
      }
    },
    {
      "type": "Feature",
      "geometry": {
        "type": "Point",
        "coordinates": [
          107.6570184,
          -6.9173067
        ]
      },
      "properties": {
        "id": "v_107.657018_-6.917307",
        "name": "Jalan Purwakarta",
        "role": "virtual",
        "mode": "bus"
      }
    },
    {
      "type": "Feature",
      "geometry": {
        "type": "Point",
        "coordinates": [
          107.6584676,
          -6.9173721
        ]
      },
      "properties": {
        "id": "v_107.658468_-6.917372",
        "name": "Jalan Purwakarta",
        "role": "virtual",
        "mode": "bus"
      }
    },
    {
      "type": "Feature",
      "geometry": {
        "type": "Point",
        "coordinates": [
          107.6599721,
          -6.9174367
        ]
      },
      "properties": {
        "id": "v_107.659972_-6.917437",
        "name": "Jalan Purwakarta",
        "role": "virtual",
        "mode": "bus"
      }
    },
    {
      "type": "Feature",
      "geometry": {
        "type": "Point",
        "coordinates": [
          107.6614652,
          -6.9173398
        ]
      },
      "properties": {
        "id": "v_107.661465_-6.917340",
        "name": "Jalan Purwakarta",
        "role": "virtual",
        "mode": "bus"
      }
    },
    {
      "type": "Feature",
      "geometry": {
        "type": "Point",
        "coordinates": [
          107.6627276,
          -6.9178987
        ]
      },
      "properties": {
        "id": "v_107.662728_-6.917899",
        "name": "Jalan Kuningan",
        "role": "virtual",
        "mode": "bus"
      }
    },
    {
      "type": "Feature",
      "geometry": {
        "type": "Point",
        "coordinates": [
          107.6638688,
          -6.9170395
        ]
      },
      "properties": {
        "id": "v_107.663869_-6.917039",
        "name": "Jalan Cibatu",
        "role": "virtual",
        "mode": "bus"
      }
    },
    {
      "type": "Feature",
      "geometry": {
        "type": "Point",
        "coordinates": [
          107.6659285,
          -6.915304
        ]
      },
      "properties": {
        "id": "3270445565",
        "name": "Terminal Antapani",
        "role": "stop_exit_only",
        "mode": "bus"
      }
    }
  ]
}