{
  "type": "FeatureCollection",
  "features": [
    {
      "type": "Feature",
      "geometry": {
        "type": "Point",
        "coordinates": [
          107.5740641,
          -6.9279358
        ]
      },
      "properties": {
        "id": "29380518",
        "name": "Holis/Bojong",
        "role": "stop",
        "mode": "bus"
      }
    },
    {
      "type": "Feature",
      "geometry": {
        "type": "Point",
        "coordinates": [
          107.5748329,
          -6.9253122
        ]
      },
      "properties": {
        "id": "v_107.574833_-6.925312",
        "name": "Jalan Holis",
        "role": "virtual",
        "mode": "bus"
      }
    },
    {
      "type": "Feature",
      "geometry": {
        "type": "Point",
        "coordinates": [
          107.5746727,
          -6.922073
        ]
      },
      "properties": {
        "id": "v_107.574673_-6.922073",
        "name": "Jalan Soekarno-Hatta",
        "role": "virtual",
        "mode": "bus"
      }
    },
    {
      "type": "Feature",
      "geometry": {
        "type": "Point",
        "coordinates": [
          107.574311,
          -6.919126
        ]
      },
      "properties": {
        "id": "v_107.574311_-6.919126",
        "name": "Jalan Soekarno-Hatta",
        "role": "virtual",
        "mode": "bus"
      }
    },
    {
      "type": "Feature",
      "geometry": {
        "type": "Point",
        "coordinates": [
          107.5747072,
          -6.9163324
        ]
      },
      "properties": {
        "id": "v_107.574707_-6.916332",
        "name": "Jalan Elang",
        "role": "virtual",
        "mode": "bus"
      }
    },
    {
      "type": "Feature",
      "geometry": {
        "type": "Point",
        "coordinates": [
          107.575723,
          -6.9133498
        ]
      },
      "properties": {
        "id": "11711326973",
        "name": "Terminal Elang",
        "role": "stop",
        "mode": "bus"
      }
    },
    {
      "type": "Feature",
      "geometry": {
        "type": "Point",
        "coordinates": [
          107.5781901,
          -6.9137773
        ]
      },
      "properties": {
        "id": "11735239264",
        "name": "Rajawali 1",
        "role": "stop",
        "mode": "bus"
      }
    },
    {
      "type": "Feature",
      "geometry": {
        "type": "Point",
        "coordinates": [
          107.5828928,
          -6.9149105
        ]
      },
      "properties": {
        "id": "11735239266",
        "name": "Dunguscariang",
        "role": "stop",
        "mode": "bus"
      }
    },
    {
      "type": "Feature",
      "geometry": {
        "type": "Point",
        "coordinates": [
          107.5853751,
          -6.9157549
        ]
      },
      "properties": {
        "id": "1911635044",
        "name": "Yayasan LPPN",
        "role": "stop",
        "mode": "bus"
      }
    },
    {
      "type": "Feature",
      "geometry": {
        "type": "Point",
        "coordinates": [
          107.5885486,
          -6.9141236
        ]
      },
      "properties": {
        "id": "3244745033",
        "name": "Terminal Ciroyom",
        "role": "stop_exit_only",
        "mode": "bus"
      }
    },
    {
      "type": "Feature",
      "geometry": {
        "type": "Point",
        "coordinates": [
          107.5508272,
          -6.9324632
        ]
      },
      "properties": {
        "id": "3385219353",
        "name": "Terminal Bumi Asri",
        "role": "stop_entry_only",
        "mode": "bus"
      }
    },
    {
      "type": "Feature",
      "geometry": {
        "type": "Point",
        "coordinates": [
          107.5514062,
          -6.9296386
        ]
      },
      "properties": {
        "id": "v_107.551406_-6.929639",
        "name": "Jalan Dirgantara",
        "role": "virtual",
        "mode": "bus"
      }
    },
    {
      "type": "Feature",
      "geometry": {
        "type": "Point",
        "coordinates": [
          107.5521804,
          -6.926537
        ]
      },
      "properties": {
        "id": "v_107.552180_-6.926537",
        "name": "Jalan Dirgantara",
        "role": "virtual",
        "mode": "bus"
      }
    },
    {
      "type": "Feature",
      "geometry": {
        "type": "Point",
        "coordinates": [
          107.5548453,
          -6.9279848
        ]
      },
      "properties": {
        "id": "v_107.554845_-6.927985",
        "name": "Jalan Gempol",
        "role": "virtual",
        "mode": "bus"
      }
    },
    {
      "type": "Feature",
      "geometry": {
        "type": "Point",
        "coordinates": [
          107.5580796,
          -6.9299747
        ]
      },
      "properties": {
        "id": "3110267088",
        "name": "Gempol Sari",
        "role": "stop",
        "mode": "bus"
      }
    },
    {
      "type": "Feature",
      "geometry": {
        "type": "Point",
        "coordinates": [
          107.5607067,
          -6.9315072
        ]
      },
      "properties": {
        "id": "v_107.560707_-6.931507",
        "name": "Jalan Gempol",
        "role": "virtual",
        "mode": "bus"
      }
    },
    {
      "type": "Feature",
      "geometry": {
        "type": "Point",
        "coordinates": [
          107.5632917,
          -6.9323412
        ]
      },
      "properties": {
        "id": "v_107.563292_-6.932341",
        "name": "Jalan Gempol",
        "role": "virtual",
        "mode": "bus"
      }
    },
    {
      "type": "Feature",
      "geometry": {
        "type": "Point",
        "coordinates": [
          107.565064,
          -6.9302837
        ]
      },
      "properties": {
        "id": "v_107.565064_-6.930284",
        "name": "Jalan Raya Cijerah",
        "role": "virtual",
        "mode": "bus"
      }
    },
    {
      "type": "Feature",
      "geometry": {
        "type": "Point",
        "coordinates": [
          107.5657238,
          -6.9266742
        ]
      },
      "properties": {
        "id": "3252892639",
        "name": "Cijerah",
        "role": "stop",
        "mode": "bus"
      }
    },
    {
      "type": "Feature",
      "geometry": {
        "type": "Point",
        "coordinates": [
          107.5685351,
          -6.9275379
        ]
      },
      "properties": {
        "id": "v_107.568535_-6.927538",
        "name": "Jalan Bojong Raya",
        "role": "virtual",
        "mode": "bus"
      }
    }
  ]
}