{
  "type": "FeatureCollection",
  "features": [
    {
      "type": "Feature",
      "geometry": {
        "type": "Point",
        "coordinates": [
          107.5508272,
          -6.9324632
        ]
      },
      "properties": {
        "id": "3385219353",
        "name": "Terminal Bumi Asri",
        "role": "stop_entry_only",
        "isReal": true,
        "mode": "bus"
      }
    },
    {
      "type": "Feature",
      "geometry": {
        "type": "Point",
        "coordinates": [
          107.551623,
          -6.928518175
        ]
      },
      "properties": {
        "id": "virtual_107.5516_-6.9285",
        "name": "Jalan terdekat",
        "role": "virtual",
        "isReal": false,
        "mode": "bus"
      }
    },
    {
      "type": "Feature",
      "geometry": {
        "type": "Point",
        "coordinates": [
          107.554873425,
          -6.928000025
        ]
      },
      "properties": {
        "id": "virtual_107.5549_-6.9280",
        "name": "Jalan terdekat",
        "role": "virtual",
        "isReal": false,
        "mode": "bus"
      }
    },
    {
      "type": "Feature",
      "geometry": {
        "type": "Point",
        "coordinates": [
          107.55690146250001,
          -6.9292362
        ]
      },
      "properties": {
        "id": "virtual_107.5569_-6.9292",
        "name": "Jalan terdekat",
        "role": "virtual",
        "isReal": false,
        "mode": "bus"
      }
    },
    {
      "type": "Feature",
      "geometry": {
        "type": "Point",
        "coordinates": [
          107.55864555,
          -6.930403549999999
        ]
      },
      "properties": {
        "id": "virtual_107.5586_-6.9304",
        "name": "Jalan terdekat",
        "role": "virtual",
        "isReal": false,
        "mode": "bus"
      }
    },
    {
      "type": "Feature",
      "geometry": {
        "type": "Point",
        "coordinates": [
          107.562722125,
          -6.9321756500000005
        ]
      },
      "properties": {
        "id": "virtual_107.5627_-6.9322",
        "name": "Jalan terdekat",
        "role": "virtual",
        "isReal": false,
        "mode": "bus"
      }
    },
    {
      "type": "Feature",
      "geometry": {
        "type": "Point",
        "coordinates": [
          107.5643145,
          -6.932652174999999
        ]
      },
      "properties": {
        "id": "virtual_107.5643_-6.9327",
        "name": "Jalan terdekat",
        "role": "virtual",
        "isReal": false,
        "mode": "bus"
      }
    },
    {
      "type": "Feature",
      "geometry": {
        "type": "Point",
        "coordinates": [
          107.5651325125,
          -6.930070725
        ]
      },
      "properties": {
        "id": "virtual_107.5651_-6.9301",
        "name": "Jalan terdekat",
        "role": "virtual",
        "isReal": false,
        "mode": "bus"
      }
    },
    {
      "type": "Feature",
      "geometry": {
        "type": "Point",
        "coordinates": [
          107.5661172,
          -6.9268211
        ]
      },
      "properties": {
        "id": "12809314934",
        "name": "Simpang Bojong Raya",
        "role": "stop",
        "isReal": true,
        "mode": "bus"
      }
    },
    {
      "type": "Feature",
      "geometry": {
        "type": "Point",
        "coordinates": [
          107.5696217,
          -6.9277221
        ]
      },
      "properties": {
        "id": "virtual_107.5696_-6.9277",
        "name": "Jalan terdekat",
        "role": "virtual",
        "isReal": false,
        "mode": "bus"
      }
    },
    {
      "type": "Feature",
      "geometry": {
        "type": "Point",
        "coordinates": [
          107.5730606,
          -6.9277283
        ]
      },
      "properties": {
        "id": "virtual_107.5731_-6.9277",
        "name": "Jalan Bojong Raya",
        "role": "virtual",
        "isReal": false,
        "mode": "bus"
      }
    },
    {
      "type": "Feature",
      "geometry": {
        "type": "Point",
        "coordinates": [
          107.574678,
          -6.92620125
        ]
      },
      "properties": {
        "id": "virtual_107.5747_-6.9262",
        "name": "Jalan terdekat",
        "role": "virtual",
        "isReal": false,
        "mode": "bus"
      }
    },
    {
      "type": "Feature",
      "geometry": {
        "type": "Point",
        "coordinates": [
          107.5749282,
          -6.9247449
        ]
      },
      "properties": {
        "id": "virtual_107.5749_-6.9247",
        "name": "Jalan Holis",
        "role": "virtual",
        "isReal": false,
        "mode": "bus"
      }
    },
    {
      "type": "Feature",
      "geometry": {
        "type": "Point",
        "coordinates": [
          107.57451895,
          -6.9210837000000005
        ]
      },
      "properties": {
        "id": "virtual_107.5745_-6.9211",
        "name": "Jalan terdekat",
        "role": "virtual",
        "isReal": false,
        "mode": "bus"
      }
    },
    {
      "type": "Feature",
      "geometry": {
        "type": "Point",
        "coordinates": [
          107.5742937,
          -6.9173779
        ]
      },
      "properties": {
        "id": "virtual_107.5743_-6.9174",
        "name": "Jalan Soekarno-Hatta",
        "role": "virtual",
        "isReal": false,
        "mode": "bus"
      }
    },
    {
      "type": "Feature",
      "geometry": {
        "type": "Point",
        "coordinates": [
          107.575723,
          -6.9133498
        ]
      },
      "properties": {
        "id": "11711326973",
        "name": "Terminal Elang",
        "role": "stop",
        "isReal": true,
        "mode": "bus"
      }
    },
    {
      "type": "Feature",
      "geometry": {
        "type": "Point",
        "coordinates": [
          107.5781901,
          -6.9137773
        ]
      },
      "properties": {
        "id": "11735239264",
        "name": "Rajawali 1",
        "role": "stop",
        "isReal": true,
        "mode": "bus"
      }
    },
    {
      "type": "Feature",
      "geometry": {
        "type": "Point",
        "coordinates": [
          107.57975,
          -6.9141241
        ]
      },
      "properties": {
        "id": "virtual_107.5798_-6.9141",
        "name": "Jalan Rajawali Timur",
        "role": "virtual",
        "isReal": false,
        "mode": "bus"
      }
    },
    {
      "type": "Feature",
      "geometry": {
        "type": "Point",
        "coordinates": [
          107.5813503,
          -6.9144835
        ]
      },
      "properties": {
        "id": "virtual_107.5814_-6.9145",
        "name": "Jalan Rajawali Timur",
        "role": "virtual",
        "isReal": false,
        "mode": "bus"
      }
    },
    {
      "type": "Feature",
      "geometry": {
        "type": "Point",
        "coordinates": [
          107.5828928,
          -6.9149105
        ]
      },
      "properties": {
        "id": "11735239266",
        "name": "Dunguscariang",
        "role": "stop",
        "isReal": true,
        "mode": "bus"
      }
    },
    {
      "type": "Feature",
      "geometry": {
        "type": "Point",
        "coordinates": [
          107.5853751,
          -6.9157549
        ]
      },
      "properties": {
        "id": "1911635044",
        "name": "Yayasan LPPN",
        "role": "stop",
        "isReal": true,
        "mode": "bus"
      }
    },
    {
      "type": "Feature",
      "geometry": {
        "type": "Point",
        "coordinates": [
          107.5885486,
          -6.9141236
        ]
      },
      "properties": {
        "id": "3244745033",
        "name": "Terminal Ciroyom",
        "role": "stop_exit_only",
        "isReal": true,
        "mode": "bus"
      }
    }
  ]
}