{
  "type": "FeatureCollection",
  "features": [
    {
      "type": "Feature",
      "geometry": {
        "type": "Point",
        "coordinates": [
          107.5740641,
          -6.9279358
        ]
      },
      "properties": {
        "id": "29380518",
        "name": "Holis/Bojong",
        "role": "stop",
        "mode": "bus"
      }
    },
    {
      "type": "Feature",
      "geometry": {
        "type": "Point",
        "coordinates": [
          107.5748665,
          -6.9233028
        ]
      },
      "properties": {
        "id": "v_107.574866_-6.923303",
        "name": "Jalan Soekarno-Hatta",
        "role": "virtual",
        "mode": "bus"
      }
    },
    {
      "type": "Feature",
      "geometry": {
        "type": "Point",
        "coordinates": [
          107.5743029,
          -6.9182666
        ]
      },
      "properties": {
        "id": "v_107.574303_-6.918267",
        "name": "Jalan Soekarno-Hatta",
        "role": "virtual",
        "mode": "bus"
      }
    },
    {
      "type": "Feature",
      "geometry": {
        "type": "Point",
        "coordinates": [
          107.575723,
          -6.9133498
        ]
      },
      "properties": {
        "id": "11711326973",
        "name": "Terminal Elang",
        "role": "stop",
        "mode": "bus"
      }
    },
    {
      "type": "Feature",
      "geometry": {
        "type": "Point",
        "coordinates": [
          107.5781901,
          -6.9137773
        ]
      },
      "properties": {
        "id": "11735239264",
        "name": "Rajawali 1",
        "role": "stop",
        "mode": "bus"
      }
    },
    {
      "type": "Feature",
      "geometry": {
        "type": "Point",
        "coordinates": [
          107.5828928,
          -6.9149105
        ]
      },
      "properties": {
        "id": "11735239266",
        "name": "Dunguscariang",
        "role": "stop",
        "mode": "bus"
      }
    },
    {
      "type": "Feature",
      "geometry": {
        "type": "Point",
        "coordinates": [
          107.5853751,
          -6.9157549
        ]
      },
      "properties": {
        "id": "1911635044",
        "name": "Yayasan LPPN",
        "role": "stop",
        "mode": "bus"
      }
    },
    {
      "type": "Feature",
      "geometry": {
        "type": "Point",
        "coordinates": [
          107.5885486,
          -6.9141236
        ]
      },
      "properties": {
        "id": "3244745033",
        "name": "Terminal Ciroyom",
        "role": "stop_exit_only",
        "mode": "bus"
      }
    },
    {
      "type": "Feature",
      "geometry": {
        "type": "Point",
        "coordinates": [
          107.5508272,
          -6.9324632
        ]
      },
      "properties": {
        "id": "3385219353",
        "name": "Terminal Bumi Asri",
        "role": "stop_entry_only",
        "mode": "bus"
      }
    },
    {
      "type": "Feature",
      "geometry": {
        "type": "Point",
        "coordinates": [
          107.5517589,
          -6.9279959
        ]
      },
      "properties": {
        "id": "v_107.551759_-6.927996",
        "name": "Jalan Dirgantara",
        "role": "virtual",
        "mode": "bus"
      }
    },
    {
      "type": "Feature",
      "geometry": {
        "type": "Point",
        "coordinates": [
          107.5580796,
          -6.9299747
        ]
      },
      "properties": {
        "id": "3110267088",
        "name": "Gempol Sari",
        "role": "stop",
        "mode": "bus"
      }
    },
    {
      "type": "Feature",
      "geometry": {
        "type": "Point",
        "coordinates": [
          107.5624059,
          -6.9321088
        ]
      },
      "properties": {
        "id": "v_107.562406_-6.932109",
        "name": "Jalan Gempol",
        "role": "virtual",
        "mode": "bus"
      }
    },
    {
      "type": "Feature",
      "geometry": {
        "type": "Point",
        "coordinates": [
          107.5657238,
          -6.9266742
        ]
      },
      "properties": {
        "id": "3252892639",
        "name": "Cijerah",
        "role": "stop",
        "mode": "bus"
      }
    }
  ]
}