{
  "type": "FeatureCollection",
  "features": [
    {
      "type": "Feature",
      "geometry": {
        "type": "Point",
        "coordinates": [
          107.5508272,
          -6.9324632
        ]
      },
      "properties": {
        "id": "3385219353",
        "name": "Terminal Bumi Asri",
        "role": "stop_entry_only",
        "mode": "bus"
      }
    },
    {
      "type": "Feature",
      "geometry": {
        "type": "Point",
        "coordinates": [
          107.551319,
          -6.9301039
        ]
      },
      "properties": {
        "id": "v_107.551319_-6.930104",
        "name": "Jalan Dirgantara",
        "role": "virtual",
        "mode": "bus"
      }
    },
    {
      "type": "Feature",
      "geometry": {
        "type": "Point",
        "coordinates": [
          107.5517856,
          -6.9278971
        ]
      },
      "properties": {
        "id": "v_107.551786_-6.927897",
        "name": "Jalan Dirgantara",
        "role": "virtual",
        "mode": "bus"
      }
    },
    {
      "type": "Feature",
      "geometry": {
        "type": "Point",
        "coordinates": [
          107.5548453,
          -6.9279848
        ]
      },
      "properties": {
        "id": "v_107.554845_-6.927985",
        "name": "Jalan Gempol",
        "role": "virtual",
        "mode": "bus"
      }
    },
    {
      "type": "Feature",
      "geometry": {
        "type": "Point",
        "coordinates": [
          107.5568329,
          -6.9291972
        ]
      },
      "properties": {
        "id": "v_107.556833_-6.929197",
        "name": "Jalan Gempol",
        "role": "virtual",
        "mode": "bus"
      }
    },
    {
      "type": "Feature",
      "geometry": {
        "type": "Point",
        "coordinates": [
          107.5587134,
          -6.9304542
        ]
      },
      "properties": {
        "id": "v_107.558713_-6.930454",
        "name": "Jalan Gempol",
        "role": "virtual",
        "mode": "bus"
      }
    },
    {
      "type": "Feature",
      "geometry": {
        "type": "Point",
        "coordinates": [
          107.561215,
          -6.93171
        ]
      },
      "properties": {
        "id": "v_107.561215_-6.931710",
        "name": "Jalan Gempol",
        "role": "virtual",
        "mode": "bus"
      }
    },
    {
      "type": "Feature",
      "geometry": {
        "type": "Point",
        "coordinates": [
          107.5635486,
          -6.9324642
        ]
      },
      "properties": {
        "id": "v_107.563549_-6.932464",
        "name": "Jalan Gempol",
        "role": "virtual",
        "mode": "bus"
      }
    },
    {
      "type": "Feature",
      "geometry": {
        "type": "Point",
        "coordinates": [
          107.564958,
          -6.9306005
        ]
      },
      "properties": {
        "id": "v_107.564958_-6.930600",
        "name": "Jalan Raya Cijerah",
        "role": "virtual",
        "mode": "bus"
      }
    },
    {
      "type": "Feature",
      "geometry": {
        "type": "Point",
        "coordinates": [
          107.5661172,
          -6.9268211
        ]
      },
      "properties": {
        "id": "12809314934",
        "name": "Simpang Bojong Raya",
        "role": "stop",
        "mode": "bus"
      }
    },
    {
      "type": "Feature",
      "geometry": {
        "type": "Point",
        "coordinates": [
          107.5685351,
          -6.9275379
        ]
      },
      "properties": {
        "id": "v_107.568535_-6.927538",
        "name": "Jalan Bojong Raya",
        "role": "virtual",
        "mode": "bus"
      }
    },
    {
      "type": "Feature",
      "geometry": {
        "type": "Point",
        "coordinates": [
          107.5712431,
          -6.9277519
        ]
      },
      "properties": {
        "id": "v_107.571243_-6.927752",
        "name": "Jalan Bojong Raya",
        "role": "virtual",
        "mode": "bus"
      }
    },
    {
      "type": "Feature",
      "geometry": {
        "type": "Point",
        "coordinates": [
          107.5740256,
          -6.9279327
        ]
      },
      "properties": {
        "id": "v_107.574026_-6.927933",
        "name": "Jalan Bojong Raya",
        "role": "virtual",
        "mode": "bus"
      }
    },
    {
      "type": "Feature",
      "geometry": {
        "type": "Point",
        "coordinates": [
          107.5747857,
          -6.925664
        ]
      },
      "properties": {
        "id": "v_107.574786_-6.925664",
        "name": "Jalan Holis",
        "role": "virtual",
        "mode": "bus"
      }
    },
    {
      "type": "Feature",
      "geometry": {
        "type": "Point",
        "coordinates": [
          107.5748665,
          -6.9233028
        ]
      },
      "properties": {
        "id": "v_107.574866_-6.923303",
        "name": "Jalan Soekarno-Hatta",
        "role": "virtual",
        "mode": "bus"
      }
    },
    {
      "type": "Feature",
      "geometry": {
        "type": "Point",
        "coordinates": [
          107.5744906,
          -6.9209105
        ]
      },
      "properties": {
        "id": "v_107.574491_-6.920910",
        "name": "Jalan Soekarno-Hatta",
        "role": "virtual",
        "mode": "bus"
      }
    },
    {
      "type": "Feature",
      "geometry": {
        "type": "Point",
        "coordinates": [
          107.5743029,
          -6.9182666
        ]
      },
      "properties": {
        "id": "v_107.574303_-6.918267",
        "name": "Jalan Soekarno-Hatta",
        "role": "virtual",
        "mode": "bus"
      }
    },
    {
      "type": "Feature",
      "geometry": {
        "type": "Point",
        "coordinates": [
          107.5749278,
          -6.9157275
        ]
      },
      "properties": {
        "id": "v_107.574928_-6.915728",
        "name": "Jalan Elang",
        "role": "virtual",
        "mode": "bus"
      }
    },
    {
      "type": "Feature",
      "geometry": {
        "type": "Point",
        "coordinates": [
          107.575723,
          -6.9133498
        ]
      },
      "properties": {
        "id": "11711326973",
        "name": "Terminal Elang",
        "role": "stop",
        "mode": "bus"
      }
    },
    {
      "type": "Feature",
      "geometry": {
        "type": "Point",
        "coordinates": [
          107.5781901,
          -6.9137773
        ]
      },
      "properties": {
        "id": "11735239264",
        "name": "Rajawali 1",
        "role": "stop",
        "mode": "bus"
      }
    },
    {
      "type": "Feature",
      "geometry": {
        "type": "Point",
        "coordinates": [
          107.5828928,
          -6.9149105
        ]
      },
      "properties": {
        "id": "11735239266",
        "name": "Dunguscariang",
        "role": "stop",
        "mode": "bus"
      }
    },
    {
      "type": "Feature",
      "geometry": {
        "type": "Point",
        "coordinates": [
          107.5853751,
          -6.9157549
        ]
      },
      "properties": {
        "id": "1911635044",
        "name": "Yayasan LPPN",
        "role": "stop",
        "mode": "bus"
      }
    },
    {
      "type": "Feature",
      "geometry": {
        "type": "Point",
        "coordinates": [
          107.5885486,
          -6.9141236
        ]
      },
      "properties": {
        "id": "3244745033",
        "name": "Terminal Ciroyom",
        "role": "stop_exit_only",
        "mode": "bus"
      }
    }
  ]
}