{
  "type": "FeatureCollection",
  "features": [
    {
      "type": "Feature",
      "geometry": {
        "type": "Point",
        "coordinates": [
          107.6058121,
          -6.9276265
        ]
      },
      "properties": {
        "id": "3374033509",
        "name": "Terminal Abdul Muis/Kebon Kalapa",
        "role": "stop_entry_only",
        "mode": "bus"
      }
    },
    {
      "type": "Feature",
      "geometry": {
        "type": "Point",
        "coordinates": [
          107.6036329,
          -6.9280445
        ]
      },
      "properties": {
        "id": "11739021641",
        "name": "Simpang Ijan",
        "role": "stop",
        "mode": "bus"
      }
    },
    {
      "type": "Feature",
      "geometry": {
        "type": "Point",
        "coordinates": [
          107.6035279,
          -6.9295503
        ]
      },
      "properties": {
        "id": "v_107.603528_-6.929550",
        "name": "Jalan Otto Iskandardinata",
        "role": "virtual",
        "mode": "bus"
      }
    },
    {
      "type": "Feature",
      "geometry": {
        "type": "Point",
        "coordinates": [
          107.603397,
          -6.9314278
        ]
      },
      "properties": {
        "id": "v_107.603397_-6.931428",
        "name": "Jalan Otto Iskandardinata",
        "role": "virtual",
        "mode": "bus"
      }
    },
    {
      "type": "Feature",
      "geometry": {
        "type": "Point",
        "coordinates": [
          107.601334,
          -6.9306827
        ]
      },
      "properties": {
        "id": "3383341282",
        "name": "Pasar Astana Anyar",
        "role": "stop",
        "mode": "bus"
      }
    },
    {
      "type": "Feature",
      "geometry": {
        "type": "Point",
        "coordinates": [
          107.6000694,
          -6.9301678
        ]
      },
      "properties": {
        "id": "v_107.600069_-6.930168",
        "name": "Jalan Panjunan",
        "role": "virtual",
        "mode": "bus"
      }
    },
    {
      "type": "Feature",
      "geometry": {
        "type": "Point",
        "coordinates": [
          107.5973451,
          -6.9298621
        ]
      },
      "properties": {
        "id": "2325452881",
        "name": "Jalan Panjunan",
        "role": "stop",
        "mode": "bus"
      }
    },
    {
      "type": "Feature",
      "geometry": {
        "type": "Point",
        "coordinates": [
          107.5979226,
          -6.9278179
        ]
      },
      "properties": {
        "id": "v_107.597923_-6.927818",
        "name": "Jalan Kopo",
        "role": "virtual",
        "mode": "bus"
      }
    },
    {
      "type": "Feature",
      "geometry": {
        "type": "Point",
        "coordinates": [
          107.5997325,
          -6.9263959
        ]
      },
      "properties": {
        "id": "12806765749",
        "name": "Simpang Astanaanyar Pasirkoja",
        "role": "stop",
        "mode": "bus"
      }
    },
    {
      "type": "Feature",
      "geometry": {
        "type": "Point",
        "coordinates": [
          107.5991575,
          -6.9247939
        ]
      },
      "properties": {
        "id": "12809227879",
        "name": "Jalan Haji Safari",
        "role": "stop",
        "mode": "bus"
      }
    },
    {
      "type": "Feature",
      "geometry": {
        "type": "Point",
        "coordinates": [
          107.5987003,
          -6.9233666
        ]
      },
      "properties": {
        "id": "v_107.598700_-6.923367",
        "name": "Jalan Astana Anyar",
        "role": "virtual",
        "mode": "bus"
      }
    },
    {
      "type": "Feature",
      "geometry": {
        "type": "Point",
        "coordinates": [
          107.5973482,
          -6.9231019
        ]
      },
      "properties": {
        "id": "v_107.597348_-6.923102",
        "name": "Jalan Pagarsih Barat",
        "role": "virtual",
        "mode": "bus"
      }
    },
    {
      "type": "Feature",
      "geometry": {
        "type": "Point",
        "coordinates": [
          107.5957657,
          -6.9229321
        ]
      },
      "properties": {
        "id": "2723584288",
        "name": "Pasar Ulekan Pagarsih",
        "role": "stop",
        "mode": "bus"
      }
    },
    {
      "type": "Feature",
      "geometry": {
        "type": "Point",
        "coordinates": [
          107.5939519,
          -6.922727
        ]
      },
      "properties": {
        "id": "v_107.593952_-6.922727",
        "name": "Jalan Pagarsih Barat",
        "role": "virtual",
        "mode": "bus"
      }
    },
    {
      "type": "Feature",
      "geometry": {
        "type": "Point",
        "coordinates": [
          107.5917759,
          -6.9224992
        ]
      },
      "properties": {
        "id": "v_107.591776_-6.922499",
        "name": "Jalan Pagarsih Barat",
        "role": "virtual",
        "mode": "bus"
      }
    },
    {
      "type": "Feature",
      "geometry": {
        "type": "Point",
        "coordinates": [
          107.5898681,
          -6.9223157
        ]
      },
      "properties": {
        "id": "v_107.589868_-6.922316",
        "name": "Jalan Pagarsih Barat",
        "role": "virtual",
        "mode": "bus"
      }
    },
    {
      "type": "Feature",
      "geometry": {
        "type": "Point",
        "coordinates": [
          107.5881341,
          -6.9221534
        ]
      },
      "properties": {
        "id": "v_107.588134_-6.922153",
        "name": "Jalan Pagarsih Barat",
        "role": "virtual",
        "mode": "bus"
      }
    },
    {
      "type": "Feature",
      "geometry": {
        "type": "Point",
        "coordinates": [
          107.5859557,
          -6.9219839
        ]
      },
      "properties": {
        "id": "2325452491",
        "name": "Unknown",
        "role": "stop",
        "mode": "bus"
      }
    },
    {
      "type": "Feature",
      "geometry": {
        "type": "Point",
        "coordinates": [
          107.5845732,
          -6.9219104
        ]
      },
      "properties": {
        "id": "v_107.584573_-6.921910",
        "name": "Jalan Pagarsih Barat",
        "role": "virtual",
        "mode": "bus"
      }
    },
    {
      "type": "Feature",
      "geometry": {
        "type": "Point",
        "coordinates": [
          107.583176,
          -6.9221543
        ]
      },
      "properties": {
        "id": "v_107.583176_-6.922154",
        "name": "Jalan Pagarsih Barat",
        "role": "virtual",
        "mode": "bus"
      }
    },
    {
      "type": "Feature",
      "geometry": {
        "type": "Point",
        "coordinates": [
          107.5813879,
          -6.9235251
        ]
      },
      "properties": {
        "id": "1911634972",
        "name": "Pasar Cangkring/Situ Aksan",
        "role": "stop",
        "mode": "bus"
      }
    },
    {
      "type": "Feature",
      "geometry": {
        "type": "Point",
        "coordinates": [
          107.58099,
          -6.9221656
        ]
      },
      "properties": {
        "id": "v_107.580990_-6.922166",
        "name": "Jalan Suryani",
        "role": "virtual",
        "mode": "bus"
      }
    },
    {
      "type": "Feature",
      "geometry": {
        "type": "Point",
        "coordinates": [
          107.580869,
          -6.9206062
        ]
      },
      "properties": {
        "id": "1911634983",
        "name": "Jalan Suryani",
        "role": "stop",
        "mode": "bus"
      }
    },
    {
      "type": "Feature",
      "geometry": {
        "type": "Point",
        "coordinates": [
          107.5794019,
          -6.9205663
        ]
      },
      "properties": {
        "id": "v_107.579402_-6.920566",
        "name": "Jalan Suryani Dalam",
        "role": "virtual",
        "mode": "bus"
      }
    },
    {
      "type": "Feature",
      "geometry": {
        "type": "Point",
        "coordinates": [
          107.5777274,
          -6.920533
        ]
      },
      "properties": {
        "id": "v_107.577727_-6.920533",
        "name": "Jalan Suryani Dalam",
        "role": "virtual",
        "mode": "bus"
      }
    },
    {
      "type": "Feature",
      "geometry": {
        "type": "Point",
        "coordinates": [
          107.5769466,
          -6.9223077
        ]
      },
      "properties": {
        "id": "1911634927",
        "name": "RS Priangan",
        "role": "stop",
        "mode": "bus"
      }
    },
    {
      "type": "Feature",
      "geometry": {
        "type": "Point",
        "coordinates": [
          107.5755699,
          -6.9220701
        ]
      },
      "properties": {
        "id": "v_107.575570_-6.922070",
        "name": "Jalan terdekat",
        "role": "virtual",
        "mode": "bus"
      }
    },
    {
      "type": "Feature",
      "geometry": {
        "type": "Point",
        "coordinates": [
          107.5751042,
          -6.923662
        ]
      },
      "properties": {
        "id": "6442840898",
        "name": "Simpang Holis Soekarno Hatta",
        "role": "stop_exit_only",
        "mode": "bus"
      }
    }
  ]
}