{
  "type": "FeatureCollection",
  "features": [
    {
      "type": "Feature",
      "geometry": {
        "type": "Point",
        "coordinates": [
          107.6027695,
          -6.9338128
        ]
      },
      "properties": {
        "id": "3246190447",
        "name": "Terminal Tegallega",
        "role": "stop_entry_only",
        "isReal": true,
        "mode": "bus"
      }
    },
    {
      "type": "Feature",
      "geometry": {
        "type": "Point",
        "coordinates": [
          107.60203455,
          -6.9320079
        ]
      },
      "properties": {
        "id": "virtual_107.6020_-6.9320",
        "name": "Jalan terdekat",
        "role": "virtual",
        "isReal": false,
        "mode": "bus"
      }
    },
    {
      "type": "Feature",
      "geometry": {
        "type": "Point",
        "coordinates": [
          107.601334,
          -6.9306827
        ]
      },
      "properties": {
        "id": "3383341282",
        "name": "Pasar Astana Anyar",
        "role": "stop",
        "isReal": true,
        "mode": "bus"
      }
    },
    {
      "type": "Feature",
      "geometry": {
        "type": "Point",
        "coordinates": [
          107.600717,
          -6.9293977
        ]
      },
      "properties": {
        "id": "6443280171",
        "name": "Astana Anyar RSIA Kota Bandung",
        "role": "stop",
        "isReal": true,
        "mode": "bus"
      }
    },
    {
      "type": "Feature",
      "geometry": {
        "type": "Point",
        "coordinates": [
          107.5997325,
          -6.9263959
        ]
      },
      "properties": {
        "id": "12806765749",
        "name": "Simpang Astanaanyar Pasirkoja",
        "role": "stop",
        "isReal": true,
        "mode": "bus"
      }
    },
    {
      "type": "Feature",
      "geometry": {
        "type": "Point",
        "coordinates": [
          107.5991575,
          -6.9247939
        ]
      },
      "properties": {
        "id": "12809227879",
        "name": "Jalan Haji Safari",
        "role": "stop",
        "isReal": true,
        "mode": "bus"
      }
    },
    {
      "type": "Feature",
      "geometry": {
        "type": "Point",
        "coordinates": [
          107.598583,
          -6.9226401
        ]
      },
      "properties": {
        "id": "12806765750",
        "name": "Karanganyar",
        "role": "stop",
        "isReal": true,
        "mode": "bus"
      }
    },
    {
      "type": "Feature",
      "geometry": {
        "type": "Point",
        "coordinates": [
          107.5984181,
          -6.9209178
        ]
      },
      "properties": {
        "id": "12806765752",
        "name": "Cibadak Astanaanyar",
        "role": "stop",
        "isReal": true,
        "mode": "bus"
      }
    },
    {
      "type": "Feature",
      "geometry": {
        "type": "Point",
        "coordinates": [
          107.5983096,
          -6.9194582
        ]
      },
      "properties": {
        "id": "12809269114",
        "name": "Seberang SMAN 4 Bandung",
        "role": "stop",
        "isReal": true,
        "mode": "bus"
      }
    },
    {
      "type": "Feature",
      "geometry": {
        "type": "Point",
        "coordinates": [
          107.5988546,
          -6.916282
        ]
      },
      "properties": {
        "id": "25434237",
        "name": "GKI Kebonjati",
        "role": "stop",
        "isReal": true,
        "mode": "bus"
      }
    },
    {
      "type": "Feature",
      "geometry": {
        "type": "Point",
        "coordinates": [
          107.599627,
          -6.9162422
        ]
      },
      "properties": {
        "id": "11735248674",
        "name": "SMA Pasundan",
        "role": "stop",
        "isReal": true,
        "mode": "bus"
      }
    },
    {
      "type": "Feature",
      "geometry": {
        "type": "Point",
        "coordinates": [
          107.6024001,
          -6.9161478
        ]
      },
      "properties": {
        "id": "1013407725",
        "name": "Stasiun Hall",
        "role": "stop",
        "isReal": true,
        "mode": "bus"
      }
    },
    {
      "type": "Feature",
      "geometry": {
        "type": "Point",
        "coordinates": [
          107.604546,
          -6.9153572
        ]
      },
      "properties": {
        "id": "11262097619",
        "name": "Stasiun Timur",
        "role": "stop",
        "isReal": true,
        "mode": "bus"
      }
    },
    {
      "type": "Feature",
      "geometry": {
        "type": "Point",
        "coordinates": [
          107.60708600000001,
          -6.9144570000000005
        ]
      },
      "properties": {
        "id": "virtual_107.6071_-6.9145",
        "name": "Jalan terdekat",
        "role": "virtual",
        "isReal": false,
        "mode": "bus"
      }
    },
    {
      "type": "Feature",
      "geometry": {
        "type": "Point",
        "coordinates": [
          107.6029303,
          -6.9125954
        ]
      },
      "properties": {
        "id": "293384756",
        "name": "Stasiun Bandung",
        "role": "stop",
        "isReal": true,
        "mode": "bus"
      }
    },
    {
      "type": "Feature",
      "geometry": {
        "type": "Point",
        "coordinates": [
          107.6007223,
          -6.9124771
        ]
      },
      "properties": {
        "id": "12806120204",
        "name": "Haji Mesri",
        "role": "stop",
        "isReal": true,
        "mode": "bus"
      }
    },
    {
      "type": "Feature",
      "geometry": {
        "type": "Point",
        "coordinates": [
          107.5979188,
          -6.9114098
        ]
      },
      "properties": {
        "id": "11739021629",
        "name": "SMAN 6 Bandung",
        "role": "stop",
        "isReal": true,
        "mode": "bus"
      }
    },
    {
      "type": "Feature",
      "geometry": {
        "type": "Point",
        "coordinates": [
          107.5977774,
          -6.9094546
        ]
      },
      "properties": {
        "id": "virtual_107.5978_-6.9095",
        "name": "Jalan HOS. Cokroaminoto",
        "role": "virtual",
        "isReal": false,
        "mode": "bus"
      }
    },
    {
      "type": "Feature",
      "geometry": {
        "type": "Point",
        "coordinates": [
          107.5976849,
          -6.9081059
        ]
      },
      "properties": {
        "id": "12806120202",
        "name": "SDN 013 Pajajaran",
        "role": "stop",
        "isReal": true,
        "mode": "bus"
      }
    },
    {
      "type": "Feature",
      "geometry": {
        "type": "Point",
        "coordinates": [
          107.5992067,
          -6.9068065
        ]
      },
      "properties": {
        "id": "2012498684",
        "name": "Taman Adipura",
        "role": "stop",
        "isReal": true,
        "mode": "bus"
      }
    },
    {
      "type": "Feature",
      "geometry": {
        "type": "Point",
        "coordinates": [
          107.599992,
          -6.906861
        ]
      },
      "properties": {
        "id": "11138593915",
        "name": "SDN Pajajaran",
        "role": "stop",
        "isReal": true,
        "mode": "bus"
      }
    },
    {
      "type": "Feature",
      "geometry": {
        "type": "Point",
        "coordinates": [
          107.6019252,
          -6.9070015
        ]
      },
      "properties": {
        "id": "25500626",
        "name": "GOR Padjajaran",
        "role": "stop",
        "isReal": true,
        "mode": "bus"
      }
    },
    {
      "type": "Feature",
      "geometry": {
        "type": "Point",
        "coordinates": [
          107.6044125,
          -6.9064803
        ]
      },
      "properties": {
        "id": "11739021630",
        "name": "STHB (Sekolah Tinggi Hukum Bandung)",
        "role": "stop",
        "isReal": true,
        "mode": "bus"
      }
    },
    {
      "type": "Feature",
      "geometry": {
        "type": "Point",
        "coordinates": [
          107.605369,
          -6.9039986
        ]
      },
      "properties": {
        "id": "12809237525",
        "name": "Linggawastu",
        "role": "stop",
        "isReal": true,
        "mode": "bus"
      }
    },
    {
      "type": "Feature",
      "geometry": {
        "type": "Point",
        "coordinates": [
          107.607265,
          -6.9048943
        ]
      },
      "properties": {
        "id": "3376669071",
        "name": "Pasar Kembang Wastukencana",
        "role": "stop",
        "isReal": true,
        "mode": "bus"
      }
    },
    {
      "type": "Feature",
      "geometry": {
        "type": "Point",
        "coordinates": [
          107.6081315,
          -6.9043332
        ]
      },
      "properties": {
        "id": "29392595",
        "name": "UNISBA",
        "role": "stop",
        "isReal": true,
        "mode": "bus"
      }
    },
    {
      "type": "Feature",
      "geometry": {
        "type": "Point",
        "coordinates": [
          107.60829203333334,
          -6.9017783
        ]
      },
      "properties": {
        "id": "virtual_107.6083_-6.9018",
        "name": "Jalan terdekat",
        "role": "virtual",
        "isReal": false,
        "mode": "bus"
      }
    },
    {
      "type": "Feature",
      "geometry": {
        "type": "Point",
        "coordinates": [
          107.6093403,
          -6.8987437
        ]
      },
      "properties": {
        "id": "1969331852",
        "name": "Balubur Town Square",
        "role": "stop",
        "isReal": true,
        "mode": "bus"
      }
    },
    {
      "type": "Feature",
      "geometry": {
        "type": "Point",
        "coordinates": [
          107.6096181,
          -6.8970719
        ]
      },
      "properties": {
        "id": "3376871368",
        "name": "Pelesiran",
        "role": "stop",
        "isReal": true,
        "mode": "bus"
      }
    },
    {
      "type": "Feature",
      "geometry": {
        "type": "Point",
        "coordinates": [
          107.6083698,
          -6.8933258
        ]
      },
      "properties": {
        "id": "11262097538",
        "name": "Tamansari (Bonbin)",
        "role": "stop",
        "isReal": true,
        "mode": "bus"
      }
    },
    {
      "type": "Feature",
      "geometry": {
        "type": "Point",
        "coordinates": [
          107.60805613333333,
          -6.8903052
        ]
      },
      "properties": {
        "id": "virtual_107.6081_-6.8903",
        "name": "Jalan terdekat",
        "role": "virtual",
        "isReal": false,
        "mode": "bus"
      }
    },
    {
      "type": "Feature",
      "geometry": {
        "type": "Point",
        "coordinates": [
          107.6080995,
          -6.8888308
        ]
      },
      "properties": {
        "id": "12805921498",
        "name": "BATAN",
        "role": "stop",
        "isReal": true,
        "mode": "bus"
      }
    },
    {
      "type": "Feature",
      "geometry": {
        "type": "Point",
        "coordinates": [
          107.609232,
          -6.8877401
        ]
      },
      "properties": {
        "id": "3530181074",
        "name": "Sabuga ITB",
        "role": "stop",
        "isReal": true,
        "mode": "bus"
      }
    },
    {
      "type": "Feature",
      "geometry": {
        "type": "Point",
        "coordinates": [
          107.6116232,
          -6.8843045
        ]
      },
      "properties": {
        "id": "12813184472",
        "name": "Sangkuriang",
        "role": "stop",
        "isReal": true,
        "mode": "bus"
      }
    },
    {
      "type": "Feature",
      "geometry": {
        "type": "Point",
        "coordinates": [
          107.6112809,
          -6.8829312
        ]
      },
      "properties": {
        "id": "virtual_107.6113_-6.8829",
        "name": "Jalan terdekat",
        "role": "virtual",
        "isReal": false,
        "mode": "bus"
      }
    },
    {
      "type": "Feature",
      "geometry": {
        "type": "Point",
        "coordinates": [
          107.61182406666667,
          -6.881326966666666
        ]
      },
      "properties": {
        "id": "virtual_107.6118_-6.8813",
        "name": "Jalan terdekat",
        "role": "virtual",
        "isReal": false,
        "mode": "bus"
      }
    },
    {
      "type": "Feature",
      "geometry": {
        "type": "Point",
        "coordinates": [
          107.6120393,
          -6.8796599
        ]
      },
      "properties": {
        "id": "11313188130",
        "name": "Pusdiklat Geologi Cisitu",
        "role": "stop_exit_only",
        "isReal": true,
        "mode": "bus"
      }
    }
  ]
}