stop_id,stop_name,stop_lat,stop_lon,location_type,wheelchair_boarding
10314211362,Padalarang,-6.8434759,107.4978557,0,0
7835804492,Gadobangkong,-6.8653045,107.5154562,0,0
3370786092,Cimahi,-6.8865383,107.5366775,0,0
3370786794,Cimindi,-6.8965475,107.5617886,0,0
3370786798,Ciroyom,-6.9140765,107.5913716,0,0
10312881283,Bandung,-6.9145291,107.6031495,0,0
1228645053,Cikudapateuh,-6.9190287,107.6268971,0,0
11549081619,Kiaracondong,-6.9254604,107.6474712,0,0
11549081662,Gedebage,-6.9411554,107.6905412,0,0
10694286157,Cimekar,-6.9492676,107.7129671,0,0
10693253652,Rancaekek,-6.9651313,107.7564447,0,0
10693478235,Haurpugur,-6.9808307,107.7998788,0,0
11407574339,Cicalengka,-6.9821908,107.8330738,0,0
11407574341,Cicalengka,-6.981035,107.8320912,0,0
6872615131,Haurpugur,-6.9802356,107.7983447,0,0
10693253653,Rancaekek,-6.9646056,107.7553737,0,0
10694286156,Cimekar,-6.9486453,107.7113976,0,0
11549081663,Gedebage,-6.940438,107.6888097,0,0
11549081621,Kiaracondong,-6.9247723,107.6456051,0,0
7835805289,Cikudapateuh,-6.9185947,107.625378,0,0
10694245344,Bandung,-6.9144562,107.6013653,0,0
10693460291,Ciroyom,-6.9139018,107.5896798,0,0
291546102,Cimindi,-6.8956811,107.5606244,0,0
11546259370,Cimahi,-6.8849429,107.5353528,0,0
3468494606,Gadobangkong,-6.8637207,107.514805,0,0
10693460257,Padalarang,-6.8424481,107.4968441,0,0
10693460258,Padalarang,-6.8424956,107.4968046,0,0
11755899803,Cicalengka,-6.980985,107.8321466,0,0
1227216840,Padalarang,-6.8423863,107.4969052,0,0
11432455980,Cilame,-6.8032048,107.4629178,0,0
10694595318,Sasaksaat,-6.7790843,107.4314942,0,0
3352316735,Maswati,-6.7608275,107.4080713,0,0
10694595366,Rendeh,-6.7359973,107.3978666,0,0
10314211393,Cikadongdong,-6.7151762,107.3903795,0,0
10314211390,Plered,-6.6402782,107.3913512,0,0
10698993414,Sukatani,-6.6105348,107.4086071,0,0
10698966829,Ciganea,-6.5737471,107.4309483,0,0
10698921283,Purwakarta,-6.5525636,107.4464512,0,0
12063631330,Purwakarta,-6.553856,107.447082,0,0
10698966828,Ciganea,-6.5729485,107.4301051,0,0
10694595400,Sukatani,-6.6111493,107.4083066,0,0
10314211391,Plered,-6.6416537,107.3912649,0,0
10314211392,Cikadongdong,-6.715896,107.3913369,0,0
3448590009,Rendeh,-6.7365152,107.3993095,0,0
10694595345,Maswati,-6.760778,107.4093454,0,0
10694595317,Sasaksaat,-6.78052,107.4321188,0,0
11432455981,Cilame,-6.8036184,107.4645349,0,0
10314211366,Padalarang,-6.8435633,107.4980668,0,0
11874360196,Cicalengka,-6.9821038,107.8331166,0,0
9961298138,Nagreg,-7.0187312,107.8872319,0,0
535300018,Leles,-7.0849971,107.8998538,0,0
7206399183,Karangsari,-7.0988099,107.931297,0,0
10694286200,Leuwigoong,-7.1028395,107.9587146,0,0
10314211373,Cibatu,-7.0997162,107.9803328,0,0
9961235587,Pasirjengkol,-7.1291772,107.9922967,0,0
9961258726,Wanaraja,-7.1658406,107.9762771,0,0
10694286203,Garut,-7.2134006,107.9023164,0,0
11871903351,Garut,-7.2134704,107.905318,0,0
9961258724,Wanaraja,-7.1640756,107.9770777,0,0
10694286202,Pasirjengkol,-7.1273374,107.9925883,0,0
7205156020,Cibatu,-7.1002693,107.9787295,0,0
10694286201,Leuwigoong,-7.1038719,107.9575344,0,0
7206401686,Karangsari,-7.0974245,107.9308109,0,0
9961298076,Leles,-7.0838873,107.8997164,0,0
11874360195,Nagreg,-7.0178472,107.8854353,0,0
3277886379,Terminal Leuwipanjang,-6.9458452,107.5932425,0,0
12626357384,Hotel Grand Pasundan,-6.9360768,107.5934112,0,0
12626357385,Bumi Kopo Kencana,-6.933574,107.5905268,0,0
12626357386,Festival Citylink,-6.9291184,107.5872624,0,0
12626357387,Simpang Pasir Koja,-6.9270511,107.5849563,0,0
12626357388,SPBU Pasir Koja,-6.9292122,107.5793217,0,0
12626357389,Hotel Soreang A,-7.0141236,107.5309483,0,0
12626357390,Mall Pelayanan Publik,-7.0206847,107.5292319,0,0
12626357392,Plaza Pemkab Bandung,-7.0234041,107.5303409,0,0
12626357393,Simpang Desa Soreang,-7.0287904,107.5287745,0,0
12626357394,Pasar Ikan Modern,-7.0305108,107.5412986,0,0
12626357395,RSUD Otto Iskandar Dinata,-7.0273253,107.5425246,0,0
12626357396,Samsat Soreang,-7.0218422,107.5416105,0,0
12626357397,Geo Dipa Energi,-7.0154748,107.5363125,0,0
12626357383,Hotel Soreang B,-7.0141857,107.530779,0,0
12626357398,Sumber Sari Junction,-6.9323901,107.576671,0,0
12626357399,Pasar Induk Caringin,-6.9419015,107.5831212,0,0
11295303565,Leuwipanjang Soekarno Hatta,-6.9468277,107.5934341,0,0
11955383183,IKEA Kota Baru Parahyangan,-6.8663512,107.4668097,0,0
12143596539,Wahoo Waterworld,-6.8655811,107.4654195,0,0
11955383184,Parahyangan Timur,-6.8663744,107.4712124,0,0
11955383185,Rumah Sakit Cahaya Kawaluyaan,-6.8665328,107.4734039,0,0
11955383187,Masjid Al Irsyad,-6.8648529,107.4783521,0,0
11955383188,Tatar Wangsakerta A,-6.8619949,107.4805786,0,0
11955383190,Bale Pare A,-6.8568342,107.4897438,0,0
11536873492,Stasiun Kereta Cepat Padalarang,-6.8428228,107.4966418,0,0
11953710372,STEI LPPM A,-6.8573652,107.4986651,0,0
5287090695,RS Karisma Cimareme A,-6.8629469,107.5028237,0,0
5348536065,RS IMC A,-6.8633262,107.5098225,0,0
9908476904,Masjid Ar Ridwan A,-6.8675906,107.5190095,0,0
11954137035,Padasuka Indah A,-6.8685422,107.5263898,0,0
11954137037,Ranca Belut A,-6.8688013,107.5319386,0,0
11954137039,PLN Cisangkan A,-6.8704221,107.5363908,0,0
10680256969,BRI Cimahi,-6.8748788,107.5442734,0,0
11954552709,RSUD Cibabat A,-6.8797123,107.5503819,0,0
11954552711,Dinas Sosial,-6.8859958,107.5542851,0,0
11954552713,Jalan Budi,-6.8921818,107.5580359,0,0
11954552722,SMAN 13 Bandung A,-6.9033346,107.5648032,0,0
11954552728,Paledang,-6.905851,107.5663258,0,0
11711326971,Rajawali Barat,-6.9109306,107.5701462,0,0
11711326972,Plaza Telkom Rajawali,-6.9129722,107.5753653,0,0
11735239264,Rajawali 1,-6.9137773,107.5781901,0,0
11735239266,Dunguscariang,-6.9149105,107.5828928,0,0
11735239268,SMA Trinitas,-6.9165436,107.5917121,0,0
11735248671,Rumah Sakit Kebon Jati,-6.9163694,107.5966005,0,0
11735248674,SMA Pasundan,-6.9162422,107.599627,0,0
11711326974,Perintis Kemerdekaan,-6.9140241,107.607935,0,0
1849525838,Lembong,-6.916445,107.609811,0,0
11711275743,Alun-Alun Bandung,-6.9211653,107.6071455,0,0
11711275750,KEB Hana Bank,-6.9205571,107.6020569,0,0
11711275748,GKI Anugerah,-6.9200243,107.597515,0,0
11711275755,Mayapada Tower,-6.9193345,107.591747,0,0
11711275757,Toko Ambon,-6.9186067,107.5855198,0,0
11711275763,Kemenag Kanwil Jabar,-6.9176018,107.5771136,0,0
2604179157,Optik Krida,-6.9155598,107.5720549,0,0
11711326969,Sudirman 3,-6.9115004,107.5696333,0,0
11954552729,Kebon Kopi,-6.9063062,107.5664877,0,0
11954552723,SMAN 13 Bandung B,-6.9033981,107.5647281,0,0
11954552712,Cilembar,-6.8923353,107.5579997,0,0
11954552710,RS Mitra Kasih,-6.8837408,107.5528472,0,0
10680256973,RSUD Cibabat B,-6.8796404,107.5503366,0,0
10680256972,SMPN 6 Cimahi,-6.8772766,107.5452289,0,0
10680256971,Gedung 4,-6.8799337,107.5417036,0,0
11954552707,Buana,-6.8759934,107.5406762,0,0
10680256963,PLN Cisangkan B,-6.8704594,107.5364884,0,0
10680256961,Ranca Belut B,-6.8687794,107.531878,0,0
10680256959,Padasuka Indah B,-6.8684195,107.5260715,0,0
11953710374,Masjid Ar Ridwan B,-6.8676288,107.5191264,0,0
10680256956,RS IMC B,-6.8634203,107.5100491,0,0
10680256954,RS Karisma Cimareme B,-6.8630015,107.502934,0,0
11953710371,STEI LPPM B,-6.8574856,107.4986734,0,0
10680256950,Bale Pare B,-6.8567205,107.4901266,0,0
11955383189,Tatar Wangsakerta B,-6.8612441,107.4815775,0,0
12143596541,Parahyangan Utara B,-6.865168,107.4782844,0,0
11955383186,Tatar Pitaloka (Parahyangan Selatan),-6.8665457,107.4738005,0,0
11871901023,Baleendah,-7.0067058,107.6261375,0,0
2477247661,Masjid Al-Amanah,-7.0059605,107.6287137,0,0
12626499677,Matahari Land,-7.0040341,107.6312603,0,0
12626499678,Masjid Jami' Baitul Huda A,-7.0002118,107.6318753,0,0
12626499680,Bubur Ayam H. Amid,-6.9946948,107.6308112,0,0
12626499683,Borma Bojongsoang,-6.984586,107.6330944,0,0
12626499685,SD Negeri Lengkong,-6.9763963,107.6352127,0,0
12626499686,Puskesmas Bojongsoang,-6.9676213,107.6374709,0,0
12626499690,Bluebird A,-6.9576866,107.639482,0,0
35138340,Pasar Kordon A,-6.9541863,107.638933,0,0
12626499693,JAPNAS,-6.9512022,107.6364761,0,0
2614138793,Medal Sekarwangi,-6.9484371,107.6323136,0,0
12626499697,Bangunan Mart A,-6.9494451,107.6281496,0,0
12626499700,LPKIA A,-6.9495008,107.6242225,0,0
3384018111,PT LEN Industri A,-6.9490929,107.6190348,0,0
12626529703,PLN UP3 Bandung A,-6.9485877,107.612094,0,0
11739021648,TK Kemala Bhayangkari,-6.9453744,107.608407,0,0
11707031622,Sekolah Ganesha,-6.9390693,107.6063015,0,0
5355897678,Taman Tegalega 3,-6.9365596,107.6062815,0,0
11883812981,SDN Moh. Toha,-6.9301452,107.6067877,0,0
12626529705,ITC Kebon Kalapa,-6.926739,107.6059915,0,0
11898859975,Grand Yogya Kepatihan,-6.9238597,107.606261,0,0
12626529706,Banceuy,-6.9187122,107.6066404,0,0
11262097619,Stasiun Timur,-6.9153572,107.604546,0,0
293384756,Stasiun Bandung,-6.9125954,107.6029303,0,0
11739021629,SMAN 6 Bandung,-6.9114098,107.5979188,0,0
11138593915,SDN Pajajaran,-6.906861,107.599992,0,0
11739021630,STHB (Sekolah Tinggi Hukum Bandung),-6.9064803,107.6044125,0,0
5825243776,Bandung Electronic Center,-6.9081456,107.6093744,0,0
3376669066,Museum Kota Bandung,-6.9101076,107.6097021,0,0
11739021637,Merdeka,-6.9125343,107.6104548,0,0
11739021639,Toko Mas ABC,-6.9230192,107.6039434,0,0
11739021641,Simpang Ijan,-6.9280445,107.6036329,0,0
11739021644,Taman Tegallega,-6.9339734,107.603223,0,0
11707031623,Muhammad Toha 1 (PT INTI A),-6.939027,107.6062885,0,0
11739021649,Madurasa Tengah,-6.945205,107.6083491,0,0
3272360374,PLN UP3 Bandung B,-6.9484924,107.6121553,0,0
3384018110,PT LEN Industri B,-6.9489877,107.619152,0,0
12626499699,LPKIA B,-6.9494301,107.6248137,0,0
12626499698,Bangunan Mart B,-6.9493306,107.6280918,0,0
12626499695,Taman Buah Batu,-6.9484693,107.6339239,0,0
12626499694,Swadarma BNI,-6.9503784,107.6357751,0,0
12626499692,Pasar Kordon B,-6.9534876,107.6387006,0,0
12626499689,Bluebird B,-6.9584038,107.6394982,0,0
12626499688,Puskesmas Kujangsari B,-6.9649573,107.6381038,0,0
12626499687,Transmart Buahbatu,-6.9671846,107.6375686,0,0
549740249,Permata Buah Batu,-6.9729226,107.6361478,0,0
11950910945,Podomoro,-6.9749692,107.6355974,0,0
12626499684,AHASS,-6.981957,107.6339127,0,0
12626499682,Griya Bandung Asri,-6.9857289,107.6328659,0,0
12626499681,Alfamart SPBU Bojongsoang,-6.9914167,107.6316525,0,0
12626499679,Masjid Jami' Baitul Huda B,-7.0002949,107.6318593,0,0
2477247659,Apotek K24,-7.0054785,107.6309071,0,0
12626499675,KEJARI Bale Bandung,-7.0059629,107.6235977,0,0
12626499676,RS Al-Ihsan,-7.0074774,107.6243131,0,0
3277886365,Terminal Leuwipanjang,-6.9458124,107.5932469,0,0
11739021652,Rumah Sakit Immanuel A,-6.9372267,107.5956524,0,0
11739021646,Taman Tegallega,-6.9365059,107.6030596,0,0
11739021654,Pintu Masuk Terminal Tegallega,-6.9338521,107.6024577,0,0
6443280171,Astana Anyar RSIA Kota Bandung,-6.9293977,107.600717,0,0
1013407725,Stasiun Hall,-6.9161478,107.6024001,0,0
11739064594,SMK Negeri 1 Bandung,-6.9130013,107.609039,0,0
11739021634,Riau XL,-6.9068537,107.6096165,0,0
10653503633,Hotel The-One-O-One A,-6.9065022,107.6105556,0,0
10778322183,Taman Radio A,-6.9024821,107.6115254,0,0
11104718108,Kartikasari A,-6.8975185,107.6127786,0,0
11104669204,Rumah Sakit Santo Borromeus A,-6.8944643,107.6129302,0,0
11739021656,Masjid Baiturrahman,-6.8866267,107.6149671,0,0
11707030824,UNPAD Dipatiukur (4D),-6.8923055,107.6177764,0,0
11104718106,Rumah Sakit Santo Borromeus B,-6.8948263,107.6134343,0,0
10778322181,Kartikasari B,-6.897514,107.6128416,0,0
10778322182,Taman Radio B,-6.9025069,107.6115838,0,0
10653503634,Hotel The-One-O-One B,-6.9065902,107.6106208,0,0
11739021633,Bandung Indah Plaza,-6.9088887,107.610623,0,0
11735248675,Bank Indonesia,-6.9145426,107.608993,0,0
29354702,Pasar Baru,-6.9164303,107.6044519,0,0
10778322188,Dalem Kaum,-6.9219758,107.6040142,0,0
11739021642,Jalan Ibu Inggit Garnasih,-6.9314959,107.6039218,0,0
11739021647,Pasar Tegalega,-6.9368241,107.6062604,0,0
10815723012,Simpang Mohamad Toha Biddokkes,-6.9375586,107.6055097,0,0
11739021653,Rumah Sakit Immanuel B,-6.9372977,107.5955421,0,0
3375793673,UNPAD Dipatiukur,-6.8934568,107.6180361,0,0
11707030826,Panatayudha A,-6.8979225,107.6161542,0,0
1666155324,Lapangan Gasibu A,-6.9011743,107.6199195,0,0
11707030829,PUSDAI A,-6.9010661,107.6241876,0,0
11707030832,SMPN 14 Bandung (Lapangan Supratman A),-6.9080655,107.6301163,0,0
1107694939,Taman Pramuka,-6.9106475,107.6274766,0,0
3375793687,Hotel Grand Tebu,-6.9130163,107.6288644,0,0
11707030860,Bandung Creative Hub A,-6.9183624,107.6313457,0,0
7702036194,Hotel Horison A,-6.9343354,107.6252887,0,0
5487616737,Simpang By Pass Soekarno Hatta A,-6.9473728,107.6090862,0,0
11711185184,SPBU Moh. Toha,-6.954618,107.6115168,0,0
11711185187,Cileunyi A,-6.9410603,107.7541846,0,0
1966499313,IPDN A,-6.9356267,107.7652049,0,0
10697346845,UNPAD Jatinangor,-6.932299,107.7732376,0,0
11711185243,Jatinangor Town Square,-6.933968,107.7712431,0,0
5867026762,IPDN B,-6.9357446,107.7651014,0,0
11711185188,Cileunyi B,-6.9426257,107.7557736,0,0
11711185185,Jalan Haji Tatang Sumantri,-6.9547392,107.6115567,0,0
11707031627,Simpang By Pass Soekarno Hatta B,-6.9483342,107.6087518,0,0
11707031601,PT INTI B (BKR 5),-6.9375463,107.6067624,0,0
11707031579,Hotel Horison B,-6.9343038,107.6251981,0,0
11707030859,Bandung Creative Hub B,-6.9184177,107.6312506,0,0
11955476811,SPBU Ahmad Yani,-6.9129263,107.6339654,0,0
11707030833,SDN 062 Ciujung Bandung (Lapangan Supratman B),-6.907261,107.6297079,0,0
11707030828,PUSDAI B,-6.9011517,107.6241682,0,0
11707030827,Lapangan Gasibu B,-6.9012501,107.6201283,0,0
11707030825,Panatayudha B,-6.8979434,107.6161572,0,0
12628901396,SDN Babakan Tarogong,-6.9384872,107.594148,0,0
12628930762,Muara A,-6.9371534,107.6020331,0,0
12628930746,Palasari Radio,-6.9742063,107.6181453,0,0
12628930749,Zipur Dayeuhkolot,-6.9861797,107.624845,0,0
12628930752,Pasar Baleendah A,-6.9989678,107.6316216,0,0
12628930755,Bumi Siliwangi,-7.0100016,107.6397222,0,0
2459057875,Terminal Ciparay,-7.0357328,107.713347,0,0
12628930760,Terminal Majalaya,-7.0477372,107.7601852,0,0
12628930757,Giriharja Jelekong,-7.020725,107.6563884,0,0
12628930753,Pasar Baleendah B,-6.9990175,107.6316458,0,0
305891851,Palasari Ceres,-6.9719753,107.6173961,0,0
35131593,Bundaran Cibiru,-6.9352673,107.7175908,0,0
12806516349,Panyileukan,-6.9357289,107.7121547,0,0
12806516346,Cimincrang,-6.9361475,107.7064226,0,0
12806516345,Shakti,-6.936831,107.6970872,0,0
12806516344,Barat Simpang Gedebage,-6.9372117,107.6918125,0,0
12806868621,SMKN 6 Bandung,-6.9380944,107.6794141,0,0
12806868622,Cipamokolan,-6.9382789,107.6768401,0,0
12806868623,Aria Graha,-6.9385626,107.6729122,0,0
3375689668,RS Al Islam,-6.9388175,107.6692698,0,0
12806868625,Metro,-6.93901,107.6665574,0,0
12806868626,Rancabolang,-6.9392635,107.6633094,0,0
12806868627,SMKN 7 Bandung,-6.939893,107.6598099,0,0
12806868632,Gagak Rimang,-6.9400797,107.6590642,0,0
3272226033,Metro Indah Mall,-6.9403972,107.6580268,0,0
12806868633,BPN Kanwil Jabar,-6.9406892,107.6570876,0,0
12806851397,Cidurian Selatan,-6.9420012,107.6529256,0,0
12806868637,Kantor Pos Sekejati,-6.9427159,107.6506763,0,0
12806868639,Disnaker Jabar,-6.944058,107.646481,0,0
12806868640,UNINUS,-6.9448492,107.6441008,0,0
12806868670,Tenth Avenue,-6.9458361,107.6408496,0,0
12806868674,Sekelimus Tengah,-6.9466415,107.6381159,0,0
12806868677,Sekelimus Barat,-6.9475072,107.6353065,0,0
12808867752,STIE Inaba,-6.9493807,107.6227995,0,0
12808867754,Mengger Girang,-6.9490185,107.6180229,0,0
12808867758,Ampera Soekarno Hatta,-6.9480749,107.6050974,0,0
12808867763,Karasak Lama,-6.9478683,107.6021954,0,0
3277891129,Seberang Terminal Leuwipanjang,-6.9469193,107.592997,0,0
12633822769,Pasar Caringin,-6.9419021,107.5829792,0,0
12808867766,Griya Sumbersari,-6.9325102,107.5766013,0,0
12808867768,Holis 2,-6.9248687,107.5750983,0,0
11954573590,Batas Kota,-6.9109035,107.569361,0,0
12627968405,Terminal Elang,-6.9135373,107.5755571,0,0
12808867767,Holis 1,-6.9252035,107.575247,0,0
12808867765,Sumbersari 1,-6.9313117,107.5763049,0,0
12808867764,Simpang Caringin,-6.9434372,107.5850407,0,0
12808867762,Inhoftank,-6.9478017,107.6022466,0,0
12808867760,Seberang Ampera Soekarno Hatta,-6.9479853,107.6051379,0,0
12808867756,Karasak Utara,-6.9480912,107.6067107,0,0
12806868676,Griya Hemat,-6.9474943,107.6348946,0,0
12806868672,Sekelimus Utara,-6.9464022,107.638444,0,0
5825209951,Simpang Samsat Kiaracondong,-6.9450226,107.6428119,0,0
12806851389,STT Mandala,-6.944662,107.6438888,0,0
12806851390,SMK Medika Com,-6.9438278,107.6464874,0,0
12806851392,Unibi,-6.9425403,107.6505153,0,0
12806851396,Cidurian Utara,-6.941787,107.6528692,0,0
12806851393,SMKN 9 Bandung,-6.9405212,107.6569119,0,0
3375689664,Jasa Raharja Jabar,-6.9400924,107.6582639,0,0
12806851400,Suparma,-6.9395718,107.6601512,0,0
12806868601,Kawaluyaan,-6.9390207,107.6635594,0,0
12806868603,Sanggar Hurip,-6.938728,107.6672726,0,0
12806868618,Cisaranten Kulon,-6.9379974,107.6775339,0,0
12806868620,KPP Pratama Cicadas,-6.9378628,107.6794352,0,0
12814754658,Depan Pasar Gedebage,-6.9365674,107.6973063,0,0
12806516348,Universitas Bhakti Kencana,-6.9356286,107.7099558,0,0
6460801785,Terminal Cicaheum,-6.902329,107.6565637,0,0
11735248707,BCA Cimuncang,-6.9060351,107.6483165,0,0
11735248706,Gateway Cicadas,-6.9072816,107.6459395,0,0
3248969440,BTM,-6.911388,107.6434825,0,0
11735248700,Flyover Antapani,-6.9138756,107.6429791,0,0
3375793691,WUJ Jalan Banten,-6.9142036,107.6399016,0,0
11735248701,STMIK,-6.9144188,107.6381956,0,0
11735248702,GOR KONI,-6.9146627,107.6362469,0,0
11735248692,IBCC,-6.9142791,107.6327884,0,0
11735248690,Stadion Persib Sidolig,-6.9161976,107.6292904,0,0
5391666905,Cikudapateuh,-6.9186929,107.6245415,0,0
11735248683,Kantor Pos Kosambi,-6.9192144,107.6235031,0,0
3277420346,Seberang Pasar Kosambi,-6.9199617,107.6220644,0,0
11735248705,Ketapang,-6.921143,107.619848,0,0
11735248710,Asia Afrika,-6.9222132,107.61585,0,0
11735248711,Gedung Keuangan Negara/KM 0,-6.921618,107.6110406,0,0
11735248713,Simpang Sudirman,-6.9207677,107.6038238,0,0
11735248714,Sukamanah,-6.9195734,107.5937417,0,0
11735248716,Simpang Jamika,-6.9188238,107.5874451,0,0
11954573588,SDN Raya Barat,-6.9181852,107.5819763,0,0
11711326973,Terminal Elang,-6.9133498,107.575723,0,0
1911635044,Yayasan LPPN,-6.9157549,107.5853751,0,0
25434237,GKI Kebonjati,-6.916282,107.5988546,0,0
10801865379,Telkom Lembong,-6.9170839,107.6111029,0,0
11735248678,RSU Bungsu,-6.9182518,107.6132908,0,0
11735248679,Pasar Kosambi,-6.9199012,107.6221779,0,0
11735248685,Segitiga Mas,-6.9179222,107.6258605,0,0
11735248686,Jaya Plaza,-6.9174142,107.6268373,0,0
11735248689,Dinas Pendidikan Kota Bandung,-6.9164526,107.6287225,0,0
5391666887,Jalan Mangga,-6.9151724,107.6310524,0,0
11735248691,Sekolah Agustinus,-6.9140574,107.6332108,0,0
3375793690,A.Yani Supratman,-6.9133253,107.6345966,0,0
11735248693,Cikaso,-6.9119025,107.637255,0,0
11735248694,Awi Bitung,-6.9106533,107.6396001,0,0
11735248708,Cimuncang,-6.9050722,107.650154,0,0
5832221935,Seberang Terminal Cicaheum,-6.9021302,107.6567969,0,0
5832221930,Cimuncang,-6.9016812,107.6490533,0,0
12628835706,Cikutra,-6.8997726,107.6426735,0,0
12628835704,Sukasenang Raya 1,-6.8984698,107.6371799,0,0
12628835703,BKKBN,-6.8982473,107.6324886,0,0
5832220641,SMPN 63 Kota Bandung,-6.8998537,107.6293496,0,0
12628813999,Wisma BKN,-6.89924,107.6222912,0,0
12628813996,Cikapayang Dago 1,-6.8990335,107.6120546,0,0
12628813994,Griya Pasteur 1,-6.8950796,107.5884432,0,0
12628813991,Warung Cepot,-6.8923414,107.5832389,0,0
3384993309,Maranatha,-6.8859263,107.5813607,0,0
12628813987,Lemahneundeut,-6.8813034,107.5787258,0,0
12628813989,Sarimanah,-6.8814266,107.5764264,0,0
12628813986,Sarijadi,-6.8816653,107.578425,0,0
12628813990,Setrasari,-6.8821984,107.5814944,0,0
12013144935,Mall d'Botanica,-6.8925604,107.5849478,0,0
12628813992,Griya Pasteur 2,-6.8948914,107.5883918,0,0
12628813995,Tamansari Cikapayang,-6.8982089,107.610121,0,0
5832170587,Cikapayang Dago 2,-6.898852,107.6135004,0,0
1660289593,Gasibu,-6.8992842,107.6179657,0,0
12628813998,Distan Jabar,-6.8992307,107.6227599,0,0
12628814000,Dapen Telkom,-6.8998503,107.6285873,0,0
12628835702,Jalaprang,-6.8983546,107.6321413,0,0
12013144934,ITENAS,-6.8982483,107.6362093,0,0
5832220656,Sukasenang Raya 2,-6.8984458,107.6370787,0,0
12628835705,Sekolah Pribadi,-6.8992417,107.6404383,0,0
5832221887,Sukapada,-6.9000256,107.6439328,0,0
12628835709,Surapati Core,-6.9018908,107.6525276,0,0
10693001605,Terminal Leuwipanjang,-6.9459075,107.5932351,0,0
12806765746,Taman Tegalega/Sri Baduga,-6.9373001,107.6037009,0,0
3445680780,Samsudin,-6.9375959,107.6083051,0,0
12808948210,Patung Ikan,-6.937657,107.610179,0,0
3272575985,BKR Buah Batu,-6.9365872,107.6231054,0,0
12809462424,Kangkung Kaler,-6.9308456,107.6260901,0,0
3375794694,DPRD Kota Bandung,-6.916856,107.6342682,0,0
3476292190,Dishub Jabar,-6.9181019,107.6324739,0,0
12809462425,Seberang Kangkung Kaler,-6.9308642,107.6261794,0,0
12808948211,Simpang Buah Batu BKR,-6.9373473,107.6222364,0,0
3376171471,Masjid An Nur PT INTI,-6.9376849,107.6084233,0,0
12806765747,Muara,-6.9374746,107.5999005,0,0
12809603991,RSUD Bandung Kiwari,-6.9430856,107.5913003,0,0
12809462429,RSIA Grha Bunda,-6.9134024,107.6455398,0,0
2493372403,Borma Antapani,-6.9129025,107.6495005,0,0
12809462431,Stikes Dharma Husada,-6.9127456,107.6507427,0,0
302241143,bjb Antapani,-6.9123839,107.6538136,0,0
11735248698,Depan Terminal Antapani,-6.9149741,107.6658807,0,0
3378630365,Seberang Borma Antapani,-6.9130091,107.6492727,0,0
12947493617,Seberang Hotel Grand Tebu,-6.9133503,107.6290686,0,0
3376430783,Tugu Tunas Taman Pramuka,-6.9105422,107.6265596,0,0
12947493616,Riau Aceh,-6.9097089,107.6256861,0,0
12809507149,bjb Riau,-6.9092859,107.6252606,0,0
12947493614,HKBP Riau,-6.9086974,107.624592,0,0
12809507147,Riau Cihapit,-6.9081445,107.623898,0,0
12809507143,Pengadilan Negeri Bandung,-6.9063102,107.6220332,0,0
12947493613,De Pavilijoen,-6.9058792,107.6207244,0,0
12947493612,Sekolah Taruna Bakti,-6.9060981,107.6183784,0,0
3375794699,Simpang Banda Riau,-6.9063138,107.6159699,0,0
12825997245,Hotel Santika,-6.9070669,107.6119393,0,0
3376669065,Taman Sejarah Balai Kota Bandung,-6.9103764,107.6106101,0,0
12806120224,SDN Merdeka 5,-6.915607,107.610154,0,0
3374033500,Tamblong,-6.9189576,107.6123364,0,0
12809269114,Seberang SMAN 4 Bandung,-6.9194582,107.5983096,0,0
12809274346,Masjid Al-Ukhuwwah,-6.9111612,107.6090912,0,0
12809274348,Wastukencana Purnawarman,-6.9088722,107.6079826,0,0
3269294966,Abdul Rivai,-6.904381,107.6038123,0,0
1700556149,Taman Westhoff,-6.9010192,107.5982442,0,0
12809082539,Djunjunan Paskal,-6.9003956,107.5968191,0,0
12809283847,SDN Sukaraja,-6.8914927,107.5786575,0,0
1396428138,Simpang Dakota,-6.8935189,107.5726156,0,0
12809283844,Borma Dakota,-6.8908761,107.572217,0,0
12809283842,Mentor,-6.889704,107.5698999,0,0
3250402136,Gunung Batu,-6.8875315,107.5672467,0,0
2317306703,Seberang Gateway Pasteur,-6.8893002,107.566898,0,0
1658426541,BPJS Pasteur,-6.8922539,107.5829072,0,0
2958261155,Djundjunan 3,-6.8929291,107.5856805,0,0
12809237524,GKI Pasteur,-6.9002045,107.6027269,0,0
12809237525,Linggawastu,-6.9039986,107.605369,0,0
3376669071,Pasar Kembang Wastukencana,-6.9048943,107.607265,0,0
12809237527,Pajajaran Timur,-6.9071527,107.6047535,0,0
3376669069,Kimia Farma,-6.9077123,107.6044661,0,0
12806120204,Haji Mesri,-6.9124771,107.6007223,0,0
3272722527,Simpang Gedebage Selatan,-6.9377585,107.6925095,0,0
11730486996,Summarecon Mall Bandung,-6.955658,107.6992029,0,0
4608003593,Terminal Leuwipanjang,-6.9458755,107.5932396,0,0
12806765749,Simpang Astanaanyar Pasirkoja,-6.9263959,107.5997325,0,0
12809227879,Jalan Haji Safari,-6.9247939,107.5991575,0,0
12806765750,Karanganyar,-6.9226401,107.598583,0,0
12806765752,Cibadak Astanaanyar,-6.9209178,107.5984181,0,0
3640664489,Paskal Hypersquare,-6.9155623,107.5981241,0,0
12806120202,SDN 013 Pajajaran,-6.9081059,107.5976849,0,0
5639376088,Garunggang Kulon,-6.8989275,107.5973503,0,0
12825997250,SPBU Paskal,-6.8979069,107.5973197,0,0
29357744,Cibarengkok,-6.8960662,107.5972487,0,0
29357741,Sukagalih PVJ,-6.8913554,107.596952,0,0
1746711065,Polsek Sukajadi,-6.8878725,107.5967776,0,0
3380200149,Mandiri Sukajadi,-6.8836453,107.5965088,0,0
3376673098,Sukawangi,-6.8780655,107.596246,0,0
12825997252,Gereja Santo Laurentius,-6.8756034,107.5960887,0,0
12809082550,SMPN 15 Bandung,-6.8739356,107.5957592,0,0
12809046293,Gegerkalong Girang,-6.8653206,107.594077,0,0
3376673106,Museum Pendidikan Nasional UPI,-6.8600369,107.594757,0,0
11711070002,Terminal Ledeng,-6.85933,107.5951942,0,0
12809046289,Poltekpar NHI,-6.8682279,107.5936817,0,0
3376673102,Simpang Gegerkalong Hilir,-6.8693537,107.5935629,0,0
3376673100,Borma Setiabudhi,-6.8746244,107.5962411,0,0
3376669085,Masjid Besar Cipaganti,-6.894782,107.602517,0,0
12809082541,Paskal RSHS,-6.8982378,107.5973829,0,0
12013198354,Terminal Elang,-6.9144895,107.5753136,0,0
6473170574,Pasar Cileunyi,-6.9404081,107.7537453,0,0
10771913963,Gerbang IPDN Jatinangor,-6.9358995,107.7642048,0,0
12013198353,UNPAD Jatinangor,-6.9323545,107.7732585,0,0
3476277701,Damri Unpad Jatinangor,-6.9316463,107.7758563,0,0
10771913964,Seberang Gerbang IPDN Jatinangor,-6.9361566,107.7636862,0,0
1935454988,Terminal Tanjungsari,-6.9079951,107.7959097,0,0
2744242982,Pasirluyu Selatan/Sukaati,-6.9492577,107.6214461,0,0
12808912264,Pos Banceuy,-6.9205454,107.6065186,0,0
1956195997,Jalan Jati,-6.9262285,107.6125973,0,0
3376282080,Banteng Sadakeling,-6.9316133,107.6183599,0,0
1982390333,SMK Medina,-6.931384,107.619075,0,0
2250581874,GOR Lodaya,-6.9317067,107.6203316,0,0
12808948214,Selontongan,-6.9402599,107.625925,0,0
12808948215,Kliningan Buahbatu,-6.9426596,107.6282283,0,0
12806516353,SDN 050 Cibiru,-6.9342906,107.7215528,0,0
12823636734,Rumah Sakit Murni Teguh,-6.9208368,107.6159966,0,0
12806309242,SDN Cikadut,-6.9040466,107.6656526,0,0
12806309246,Gang H.M. Syarief,-6.9044513,107.6718533,0,0
12806309248,Borma Pasirimpun,-6.904729,107.6759315,0,0
11047579524,UPTD Laboratorium Lingkungan Hidup,-6.9074116,107.6864696,0,0
12806516361,SDN Ciporeat,-6.9173978,107.7061287,0,0
12806516359,Seberang Borma Cipadung,-6.9261531,107.7108057,0,0
12806516356,SDN Cipadung,-6.9316908,107.7137735,0,0
35131607,UIN SGD/Cipadung,-6.9323756,107.7157532,0,0
12014389702,Pangkalan DAMRI Cibiru,-6.9335177,107.7163132,0,0
12806516354,Seberang UIN Sunan Gunung Djati,-6.9324655,107.7158334,0,0
12806516357,Borma Cipadung,-6.9265281,107.7108912,0,0
2477149675,SDN Andir Kidul,-6.9136497,107.6955657,0,0
12806309257,Seberang SMAN 24 Bandung,-6.9084047,107.6881997,0,0
11047579523,Pusjatan,-6.907525,107.6867495,0,0
3251007173,Gerbang Pusjatan,-6.907087,107.6856912,0,0
12806309250,Seberang Borma Pasirimpun,-6.9047223,107.6758598,0,0
35135540,Lapas Sukamiskin,-6.9046182,107.6750064,0,0
12806309247,Komplek Sarimas,-6.9046989,107.672335,0,0
12888147067,Flyover KBP,-6.8529876,107.4941137,0,0
12390565460,Ratnasasih,-6.8689266,107.4688418,0,0
12888177149,BTD,-6.8724813,107.4678358,0,0
5509730969,Tatar Subanglarang,-6.8818457,107.4554476,0,0
11489094686,Kamandaka,-6.8716903,107.4660366,0,0
11489094682,Jingganagara,-6.8724249,107.4692856,0,0
11489094684,CBCS/BAIS,-6.8686557,107.4687526,0,0
12881302236,Timur IKEA Kota Baru Parahyangan,-6.8673805,107.4687013,0,0
12825997248,Taman Vanda,-6.9139284,107.6099856,0,0
3374033509,Terminal Abdul Muis/Kebon Kalapa,-6.9276265,107.6058121,0,0
12626529705,ITC Kebon Kalapa,-6.926739,107.6059915,0,0
12808948222,SMPN 43 Bandung,-6.9257801,107.6066649,0,0
12808948220,Pasundan,-6.9278672,107.608899,0,0
v_107.610550_-6.929527,Jalan Pungkur,-6.9295269,107.6105504,0,0
v_107.612402_-6.931336,Jalan Pungkur,-6.9313355,107.6124017,0,0
12806120217,Unla,-6.9311439,107.6158192,0,0
3375103664,Lauk Emas,-6.9302033,107.6164624,0,0
3376282080,Banteng Sadakeling,-6.9316133,107.6183599,0,0
1982390333,SMK Medina,-6.931384,107.619075,0,0
2250581874,GOR Lodaya,-6.9317067,107.6203316,0,0
12806537958,Yayasan Kemala Bhayangkari,-6.9318636,107.6221815,0,0
3376171449,Jl. Lodaya,-6.9320775,107.6249815,0,0
v_107.627203_-6.933048,Jalan Raden Adipati Aria Martanegara,-6.9330478,107.6272027,0,0
v_107.629763_-6.933693,Jalan Raden Adipati Aria Martanegara,-6.9336931,107.6297626,0,0
v_107.632176_-6.934235,Jalan Raden Adipati Aria Martanegara,-6.9342353,107.6321764,0,0
v_107.634547_-6.933104,Jalan Turangga,-6.9331037,107.6345471,0,0
v_107.635170_-6.930823,Jalan Turangga,-6.9308231,107.6351695,0,0
v_107.634256_-6.926741,Jalan Jenderal Gatot Subroto,-6.9267411,107.634256,0,0
11365366019,Trans Studio Mall,-6.9280668,107.6367954,0,0
v_107.638912_-6.929535,Jalan Jenderal Gatot Subroto,-6.9295348,107.6389116,0,0
v_107.641072_-6.930999,Jalan Jenderal Gatot Subroto,-6.9309989,107.6410724,0,0
v_107.643537_-6.931296,Jalan H. Ibrahim Adjie,-6.9312959,107.6435367,0,0
v_107.644097_-6.928953,Jalan H. Ibrahim Adjie,-6.9289532,107.6440965,0,0
v_107.644464_-6.926704,Jalan H. Ibrahim Adjie,-6.9267038,107.6444641,0,0
v_107.644396_-6.924441,Jalan H. Ibrahim Adjie,-6.9244413,107.6443956,0,0
12806853451,Seberang Griya Kiaracondong,-6.9220961,107.6442877,0,0
12806853452,Daese Garmin,-6.9194414,107.6441456,0,0
12806853456,Gerbang Timur Kiara Artha Park,-6.9161586,107.6438444,0,0
11735248700,Flyover Antapani,-6.9138756,107.6429791,0,0
3375793691,WUJ Jalan Banten,-6.9142036,107.6399016,0,0
11735248701,STMIK,-6.9144188,107.6381956,0,0
11735248702,GOR KONI,-6.9146627,107.6362469,0,0
v_107.634078_-6.912988,Jalan Layang Ahmad Yani - Supratman,-6.9129877,107.6340779,0,0
12811695428,Supratman 1,-6.9101794,107.6321776,0,0
2519917307,Pussenif,-6.9078314,107.6306426,0,0
11707030832,SMPN 14 Bandung (Lapangan Supratman A),-6.9080655,107.6301163,0,0
11707030833,SDN 062 Ciujung Bandung (Lapangan Supratman B),-6.907261,107.6297079,0,0
5841989829,Muararajeun Baru,-6.9060357,107.6305171,0,0
v_107.632038_-6.903930,Jalan Brigjend. Katamso,-6.9039297,107.6320385,0,0
v_107.633864_-6.902551,Jalan Brigjend. Katamso,-6.9025511,107.6338639,0,0
12819917452,Seberang Griya Pahlawan,-6.9002535,107.634226,0,0
12013144934,ITENAS,-6.8982483,107.6362093,0,0
5832220656,Sukasenang Raya 2,-6.8984458,107.6370787,0,0
12806309238,STIE Ekuitas,-6.8986302,107.6378565,0,0
12628835705,Sekolah Pribadi,-6.8992417,107.6404383,0,0
5832221887,Sukapada,-6.9000256,107.6439328,0,0
v_107.646109_-6.900803,Jalan PH. H. Mustofa,-6.9008033,107.6461092,0,0
v_107.648458_-6.901636,Jalan PH. H. Mustofa,-6.9016362,107.6484583,0,0
12628835709,Surapati Core,-6.9018908,107.6525276,0,0
5832221935,Seberang Terminal Cicaheum,-6.9021302,107.6567969,0,0
11291524413,Terminal Angkot Cicaheum,-6.9024172,107.6562486,0,0
5832221932,Padasuka,-6.9019865,107.6536878,0,0
5832221930,Cimuncang,-6.9016812,107.6490533,0,0
12814754615,Sukapada 2,-6.9001599,107.6446782,0,0
v_107.643702_-6.897807,Jalan Cikutra,-6.8978073,107.6437015,0,0
v_107.643124_-6.895448,Jalan Cikutra,-6.8954477,107.6431237,0,0
v_107.641066_-6.894188,Jalan Cikutra,-6.8941877,107.6410661,0,0
v_107.638605_-6.893663,Jalan Cikutra,-6.8936628,107.6386049,0,0
3248882521,Pahlawan Sidomukti,-6.8933137,107.6354258,0,0
v_107.634879_-6.895616,Jalan Pahlawan,-6.8956164,107.6348789,0,0
v_107.634182_-6.897791,Jalan Pahlawan,-6.8977908,107.6341816,0,0
12819917451,Griya Pahlawan,-6.9003045,107.634244,0,0
v_107.630616_-6.905913,Jalan Brigjend. Katamso,-6.9059132,107.6306164,0,0
v_107.631068_-6.908268,Jalan Supratman,-6.9082684,107.6310683,0,0
12811695427,Supratman Cikaso,-6.9103228,107.6324017,0,0
12811695425,SMPN 22 Bandung,-6.9122413,107.6336698,0,0
3375793690,A.Yani Supratman,-6.9133253,107.6345966,0,0
11735248693,Cikaso,-6.9119025,107.637255,0,0
11735248694,Awi Bitung,-6.9106533,107.6396001,0,0
v_107.641657_-6.909561,Jalan Jenderal Ahmad Yani,-6.9095608,107.6416573,0,0
3248969440,BTM,-6.911388,107.6434825,0,0
12633822765,Seberang Kiara Artha,-6.9142126,107.6437793,0,0
v_107.644037_-6.916576,Jalan H. Ibrahim Adjie,-6.9165764,107.6440375,0,0
12806853454,SDN 083 Babakan Surabaya Selatan,-6.9196178,107.6442909,0,0
12806853450,Griya Kiaracondong,-6.9221685,107.6444041,0,0
v_107.644508_-6.924551,Jalan H. Ibrahim Adjie,-6.9245514,107.6445077,0,0
12806853449,Jalan PSM,-6.9274017,107.6444424,0,0
12806853447,Honda Daya Motor Kiaracondong,-6.9310003,107.6438759,0,0
12806853446,SDN 38 Kiaracondong,-6.9333993,107.642917,0,0
v_107.642588_-6.935755,Jalan H. Ibrahim Adjie,-6.9357551,107.6425875,0,0
12806853442,Kebon Kangkung 11,-6.9380472,107.6424362,0,0
12806853444,KPP Madya Dua Bandung,-6.9383619,107.6422771,0,0
v_107.641427_-6.931130,Jalan Jenderal Gatot Subroto,-6.9311304,107.6414267,0,0
v_107.639313_-6.929956,Jalan Jenderal Gatot Subroto,-6.9299564,107.6393128,0,0
3248882519,Turangga,-6.928187,107.6358171,0,0
v_107.635242_-6.930541,Jalan Turangga,-6.9305405,107.6352415,0,0
3376171452,Turangga,-6.9342955,107.6339321,0,0
v_107.631437_-6.934069,Jalan Raden Adipati Aria Martanegara,-6.9340689,107.6314371,0,0
v_107.629052_-6.933531,Jalan Raden Adipati Aria Martanegara,-6.9335308,107.6290522,0,0
v_107.626758_-6.932918,Jalan Raden Adipati Aria Martanegara,-6.9329183,107.6267581,0,0
v_107.624484_-6.931852,Jalan Lodaya,-6.9318518,107.6244842,0,0
v_107.622181_-6.931864,Jalan Palasari,-6.9318636,107.6221815,0,0
v_107.620615_-6.934242,Jalan Gajah,-6.9342423,107.6206148,0,0
v_107.618726_-6.932715,Jalan Buah Batu,-6.9327149,107.6187265,0,0
v_107.616575_-6.931506,Jalan Gurame,-6.9315064,107.6165751,0,0
v_107.614501_-6.933004,Jalan Mochammad Ramdhan,-6.933004,107.6145008,0,0
v_107.612756_-6.934806,Jalan Mochammad Ramdhan,-6.9348062,107.6127563,0,0
v_107.610719_-6.936508,Jalan Mochammad Ramdhan,-6.9365083,107.6107189,0,0
3376171471,Masjid An Nur PT INTI,-6.9376849,107.6084233,0,0
5355897678,Taman Tegalega 3,-6.9365596,107.6062815,0,0
v_107.606464_-6.934149,Jalan Mohammad Toha,-6.934149,107.6064644,0,0
v_107.606628_-6.931852,Jalan Mohammad Toha,-6.9318519,107.6066275,0,0
12825997237,Melong Karapitan,-6.9302053,107.6160678,0,0
12825997239,Karapitan Cikawao,-6.9282903,107.6165815,0,0
12825997243,Karapitan Emung,-6.9270918,107.6169043,0,0
12825997241,Karapitan Paledang,-6.9250993,107.61732,0,0
v_107.617596_-6.922423,Jalan Sunda,-6.9224232,107.6175959,0,0
10280072517,Gereja Sidang Kristus,-6.9194254,107.6179265,0,0
12806120211,Yogya Sunda,-6.9178998,107.6180659,0,0
v_107.618407_-6.915649,Jalan Sumbawa,-6.9156491,107.6184073,0,0
12806120207,Balai Bahasa Jawa Barat,-6.9136482,107.6173371,0,0
12809507134,Kantor Kecamatan Sumurbandung,-6.9131842,107.6177677,0,0
12809507135,Seberang Stadion Siliwangi,-6.9110152,107.6184728,0,0
12809507136,PMI Kota Bandung,-6.9089935,107.6195116,0,0
v_107.621783_-6.909358,Jalan Aceh,-6.9093582,107.6217828,0,0
3376430782,SMA Kartika,-6.9095321,107.6267561,0,0
12887217205,Jalan Suren,-6.908846,107.628258,0,0
v_107.634127_-6.897966,Jalan Pahlawan,-6.8979661,107.634127,0,0
12819917455,Taman Makam Pahlawan Cikutra,-6.8928924,107.6356272,0,0
v_107.637926_-6.893672,Jalan Cikutra,-6.8936719,107.6379264,0,0
v_107.640326_-6.893939,Jalan Cikutra,-6.8939387,107.6403262,0,0
v_107.642404_-6.894923,Jalan Cikutra,-6.8949233,107.6424044,0,0
v_107.643692_-6.896927,Jalan Cikutra,-6.8969266,107.6436921,0,0
v_107.646430_-6.900967,Jalan PH. H. Mustofa,-6.900967,107.6464296,0,0
12628835706,Cikutra,-6.8997726,107.6426735,0,0
12814754613,Bekamin,-6.8995403,107.6416949,0,0
12806309240,YPKP Sanggabuana,-6.89932,107.6407662,0,0
12628835704,Sukasenang Raya 1,-6.8984698,107.6371799,0,0
12814754611,SDN 151 Sukasenang,-6.8982085,107.6360412,0,0
12887217206,Jalan Salam,-6.908808,107.6282951,0,0
1107694939,Taman Pramuka,-6.9106475,107.6274766,0,0
12962149421,Aceh Taman Pramuka,-6.9102542,107.6255307,0,0
v_107.623054_-6.909675,Jalan Aceh,-6.909675,107.6230541,0,0
3376420325,Graha Manggala Siliwangi,-6.9090101,107.6195837,0,0
12887179699,Stadion Siliwangi,-6.9111664,107.6184317,0,0
3374033495,SMAN 3 dan 5,-6.9119682,107.6150207,0,0
12809521950,Taman Lalu Lintas,-6.9124068,107.6138205,0,0
12887182816,SMP Negeri 2 Bandung,-6.9147065,107.6139894,0,0
3374033500,Tamblong,-6.9189576,107.6123364,0,0
v_107.612072_-6.921314,Jalan Tamblong,-6.9213137,107.6120718,0,0
v_107.611793_-6.923738,Jalan Lengkong Besar,-6.9237378,107.6117934,0,0
1956195997,Jalan Jati,-6.9262285,107.6125973,0,0
3374033505,UNPAS Lengkong Besar,-6.9290293,107.6129922,0,0
12809314942,SDN 020 Lengkong Besar,-6.9304102,107.612861,0,0
v_107.611574_-6.932321,Jalan Ibu Inggit Ganarsih,-6.9323207,107.6115743,0,0
v_107.608404_-6.932089,Jalan Ibu Inggit Ganarsih,-6.9320886,107.6084036,0,0
v_107.606030_-6.931773,Jalan Ibu Inggit Ganarsih,-6.931773,107.6060299,0,0
v_107.608453_-6.927627,Jalan Pungkur,-6.9276268,107.608453,0,0
v_107.610449_-6.929424,Jalan Pungkur,-6.929424,107.6104487,0,0
1831360476,Unknown,-6.9313355,107.6124017,0,0
v_107.614920_-6.932506,Jalan Pungkur,-6.9325064,107.6149201,0,0
v_107.615999_-6.930467,Jalan Karapitan,-6.9304668,107.6159987,0,0
v_107.616581_-6.928290,Jalan Karapitan,-6.9282903,107.6165815,0,0
v_107.617141_-6.926078,Jalan Karapitan,-6.9260783,107.6171409,0,0
v_107.617468_-6.923837,Jalan Karapitan,-6.923837,107.6174677,0,0
v_107.617734_-6.921177,Jalan Sunda,-6.9211766,107.6177343,0,0
v_107.617995_-6.918606,Jalan Sunda,-6.9186063,107.6179949,0,0
v_107.618371_-6.915930,Jalan Sunda,-6.9159304,107.6183708,0,0
v_107.617337_-6.913648,Jalan Sumbawa,-6.9136482,107.6173371,0,0
v_107.616141_-6.911611,Jalan Sumbawa,-6.9116105,107.6161406,0,0
v_107.613821_-6.912407,Jalan Belitung,-6.9124068,107.6138205,0,0
v_107.612469_-6.910277,Jalan Sumatra,-6.9102774,107.6124686,0,0
v_107.614822_-6.910018,Jalan Aceh,-6.9100181,107.6148215,0,0
v_107.613270_-6.908037,Jalan Seram,-6.9080371,107.61327,0,0
v_107.611171_-6.907025,Jalan L.L. RE. Martadinata,-6.9070246,107.6111706,0,0
v_107.610615_-6.904811,Jalan Ir. H. Djuanda,-6.9048111,107.6106154,0,0
v_107.611525_-6.902482,Jalan Ir. H. Djuanda,-6.9024821,107.6115254,0,0
v_107.612431_-6.900400,Jalan Ir. H. Djuanda,-6.9004002,107.6124309,0,0
v_107.612760_-6.898022,Jalan Ir. H. Djuanda,-6.8980225,107.6127602,0,0
v_107.612864_-6.895475,Jalan Ir. H. Djuanda,-6.8954747,107.612864,0,0
v_107.613038_-6.893134,Jalan Ir. H. Djuanda,-6.8931344,107.6130379,0,0
v_107.613256_-6.890574,Jalan Ir. H. Djuanda,-6.8905739,107.6132561,0,0
v_107.613506_-6.888298,Jalan Ir. H. Djuanda,-6.8882982,107.6135059,0,0
v_107.613613_-6.886017,Jalan Ir. H. Djuanda,-6.886017,107.6136129,0,0
v_107.614100_-6.883787,Jalan Ir. H. Djuanda,-6.8837869,107.6141003,0,0
v_107.615646_-6.881899,Jalan Ir. H. Djuanda,-6.8818987,107.6156462,0,0
v_107.616425_-6.879438,Jalan Ir. H. Djuanda,-6.8794377,107.6164246,0,0
v_107.617307_-6.877355,Jalan Ir. H. Djuanda,-6.8773552,107.6173071,0,0
v_107.618662_-6.875345,Jalan Ir. H. Djuanda,-6.8753453,107.6186615,0,0
v_107.619584_-6.873159,Jalan Ir. H. Djuanda,-6.8731592,107.6195839,0,0
v_107.620012_-6.870949,Jalan Ir. H. Djuanda,-6.870949,107.6200117,0,0
3373712056,Terminal Dago,-6.8670778,107.6212119,0,0
12819940049,SPBU Dago Atas,-6.8686285,107.620646,0,0
12816172252,Seberang Poltekesos,-6.8725481,107.6198876,0,0
v_107.618771_-6.875304,Jalan Ir. H. Djuanda,-6.8753042,107.6187714,0,0
12820358786,Kanayakan,-6.8774811,107.6173296,0,0
v_107.616480_-6.879571,Jalan Ir. H. Djuanda,-6.8795713,107.6164799,0,0
v_107.615870_-6.881760,Jalan Ir. H. Djuanda,-6.8817604,107.6158704,0,0
v_107.614240_-6.883792,Jalan Ir. H. Djuanda,-6.8837915,107.6142403,0,0
11739021656,Masjid Baiturrahman,-6.8866267,107.6149671,0,0
v_107.615802_-6.888981,Jalan Dipatiukur,-6.8889815,107.6158021,0,0
11707030824,UNPAD Dipatiukur (4D),-6.8923055,107.6177764,0,0
3375793673,UNPAD Dipatiukur,-6.8934568,107.6180361,0,0
v_107.616052_-6.894869,Jalan Hasanudin,-6.8948686,107.6160516,0,0
11104718106,Rumah Sakit Santo Borromeus B,-6.8948263,107.6134343,0,0
12820212473,STMIK LIKMI,-6.8955212,107.6129226,0,0
10778322181,Kartikasari B,-6.897514,107.6128416,0,0
11873654244,Danamon Cikapayang,-6.8995115,107.6127597,0,0
12819940051,Superindo Dago,-6.9018046,107.6118668,0,0
10778322182,Taman Radio B,-6.9025069,107.6115838,0,0
10653503634,Hotel The-One-O-One B,-6.9065902,107.6106208,0,0
11739021633,Bandung Indah Plaza,-6.9088887,107.610623,0,0
v_107.612945_-6.909967,Jalan Aceh,-6.9099668,107.6129452,0,0
v_107.617608_-6.910595,Jalan Banda,-6.9105947,107.6176084,0,0
25433284,Banda Saparua,-6.9072231,107.6169984,0,0
3375794699,Simpang Banda Riau,-6.9063138,107.6159699,0,0
12825997245,Hotel Santika,-6.9070669,107.6119393,0,0
3376669065,Taman Sejarah Balai Kota Bandung,-6.9103764,107.6106101,0,0
11739021637,Merdeka,-6.9125343,107.6104548,0,0
12825997248,Taman Vanda,-6.9139284,107.6099856,0,0
11739064594,SMK Negeri 1 Bandung,-6.9130013,107.609039,0,0
12809274346,Masjid Al-Ukhuwwah,-6.9111612,107.6090912,0,0
12809274348,Wastukencana Purnawarman,-6.9088722,107.6079826,0,0
11739021630,STHB (Sekolah Tinggi Hukum Bandung),-6.9064803,107.6044125,0,0
3269294966,Abdul Rivai,-6.904381,107.6038123,0,0
v_107.602427_-6.902447,Jalan Raden Adipati Aria Wiranatakusumah,-6.9024472,107.6024265,0,0
v_107.601457_-6.900360,Jalan Pasteur,-6.9003605,107.6014571,0,0
v_107.599142_-6.900367,Jalan Pasteur,-6.9003667,107.5991415,0,0
5639376088,Garunggang Kulon,-6.8989275,107.5973503,0,0
12825997250,SPBU Paskal,-6.8979069,107.5973197,0,0
29357744,Cibarengkok,-6.8960662,107.5972487,0,0
v_107.597077_-6.893622,Jalan Sukajadi,-6.893622,107.5970769,0,0
29357741,Sukagalih PVJ,-6.8913554,107.596952,0,0
1746711065,Polsek Sukajadi,-6.8878725,107.5967776,0,0
3380200149,Mandiri Sukajadi,-6.8836453,107.5965088,0,0
v_107.596426_-6.881384,Jalan Sukajadi,-6.8813836,107.5964257,0,0
3376673098,Sukawangi,-6.8780655,107.596246,0,0
12825997252,Gereja Santo Laurentius,-6.8756034,107.5960887,0,0
12809082550,SMPN 15 Bandung,-6.8739356,107.5957592,0,0
v_107.594069_-6.871792,Jalan Dokter Danudirja Setiabudhi,-6.8717924,107.5940693,0,0
v_107.593554_-6.869439,Jalan Dokter Danudirja Setiabudhi,-6.8694388,107.593554,0,0
12809046293,Gegerkalong Girang,-6.8653206,107.594077,0,0
v_107.595582_-6.863215,Jalan Dokter Setiabudi,-6.8632153,107.5955819,0,0
3376673106,Museum Pendidikan Nasional UPI,-6.8600369,107.594757,0,0
11711070002,Terminal Ledeng,-6.85933,107.5951942,0,0
v_107.595416_-6.861651,Jalan Dokter Setiabudi,-6.8616512,107.5954158,0,0
v_107.594398_-6.863846,Jalan Dokter Setiabudi,-6.8638456,107.5943977,0,0
12809046291,Seberang Unpas Setiabudi,-6.8664168,107.5939201,0,0
12809046289,Poltekpar NHI,-6.8682279,107.5936817,0,0
3376673102,Simpang Gegerkalong Hilir,-6.8693537,107.5935629,0,0
3376673100,Borma Setiabudhi,-6.8746244,107.5962411,0,0
v_107.597547_-6.876547,Jalan Dokter Danudirja Setiabudhi,-6.8765469,107.5975472,0,0
v_107.598045_-6.878802,Jalan Dokter Danudirja Setiabudhi,-6.8788022,107.5980445,0,0
v_107.599076_-6.880868,Jalan Dokter Danudirja Setiabudhi,-6.8808677,107.5990764,0,0
6165179774,Setiabudi Hegarmanah,-6.8829555,107.6023609,0,0
v_107.604225_-6.884414,Jalan Dokter Setiabudi,-6.8844139,107.6042247,0,0
12811652377,SDN 065 Cihampelas,-6.8869867,107.6040408,0,0
v_107.604194_-6.889991,Jalan Cihampelas,-6.8899911,107.604194,0,0
v_107.604235_-6.892255,Jalan Cihampelas,-6.8922554,107.6042347,0,0
3376669082,Cihampelas Eyckman,-6.8959031,107.6039451,0,0
v_107.604073_-6.898557,Jalan Cihampelas,-6.8985571,107.6040729,0,0
v_107.604264_-6.900872,Jalan Cihampelas,-6.9008715,107.604264,0,0
12809237525,Linggawastu,-6.9039986,107.605369,0,0
3376669071,Pasar Kembang Wastukencana,-6.9048943,107.607265,0,0
5825243776,Bandung Electronic Center,-6.9081456,107.6093744,0,0
3376669066,Museum Kota Bandung,-6.9101076,107.6097021,0,0
v_107.612133_-6.909788,Jalan Aceh,-6.9097878,107.6121334,0,0
11739021641,Simpang Ijan,-6.9280445,107.6036329,0,0
3383341282,Pasar Astana Anyar,-6.9306827,107.601334,0,0
2325452881,Jalan Panjunan,-6.9298621,107.5973451,0,0
12806765749,Simpang Astanaanyar Pasirkoja,-6.9263959,107.5997325,0,0
12809227879,Jalan Haji Safari,-6.9247939,107.5991575,0,0
2723584288,Pasar Ulekan Pagarsih,-6.9229321,107.5957657,0,0
v_107.593297_-6.922650,Jalan Pagarsih Barat,-6.92265,107.5932972,0,0
v_107.590671_-6.922400,Jalan Pagarsih Barat,-6.9223995,107.5906715,0,0
2325452491,Unknown,-6.9219839,107.5859557,0,0
v_107.583637_-6.921938,Jalan Pagarsih Barat,-6.9219375,107.5836371,0,0
1911634972,Pasar Cangkring/Situ Aksan,-6.9235251,107.5813879,0,0
1911634983,Jalan Suryani,-6.9206062,107.580869,0,0
1911634927,RS Priangan,-6.9223077,107.5769466,0,0
6442840898,Simpang Holis Soekarno Hatta,-6.923662,107.5751042,0,0
v_107.583345_-6.922067,Jalan Pagarsih Barat,-6.9220672,107.5833452,0,0
v_107.588559_-6.922199,Jalan Pagarsih Barat,-6.9221995,107.5885587,0,0
v_107.591192_-6.922443,Jalan Pagarsih Barat,-6.9224429,107.5911917,0,0
v_107.598044_-6.923212,Jalan Pagarsih Barat,-6.923212,107.5980444,0,0
v_107.600345_-6.923421,Jalan Kalipah Apo,-6.9234206,107.6003445,0,0
2250562868,Otista/Kalipah Apo,-6.923931,107.6038724,0,0
v_107.603599_-6.928534,Jalan Otto Iskandardinata,-6.9285343,107.6035987,0,0
v_107.603397_-6.931428,Jalan Otto Iskandardinata,-6.9314278,107.603397,0,0
v_107.605557_-6.930530,Jalan Dewi Sartika,-6.9305299,107.605557,0,0
12887162310,Seberang Telkom Supratman,-6.9062831,107.6296635,0,0
5842007854,Ciliwung,-6.9040635,107.6282013,0,0
v_107.626833_-6.901927,Jalan Supratman,-6.9019273,107.6268326,0,0
11707030828,PUSDAI B,-6.9011517,107.6241682,0,0
v_107.621651_-6.901207,Jalan Diponegoro,-6.9012073,107.6216513,0,0
v_107.619302_-6.901272,Jalan Diponegoro,-6.9012716,107.6193022,0,0
v_107.616974_-6.901337,Jalan Diponegoro,-6.9013373,107.6169735,0,0
v_107.614717_-6.900627,Jalan Diponegoro,-6.9006273,107.614717,0,0
v_107.612399_-6.900139,Jalan Sulanjana,-6.9001394,107.6123987,0,0
1969331852,Balubur Town Square,-6.8987437,107.6093403,0,0
3376871368,Pelesiran,-6.8970719,107.6096181,0,0
11262097538,Tamansari (Bonbin),-6.8933258,107.6083698,0,0
12805921498,BATAN,-6.8888308,107.6080995,0,0
3530181074,Sabuga ITB,-6.8877401,107.609232,0,0
3376871360,Babakan Siliwangi,-6.8849719,107.6114877,0,0
v_107.609160_-6.884756,Jalan Siliwangi,-6.8847557,107.6091599,0,0
v_107.606884_-6.884672,Jalan Siliwangi,-6.8846722,107.6068836,0,0
v_107.605056_-6.883328,Jalan Siliwangi,-6.8833278,107.6050556,0,0
v_107.601903_-6.887893,Jalan Boscha,-6.8878928,107.6019032,0,0
v_107.599888_-6.890065,Jalan Jurang,-6.8900645,107.5998881,0,0
v_107.597502_-6.888547,Jalan Sukamaju,-6.8885472,107.5975019,0,0
v_107.596432_-6.886040,Jalan Sukajadi,-6.88604,107.5964324,0,0
1660116948,Gandok,-6.8836088,107.6056396,0,0
v_107.607705_-6.884583,Jalan Siliwangi,-6.8845833,107.6077048,0,0
v_107.610266_-6.884462,Jalan Siliwangi,-6.8844619,107.6102659,0,0
12813270569,Sumur Bandung,-6.8856909,107.6127217,0,0
v_107.610440_-6.887663,Jalan Taman Sari,-6.8876632,107.6104398,0,0
12805921497,FTMD ITB,-6.8888141,107.6080995,0,0
12805921499,Tamansari ITB,-6.8898018,107.6080694,0,0
v_107.608109_-6.892302,Jalan Taman Sari,-6.8923018,107.6081093,0,0
3376871366,Gelap Nyawang,-6.8946314,107.6086646,0,0
12628813995,Tamansari Cikapayang,-6.8982089,107.610121,0,0
v_107.611925_-6.899935,Jalan Sulanjana,-6.8999352,107.611925,0,0
v_107.614338_-6.900617,Jalan Diponegoro,-6.9006167,107.6143382,0,0
v_107.616768_-6.901347,Jalan Diponegoro,-6.9013466,107.6167683,0,0
1666155324,Lapangan Gasibu A,-6.9011743,107.6199195,0,0
11707030829,PUSDAI A,-6.9010661,107.6241876,0,0
5832220639,Unknown,-6.9010164,107.6259572,0,0
5842007855,Muararajeun,-6.9039847,107.6282881,0,0
12628835703,BKKBN,-6.8982473,107.6324886,0,0
12814754609,Simpang Jalaprang,-6.8984824,107.6317973,0,0
5832220641,SMPN 63 Kota Bandung,-6.8998537,107.6293496,0,0
12814754605,Taman Pusdai,-6.8992562,107.6261407,0,0
12628813999,Wisma BKN,-6.89924,107.6222912,0,0
12806309233,PVMBG,-6.8992825,107.6203701,0,0
v_107.618078_-6.899378,Jalan Surapati,-6.8993781,107.618078,0,0
5832170587,Cikapayang Dago 2,-6.898852,107.6135004,0,0
11707030825,Panatayudha B,-6.8979434,107.6161572,0,0
12816121755,Simpang Dipatiukur Hasanudin,-6.8950876,107.6172155,0,0
12820400848,Unpad Kampus Iwa Koesoemasoemantri,-6.8932726,107.6179071,0,0
v_107.617163_-6.891093,Jalan Dipatiukur,-6.8910925,107.617163,0,0
v_107.615889_-6.889175,Jalan Dipatiukur,-6.8891749,107.6158888,0,0
12816121752,Seberang UNIKOM,-6.8870114,107.6150918,0,0
v_107.604064_-6.894546,Jalan Cihampelas,-6.8945463,107.6040642,0,0
v_107.602110_-6.895780,Jalan Profesor Christiaan Eijkman,-6.8957803,107.6021098,0,0
v_107.599373_-6.896160,Jalan Profesor Christiaan Eijkman,-6.8961604,107.5993726,0,0
12809082541,Paskal RSHS,-6.8982378,107.5973829,0,0
v_107.599805_-6.900195,Jalan Pasteur,-6.900195,107.599805,0,0
12809082512,Seberang IWU,-6.9013037,107.5974649,0,0
12809082511,Seberang BPK Penabur,-6.9033942,107.5975385,0,0
3377321687,Depan Istana Plaza,-6.9054493,107.5976013,0,0
11138593907,Padjajaran 2,-6.9068851,107.5939013,0,0
v_107.591599_-6.907107,Jalan Pajajaran,-6.9071068,107.5915994,0,0
3377329064,Husein Pajajaran,-6.9068423,107.588209,0,0
v_107.585778_-6.907257,Jalan Abdul Rahman Saleh,-6.9072569,107.5857779,0,0
v_107.583457_-6.907625,Jalan Abdul Rahman Saleh,-6.9076247,107.5834572,0,0
v_107.580966_-6.907619,Jalan Abdul Rahman Saleh,-6.9076194,107.5809663,0,0
v_107.581537_-6.909798,Jalan Ciroyom,-6.9097983,107.5815368,0,0
v_107.584500_-6.911786,Jalan Ciroyom,-6.911786,107.5845003,0,0
3244745033,Terminal Ciroyom,-6.9141236,107.5885486,0,0
v_107.586313_-6.913038,Jalan Ciroyom,-6.9130382,107.5863129,0,0
v_107.589395_-6.911520,Jalan Arjuna,-6.9115203,107.5893946,0,0
3377321681,Pintu Masuk Bandara Husein Sastranegara,-6.9067739,107.588219,0,0
7547053355,Pajajaran 1,-6.9070991,107.5925401,0,0
3377321682,Istana Plaza (IP),-6.9053889,107.596171,0,0
12809082509,BPK Penabur,-6.9033926,107.5974789,0,0
12809082507,IWU,-6.9015643,107.597414,0,0
v_107.598432_-6.895110,Jalan Sederhana,-6.8951102,107.5984316,0,0
3249461526,Pasar Sederhana,-6.8908128,107.5996153,0,0
v_107.598678_-6.881121,Jalan Karang Sari,-6.8811214,107.5986782,0,0
v_107.612504_-6.885071,Jalan Siliwangi,-6.8850711,107.6125035,0,0
3375793672,Sekeloa,-6.8902412,107.6165653,0,0
12816121756,Magister Manajemen UNPAD,-6.8950233,107.617258,0,0
12806309232,Jalan Merak,-6.89928,107.6204436,0,0
12628813998,Distan Jabar,-6.8992307,107.6227599,0,0
12814453796,Jalan Gagak,-6.8992266,107.6234921,0,0
5832220640,PUSDAI,-6.8992435,107.6259835,0,0
12628814000,Dapen Telkom,-6.8998503,107.6285873,0,0
12814754607,Seberang Imigrasi Bandung,-6.8988684,107.6312754,0,0
12628835702,Jalaprang,-6.8983546,107.6321413,0,0
v_107.629708_-6.906160,Jalan Supratman,-6.9061604,107.6297079,0,0
v_107.630944_-6.908078,Jalan Supratman,-6.9080775,107.6309444,0,0
12806853440,Den Jasa Ang,-6.9397848,107.6423227,0,0
12806853435,SPBU Kebon Kangkung,-6.9428602,107.6421057,0,0
v_107.641937_-6.945217,Jalan H. Ibrahim Adjie,-6.9452173,107.6419366,0,0
v_107.641608_-6.947538,Jalan Terusan Kiara Condong,-6.9475383,107.641608,0,0
v_107.641285_-6.949773,Jalan Terusan Kiara Condong,-6.9497731,107.641285,0,0
v_107.640779_-6.952189,Jalan Terusan Kiara Condong,-6.9521886,107.6407795,0,0
v_107.641606_-6.954368,Jalan Marga Cinta,-6.9543676,107.6416057,0,0
v_107.644004_-6.954765,Jalan Marga Cinta,-6.9547648,107.6440039,0,0
v_107.646301_-6.954953,Jalan Marga Cinta,-6.9549534,107.6463012,0,0
v_107.648747_-6.955154,Jalan Marga Cinta,-6.9551542,107.6487472,0,0
12813271263,Seberang Borma Margacinta,-6.9554682,107.6521388,0,0
v_107.654508_-6.955737,Jalan Marga Cinta,-6.9557374,107.6545084,0,0
v_107.656616_-6.957044,Jalan Marga Cinta,-6.957044,107.6566158,0,0
v_107.658451_-6.958420,Jalan Marga Cinta,-6.95842,107.6584505,0,0
35138488,Taman Lansia Margahayu Raya,-6.9597741,107.6615127,0,0
v_107.663771_-6.960461,Jalan Marga Cinta,-6.9604614,107.6637713,0,0
v_107.665971_-6.961040,Jalan Marga Cinta,-6.9610398,107.6659707,0,0
v_107.668413_-6.961523,Jalan Marga Cinta,-6.961523,107.6684135,0,0
v_107.670757_-6.961863,Jalan Marga Cinta,-6.9618635,107.6707571,0,0
v_107.672776_-6.962949,Marga Cinta,-6.9629492,107.6727755,0,0
v_107.675165_-6.963943,Jalan Derwati,-6.9639429,107.6751648,0,0
v_107.677525_-6.964153,Jalan Derwati,-6.9641529,107.6775249,0,0
v_107.679817_-6.964417,Jalan Derwati,-6.9644172,107.6798172,0,0
v_107.682184_-6.964642,Jalan Derwati,-6.9646421,107.682184,0,0
2518053983,Simpang Derwati,-6.9655502,107.6868117,0,0
3383628375,SMPN 51 Bandung,-6.9644172,107.6798172,0,0
12813271267,SDN 069 Cipamokolan,-6.9648031,107.6832053,0,0
v_107.676614_-6.964068,Jalan Derwati,-6.9640677,107.6766137,0,0
v_107.672872_-6.963736,Jalan Derwati,-6.9637355,107.672872,0,0
v_107.672623_-6.962209,Marga Cinta,-6.9622086,107.6726232,0,0
v_107.669038_-6.961653,Jalan Marga Cinta,-6.961653,107.6690383,0,0
v_107.663589_-6.960406,Jalan Marga Cinta,-6.9604055,107.6635892,0,0
2258306743,Pasar Ciwastra,-6.9611563,107.6664238,0,0
v_107.663539_-6.960389,Jalan Marga Cinta,-6.9603888,107.6635389,0,0
v_107.660163_-6.959233,Jalan Marga Cinta,-6.9592328,107.6601626,0,0
v_107.662328_-6.960039,Jalan Marga Cinta,-6.9600393,107.6623281,0,0
v_107.659914_-6.959102,Jalan Marga Cinta,-6.9591016,107.6599136,0,0
v_107.654779_-6.955755,Jalan Marga Cinta,-6.9557545,107.6547786,0,0
v_107.656660_-6.957085,Jalan Marga Cinta,-6.9570854,107.6566595,0,0
v_107.658828_-6.958584,Jalan Marga Cinta,-6.9585837,107.658828,0,0
v_107.654718_-6.955750,Jalan Marga Cinta,-6.9557504,107.6547179,0,0
3383643778,Borma Margacinta,-6.9554392,107.6518488,0,0
v_107.654184_-6.955700,Jalan Marga Cinta,-6.9557004,107.6541837,0,0
v_107.643836_-6.954751,Jalan Marga Cinta,-6.9547511,107.6438361,0,0
v_107.643818_-6.954750,Jalan Marga Cinta,-6.9547496,107.6438176,0,0
v_107.640423_-6.954158,Jalan Marga Cinta,-6.9541579,107.6404231,0,0
v_107.642669_-6.954596,Jalan Marga Cinta,-6.9545964,107.6426693,0,0
v_107.640336_-6.954148,Jalan Marga Cinta,-6.954148,107.6403362,0,0
v_107.640866_-6.951925,Jalan Terusan Kiara Condong,-6.9519251,107.6408664,0,0
v_107.641298_-6.949692,Jalan Terusan Kiara Condong,-6.9496917,107.6412977,0,0
v_107.641640_-6.947294,Jalan Terusan Kiara Condong,-6.9472937,107.6416396,0,0
12806853434,Jalan H. Basuki,-6.9443088,107.6418944,0,0
12806853438,Borma Kiaracondong,-6.9428669,107.6419879,0,0
12806853441,Seberang Jalan Sekejati,-6.9399607,107.6421744,0,0
v_107.642469_-6.935470,Jalan H. Ibrahim Adjie,-6.9354704,107.642469,0,0
v_107.642845_-6.933204,Jalan H. Ibrahim Adjie,-6.9332036,107.6428453,0,0
v_107.643792_-6.931001,Jalan H. Ibrahim Adjie,-6.9310014,107.6437923,0,0
v_107.644170_-6.928742,Jalan H. Ibrahim Adjie,-6.9287415,107.64417,0,0
v_107.644424_-6.925281,Jalan H. Ibrahim Adjie,-6.9252812,107.6444244,0,0
11707030827,Lapangan Gasibu B,-6.9012501,107.6201283,0,0
12806868670,Tenth Avenue,-6.9458361,107.6408496,0,0
12806868674,Sekelimus Tengah,-6.9466415,107.6381159,0,0
12806868677,Sekelimus Barat,-6.9475072,107.6353065,0,0
2614138793,Medal Sekarwangi,-6.9484371,107.6323136,0,0
12626499697,Bangunan Mart A,-6.9494451,107.6281496,0,0
12626499700,LPKIA A,-6.9495008,107.6242225,0,0
12808867752,STIE Inaba,-6.9493807,107.6227995,0,0
2744242982,Pasirluyu Selatan/Sukaati,-6.9492577,107.6214461,0,0
3384018111,PT LEN Industri A,-6.9490929,107.6190348,0,0
12808867754,Mengger Girang,-6.9490185,107.6180229,0,0
v_107.614907_-6.948792,Jalan Soekarno-Hatta,-6.9487921,107.6149066,0,0
12626529703,PLN UP3 Bandung A,-6.9485877,107.612094,0,0
11707031627,Simpang By Pass Soekarno Hatta B,-6.9483342,107.6087518,0,0
12808867758,Ampera Soekarno Hatta,-6.9480749,107.6050974,0,0
12808867763,Karasak Lama,-6.9478683,107.6021954,0,0
v_107.599882_-6.947718,Jalan Soekarno-Hatta,-6.9477177,107.5998819,0,0
v_107.597437_-6.947648,Jalan Soekarno-Hatta,-6.9476477,107.5974373,0,0
3277891129,Seberang Terminal Leuwipanjang,-6.9469193,107.592997,0,0
v_107.590608_-6.946125,Jalan Soekarno-Hatta,-6.9461252,107.5906079,0,0
11295303565,Leuwipanjang Soekarno Hatta,-6.9468277,107.5934341,0,0
v_107.596024_-6.947298,Jalan Soekarno-Hatta,-6.9472981,107.5960242,0,0
v_107.598288_-6.947504,Jalan Soekarno-Hatta,-6.947504,107.598288,0,0
12808867762,Inhoftank,-6.9478017,107.6022466,0,0
12808867760,Seberang Ampera Soekarno Hatta,-6.9479853,107.6051379,0,0
12808867756,Karasak Utara,-6.9480912,107.6067107,0,0
v_107.608985_-6.948242,Jalan Soekarno-Hatta,-6.9482416,107.6089854,0,0
3272360374,PLN UP3 Bandung B,-6.9484924,107.6121553,0,0
v_107.614920_-6.948690,Jalan Soekarno-Hatta,-6.9486901,107.6149203,0,0
3384018110,PT LEN Industri B,-6.9489877,107.619152,0,0
v_107.621453_-6.949157,Jalan Soekarno-Hatta,-6.9491566,107.6214527,0,0
12626499699,LPKIA B,-6.9494301,107.6248137,0,0
12626499698,Bangunan Mart B,-6.9493306,107.6280918,0,0
v_107.630749_-6.948807,Jalan Soekarno-Hatta,-6.9488067,107.6307487,0,0
12806868676,Griya Hemat,-6.9474943,107.6348946,0,0
12806868672,Sekelimus Utara,-6.9464022,107.638444,0,0
v_107.643899_-6.916833,Jalan H. Ibrahim Adjie,-6.916833,107.6438994,0,0
11262097619,Stasiun Timur,-6.9153572,107.604546,0,0
v_107.606831_-6.915296,Jalan Stasiun Timur,-6.9152963,107.6068306,0,0
v_107.608938_-6.913839,Jalan Perintis Kemerdekaan,-6.9138394,107.6089385,0,0
v_107.609091_-6.911161,Jalan Wastukencana,-6.9111612,107.6090912,0,0
v_107.608175_-6.909075,Jalan Wastukencana,-6.9090746,107.6081746,0,0
v_107.607750_-6.906669,Jalan Wastukencana,-6.9066685,107.60775,0,0
v_107.610390_-6.906966,Jalan L.L. RE. Martadinata,-6.9069656,107.6103896,0,0
v_107.610648_-6.904694,Jalan Ir. H. Djuanda,-6.9046942,107.6106482,0,0
v_107.620591_-6.869332,Jalan Ir. H. Djuanda,-6.8693319,107.6205911,0,0
v_107.619998_-6.871909,Jalan Ir. H. Djuanda,-6.8719092,107.6199983,0,0
v_107.619258_-6.874150,Jalan Ir. H. Djuanda,-6.8741499,107.619258,0,0
v_107.618198_-6.876304,Jalan Ir. H. Djuanda,-6.8763036,107.6181983,0,0
v_107.616850_-6.878201,Jalan Ir. H. Djuanda,-6.878201,107.6168505,0,0
v_107.616246_-6.880480,Jalan Ir. H. Djuanda,-6.8804798,107.6162461,0,0
v_107.615030_-6.882885,Jalan Ir. H. Djuanda,-6.8828849,107.6150295,0,0
2034531651,UNIKOM Pascasarjana,-6.8858131,107.6137012,0,0
v_107.613579_-6.888224,Jalan Ir. H. Djuanda,-6.888224,107.6135794,0,0
v_107.613322_-6.890582,Jalan Ir. H. Djuanda,-6.8905818,107.6133223,0,0
v_107.613121_-6.892884,Jalan Ir. H. Djuanda,-6.8928844,107.6131214,0,0
v_107.612923_-6.895521,Jalan Ir. H. Djuanda,-6.8955212,107.6129226,0,0
v_107.612826_-6.897983,Jalan Ir. H. Djuanda,-6.8979831,107.6128257,0,0
v_107.612595_-6.900240,Jalan Ir. H. Djuanda,-6.9002401,107.6125952,0,0
v_107.611622_-6.902410,Jalan Ir. H. Djuanda,-6.9024095,107.6116218,0,0
v_107.610738_-6.904624,Jalan Ir. H. Djuanda,-6.9046241,107.6107381,0,0
v_107.610613_-6.906991,Jalan Ir. H. Djuanda,-6.9069907,107.6106132,0,0
v_107.610639_-6.909643,Jalan Merdeka,-6.909643,107.6106394,0,0
v_107.610455_-6.912534,Jalan Merdeka,-6.9125343,107.6104548,0,0
v_107.608995_-6.914471,Jalan Braga,-6.9144714,107.6089951,0,0
v_107.606969_-6.915481,Jalan Suniaraja,-6.9154807,107.6069686,0,0
11711326974,Perintis Kemerdekaan,-6.9140241,107.607935,0,0
11735248675,Bank Indonesia,-6.9145426,107.608993,0,0
1849525838,Lembong,-6.916445,107.609811,0,0
10801865379,Telkom Lembong,-6.9170839,107.6111029,0,0
11735248678,RSU Bungsu,-6.9182518,107.6132908,0,0
v_107.619003_-6.908793,Jalan Lombok,-6.9087926,107.6190026,0,0
v_107.620771_-6.906860,Jalan Lombok,-6.90686,107.6207709,0,0
v_107.621100_-6.904628,Jalan Taman Citarum,-6.9046275,107.6211004,0,0
v_107.623192_-6.903640,Jalan Citarum,-6.9036396,107.623192,0,0
v_107.624909_-6.901528,Jalan Citarum,-6.9015275,107.6249088,0,0
v_107.634657_-6.895355,Jalan Pahlawan,-6.8953549,107.6346567,0,0
v_107.635230_-6.893091,Jalan Pahlawan,-6.8930906,107.6352304,0,0
v_107.632605_-6.892234,Jalan Cikutra Barat,-6.8922337,107.6326048,0,0
v_107.629829_-6.891940,Jalan Cikutra Barat,-6.8919403,107.6298288,0,0
v_107.627586_-6.892264,Jalan Cikutra Barat,-6.892264,107.6275863,0,0
3252929646,Terminal Sadang Serang,-6.8911775,107.6252674,0,0
v_107.627460_-6.892177,Jalan Sadang Serang,-6.8921769,107.6274597,0,0
v_107.630431_-6.892087,Jalan Cikutra Barat,-6.8920872,107.630431,0,0
v_107.633253_-6.892285,Jalan Cikutra Barat,-6.8922846,107.6332532,0,0
v_107.630902_-6.892213,Jalan Cikutra Barat,-6.8922127,107.6309022,0,0
v_107.624144_-6.902626,Jalan Citarum,-6.9026263,107.6241445,0,0
v_107.622561_-6.904529,Jalan Citarum,-6.9045292,107.622561,0,0
v_107.621173_-6.906339,Jalan Lombok,-6.9063395,107.6211731,0,0
v_107.619429_-6.907776,Jalan Lombok,-6.9077763,107.6194288,0,0
319706142,RSAU dr. Salamun,-6.8635418,107.6049689,0,0
v_107.605792_-6.865693,Jalan Ciumbuleuit,-6.8656927,107.6057919,0,0
v_107.605910_-6.868211,Jalan Ciumbuleuit,-6.8682113,107.6059103,0,0
v_107.605495_-6.870577,Jalan Ciumbuleuit,-6.8705769,107.6054945,0,0
v_107.605000_-6.872834,Jalan Ciumbuleuit,-6.8728342,107.6050002,0,0
3462094658,UNPAR,-6.8753147,107.6044647,0,0
v_107.603949_-6.877579,Jalan Ciumbuleuit,-6.8775789,107.6039494,0,0
v_107.603606_-6.880009,Jalan Ciumbuleuit,-6.8800095,107.603606,0,0
v_107.604361_-6.882183,Jalan Ciumbuleuit,-6.8821833,107.6043606,0,0
v_107.604619_-6.884589,Jalan Cihampelas,-6.884589,107.6046192,0,0
3462094656,RS Advent,-6.8916075,107.6038612,0,0
v_107.601149_-6.891280,Jalan Sampurna,-6.8912796,107.6011493,0,0
29379371,Makmur,-6.8941794,107.5989838,0,0
29379391,RS Hasan Sadikin,-6.8961604,107.5993726,0,0
v_107.598737_-6.894001,Jalan Sederhana,-6.8940012,107.5987366,0,0
v_107.604060_-6.881393,Jalan Ciumbuleuit,-6.8813934,107.6040603,0,0
v_107.603715_-6.878637,Jalan Ciumbuleuit,-6.8786367,107.6037148,0,0
v_107.604243_-6.876290,Jalan Ciumbuleuit,-6.8762898,107.6042432,0,0
v_107.604825_-6.873670,Jalan Ciumbuleuit,-6.8736699,107.6048246,0,0
v_107.605380_-6.871146,Jalan Ciumbuleuit,-6.8711463,107.6053805,0,0
v_107.605885_-6.868743,Jalan Ciumbuleuit,-6.8687427,107.6058851,0,0
v_107.606077_-6.865916,Jalan Ciumbuleuit,-6.8659161,107.6060767,0,0
v_107.605233_-6.864128,Jalan Ciumbuleuit,-6.8641277,107.6052329,0,0
v_107.605954_-6.866612,Jalan Ciumbuleuit,-6.8666121,107.6059545,0,0
v_107.605852_-6.868989,Jalan Ciumbuleuit,-6.8689891,107.6058517,0,0
v_107.605242_-6.871863,Jalan Ciumbuleuit,-6.8718629,107.6052416,0,0
v_107.602591_-6.900371,Jalan Pasteur,-6.9003714,107.6025913,0,0
v_107.599989_-6.900358,Jalan Pasteur,-6.9003576,107.5999891,0,0
2012498684,Taman Adipura,-6.9068065,107.5992067,0,0
11138593915,SDN Pajajaran,-6.906861,107.599992,0,0
25500626,GOR Padjajaran,-6.9070015,107.6019252,0,0
3376669069,Kimia Farma,-6.9077123,107.6044661,0,0
v_107.604130_-6.910030,Jalan Cicendo,-6.9100304,107.60413,0,0
293384756,Stasiun Bandung,-6.9125954,107.6029303,0,0
12806120204,Haji Mesri,-6.9124771,107.6007223,0,0
v_107.598253_-6.912368,Jalan Kebon Kawung,-6.912368,107.5982527,0,0
25434237,GKI Kebonjati,-6.916282,107.5988546,0,0
11735248674,SMA Pasundan,-6.9162422,107.599627,0,0
1013407725,Stasiun Hall,-6.9161478,107.6024001,0,0
v_107.604290_-6.918278,Jalan Pasar Selatan,-6.9182779,107.6042904,0,0
10778322188,Dalem Kaum,-6.9219758,107.6040142,0,0
v_107.606135_-6.923403,Jalan Kepatihan,-6.9234028,107.6061346,0,0
11711275743,Alun-Alun Bandung,-6.9211653,107.6071455,0,0
12808912264,Pos Banceuy,-6.9205454,107.6065186,0,0
v_107.608991_-6.919726,Jalan ABC,-6.9197261,107.6089914,0,0
v_107.611268_-6.919941,Jalan Naripan,-6.919941,107.6112676,0,0
12823636734,Rumah Sakit Murni Teguh,-6.9208368,107.6159966,0,0
v_107.618639_-6.921345,Jalan Naripan,-6.9213446,107.6186394,0,0
v_107.619935_-6.923309,Jalan Burangrang,-6.9233089,107.6199354,0,0
v_107.620322_-6.925740,Jalan Halimun,-6.9257401,107.6203215,0,0
v_107.622641_-6.926365,Jalan Halimun,-6.9263649,107.6226412,0,0
v_107.623024_-6.928622,Jalan Talaga Bodas,-6.9286215,107.6230243,0,0
12809462425,Seberang Kangkung Kaler,-6.9308642,107.6261794,0,0
v_107.632176_-6.936771,Jalan Reog,-6.9367711,107.6321755,0,0
v_107.631291_-6.938923,Jalan Reog,-6.9389235,107.6312907,0,0
v_107.629009_-6.939585,Jalan Kliningan,-6.9395855,107.6290093,0,0
12808948215,Kliningan Buahbatu,-6.9426596,107.6282283,0,0
v_107.630216_-6.944730,Jalan Buah Batu,-6.9447298,107.630216,0,0
v_107.632077_-6.946668,Jalan Buah Batu,-6.9466684,107.6320775,0,0
5825209951,Simpang Samsat Kiaracondong,-6.9450226,107.6428119,0,0
12806851389,STT Mandala,-6.944662,107.6438888,0,0
12806851390,SMK Medika Com,-6.9438278,107.6464874,0,0
12806851392,Unibi,-6.9425403,107.6505153,0,0
12806851396,Cidurian Utara,-6.941787,107.6528692,0,0
12806851393,SMKN 9 Bandung,-6.9405212,107.6569119,0,0
3375689664,Jasa Raharja Jabar,-6.9400924,107.6582639,0,0
12806851400,Suparma,-6.9395718,107.6601512,0,0
12806868601,Kawaluyaan,-6.9390207,107.6635594,0,0
12806868603,Sanggar Hurip,-6.938728,107.6672726,0,0
v_107.669624_-6.938554,Jalan Soekarno-Hatta,-6.9385543,107.6696239,0,0
v_107.671913_-6.938391,Jalan Soekarno-Hatta,-6.9383912,107.671913,0,0
v_107.674233_-6.938228,Jalan Soekarno-Hatta,-6.9382279,107.6742333,0,0
12806868618,Cisaranten Kulon,-6.9379974,107.6775339,0,0
12806868620,KPP Pratama Cicadas,-6.9378628,107.6794352,0,0
v_107.681698_-6.937701,Jalan Soekarno-Hatta,-6.9377012,107.6816983,0,0
v_107.684452_-6.937515,Jalan Soekarno-Hatta,-6.937515,107.6844521,0,0
v_107.686997_-6.937323,Jalan Soekarno-Hatta,-6.9373231,107.6869969,0,0
v_107.689552_-6.937131,Jalan Soekarno-Hatta,-6.9371306,107.689552,0,0
v_107.691841_-6.936966,Jalan Soekarno-Hatta,-6.9369664,107.691841,0,0
v_107.694321_-6.936780,Jalan Soekarno-Hatta,-6.9367804,107.6943211,0,0
3780800108,Pasar Induk Gedebage,-6.9364151,107.6972019,0,0
v_107.695009_-6.936982,Jalan Soekarno-Hatta,-6.9369819,107.6950088,0,0
12806516344,Barat Simpang Gedebage,-6.9372117,107.6918125,0,0
v_107.688397_-6.937453,Jalan Soekarno-Hatta,-6.9374526,107.6883969,0,0
v_107.686101_-6.937624,Jalan Soekarno-Hatta,-6.9376237,107.686101,0,0
v_107.682445_-6.937881,Jalan Soekarno-Hatta,-6.9378809,107.6824446,0,0
12806868621,SMKN 6 Bandung,-6.9380944,107.6794141,0,0
12806868622,Cipamokolan,-6.9382789,107.6768401,0,0
12806868623,Aria Graha,-6.9385626,107.6729122,0,0
3375689668,RS Al Islam,-6.9388175,107.6692698,0,0
12806868625,Metro,-6.93901,107.6665574,0,0
12806868626,Rancabolang,-6.9392635,107.6633094,0,0
12806868627,SMKN 7 Bandung,-6.939893,107.6598099,0,0
12806868632,Gagak Rimang,-6.9400797,107.6590642,0,0
3272226033,Metro Indah Mall,-6.9403972,107.6580268,0,0
12806868633,BPN Kanwil Jabar,-6.9406892,107.6570876,0,0
12806851397,Cidurian Selatan,-6.9420012,107.6529256,0,0
12806868637,Kantor Pos Sekejati,-6.9427159,107.6506763,0,0
12806868639,Disnaker Jabar,-6.944058,107.646481,0,0
12806868640,UNINUS,-6.9448492,107.6441008,0,0
12808948218,Guntursari Wetan,-6.9465686,107.6318869,0,0
v_107.629915_-6.944521,Jalan Buah Batu,-6.9445213,107.6299147,0,0
1980677053,ISBI Bandung,-6.942597,107.6280578,0,0
v_107.628726_-6.940441,Jalan Kliningan,-6.9404408,107.6287265,0,0
v_107.628054_-6.938263,Jalan Karawitan,-6.9382632,107.628054,0,0
v_107.625962_-6.936740,Jalan Karawitan,-6.9367403,107.6259616,0,0
12806868635,Golkar Jawa Barat,-6.9337673,107.6269745,0,0
12809462424,Kangkung Kaler,-6.9308456,107.6260901,0,0
v_107.624461_-6.928989,Jalan Talaga Bodas,-6.9289886,107.6244608,0,0
v_107.623615_-6.926555,Jalan Palasari,-6.9265547,107.6236147,0,0
v_107.624044_-6.924334,Jalan Malabar,-6.924334,107.6240444,0,0
v_107.624738_-6.922076,Jalan Malabar,-6.9220759,107.6247378,0,0
11735248683,Kantor Pos Kosambi,-6.9192144,107.6235031,0,0
3277420346,Seberang Pasar Kosambi,-6.9199617,107.6220644,0,0
11735248705,Ketapang,-6.921143,107.619848,0,0
v_107.617794_-6.922154,Jalan terdekat,-6.9221539,107.6177938,0,0
12806120209,Taman Musik,-6.9122853,107.6165113,0,0
v_107.606675_-6.914734,Jalan Kebon Jukut,-6.9147337,107.606675,0,0
11739021629,SMAN 6 Bandung,-6.9114098,107.5979188,0,0
12806120202,SDN 013 Pajajaran,-6.9081059,107.5976849,0,0
5825369226,Unknown,-6.9058209,107.59755,0,0
12809082539,Djunjunan Paskal,-6.9003956,107.5968191,0,0
v_107.594562_-6.899483,Jalan Dr. Djunjunan,-6.8994829,107.5945616,0,0
v_107.592927_-6.897844,Jalan Dr. Djunjunan,-6.8978439,107.5929268,0,0
v_107.590492_-6.896365,Jalan Dr. Djunjunan,-6.8963655,107.5904922,0,0
12628813994,Griya Pasteur 1,-6.8950796,107.5884432,0,0
v_107.586417_-6.893600,Jalan Dr. Djunjunan,-6.8935998,107.5864173,0,0
12628813991,Warung Cepot,-6.8923414,107.5832389,0,0
v_107.581494_-6.890277,Jalan Surya Sumantri,-6.8902767,107.5814943,0,0
3384993309,Maranatha,-6.8859263,107.5813607,0,0
v_107.581391_-6.883568,Jalan Surya Sumantri,-6.8835685,107.5813906,0,0
306334264,Cibogo Atas,-6.8818614,107.5777479,0,0
1585594342,Rusun Sarijadi,-6.8827073,107.5749699,0,0
12628813986,Sarijadi,-6.8816653,107.578425,0,0
12628813987,Lemahneundeut,-6.8813034,107.5787258,0,0
12628813990,Setrasari,-6.8821984,107.5814944,0,0
v_107.581462_-6.884720,Jalan Surya Sumantri,-6.8847199,107.5814619,0,0
v_107.581384_-6.887716,Jalan Surya Sumantri,-6.887716,107.5813837,0,0
v_107.581551_-6.890114,Jalan Surya Sumantri,-6.8901138,107.5815509,0,0
1658426541,BPJS Pasteur,-6.8922539,107.5829072,0,0
12013144935,Mall d'Botanica,-6.8925604,107.5849478,0,0
2958261155,Djundjunan 3,-6.8929291,107.5856805,0,0
12628813992,Griya Pasteur 2,-6.8948914,107.5883918,0,0
v_107.590466_-6.896223,Jalan Dr. Djunjunan,-6.8962229,107.5904656,0,0
v_107.592653_-6.897482,Jalan Dr. Djunjunan,-6.8974821,107.5926529,0,0
v_107.594445_-6.898974,Jalan Dr. Djunjunan,-6.8989736,107.5944451,0,0
v_107.601519_-6.904878,Jalan Dokter Cipto Mangunkusumo,-6.9048777,107.6015193,0,0
v_107.600144_-6.902681,Jalan Doktor Louis Otten,-6.9026808,107.6001443,0,0
1700556149,Taman Westhoff,-6.9010192,107.5982442,0,0
v_107.580934_-6.892438,Jalan Sukaraja,-6.8924376,107.5809344,0,0
12809283847,SDN Sukaraja,-6.8914927,107.5786575,0,0
v_107.576343_-6.891143,Jalan Sukaraja,-6.8911426,107.5763426,0,0
1396428138,Simpang Dakota,-6.8935189,107.5726156,0,0
12809283844,Borma Dakota,-6.8908761,107.572217,0,0
12809283842,Mentor,-6.889704,107.5698999,0,0
3250402136,Gunung Batu,-6.8875315,107.5672467,0,0
2317306703,Seberang Gateway Pasteur,-6.8893002,107.566898,0,0
v_107.569566_-6.889641,Jalan Gunung Batu,-6.8896411,107.5695663,0,0
v_107.571799_-6.890106,Jalan Gunung Batu,-6.8901058,107.571799,0,0
v_107.572551_-6.892906,Jalan Dakota,-6.8929057,107.5725513,0,0
v_107.574815_-6.893133,Jalan Sukaraja,-6.8931333,107.5748149,0,0
v_107.575973_-6.891124,Jalan Sukaraja,-6.8911239,107.5759728,0,0
v_107.578523_-6.891446,Jalan Sukaraja,-6.8914458,107.5785226,0,0
v_107.596462_-6.900173,Jalan Dr. Djunjunan,-6.9001732,107.5964623,0,0
v_107.598845_-6.900209,Jalan Pasteur,-6.9002092,107.5988449,0,0
12809237524,GKI Pasteur,-6.9002045,107.6027269,0,0
v_107.607618_-6.907233,Jalan Wastukencana,-6.907233,107.6076183,0,0
12809237527,Pajajaran Timur,-6.9071527,107.6047535,0,0
3874166202,Terminal Margahayu Raya,-6.9465292,107.6626652,0,0
v_107.663342_-6.943985,Jalan Rancabolang,-6.9439847,107.6633416,0,0
v_107.663657_-6.941616,Jalan Rancabolang,-6.9416161,107.6636575,0,0
v_107.644260_-6.928694,Jalan Layang Kiaracondong,-6.9286941,107.6442602,0,0
v_107.644506_-6.926360,Jalan Layang Kiaracondong,-6.9263603,107.6445059,0,0
3376430783,Tugu Tunas Taman Pramuka,-6.9105422,107.6265596,0,0
12947493616,Riau Aceh,-6.9097089,107.6256861,0,0
12809507149,bjb Riau,-6.9092859,107.6252606,0,0
12947493614,HKBP Riau,-6.9086974,107.624592,0,0
12809507147,Riau Cihapit,-6.9081445,107.623898,0,0
12809507143,Pengadilan Negeri Bandung,-6.9063102,107.6220332,0,0
12947493613,De Pavilijoen,-6.9058792,107.6207244,0,0
12947493612,Sekolah Taruna Bakti,-6.9060981,107.6183784,0,0
12947493611,Graha Pos,-6.9061429,107.6173359,0,0
v_107.600617_-6.882706,Jalan Dokter Setiabudi,-6.8827057,107.600617,0,0
29379224,Jl. Jurang,-6.8873092,107.6005875,0,0
v_107.600947_-6.895465,Jalan Makmur,-6.8954647,107.6009465,0,0
11739021634,Riau XL,-6.9068537,107.6096165,0,0
12947493608,Rumah Sakit Sariningsih,-6.9070444,107.6114489,0,0
12819940053,Riau Junction,-6.9070609,107.6116695,0,0
12947493609,RSGM Kota Bandung,-6.9064746,107.6144094,0,0
12947493610,Heritage,-6.9061407,107.6173687,0,0
2670043322,TK Taruna Bakti,-6.905928,107.6195027,0,0
12809507145,Seberang Pengadilan Negeri Bandung,-6.9062923,107.6220004,0,0
3375793684,Pusdiklat PU,-6.9069596,107.6228683,0,0
12947493615,Riau Serayu,-6.9090547,107.6250154,0,0
v_107.644269_-6.919053,Jalan H. Ibrahim Adjie,-6.9190528,107.6442687,0,0
v_107.644450_-6.924568,Jalan Layang Kiaracondong,-6.9245676,107.64445,0,0
v_107.644495_-6.926888,Jalan Layang Kiaracondong,-6.9268876,107.6444947,0,0
v_107.671635_-6.938475,Jalan Soekarno-Hatta,-6.9384751,107.6716349,0,0
v_107.663680_-6.941436,Jalan Rancabolang,-6.9414356,107.6636805,0,0
v_107.663482_-6.943703,Jalan Rancabolang,-6.943703,107.6634816,0,0
1664514926,Terminal Riung Bandung,-6.9493701,107.6832703,0,0
v_107.683717_-6.946284,Jalan terdekat,-6.9462838,107.6837165,0,0
v_107.682861_-6.943580,Jalan Riung Subur,-6.9435796,107.6828611,0,0
v_107.680362_-6.943009,Jalan Riung Hegar Raya,-6.9430091,107.6803622,0,0
v_107.678227_-6.941770,Jalan terdekat,-6.9417703,107.6782266,0,0
3375794694,DPRD Kota Bandung,-6.916856,107.6342682,0,0
3476292190,Dishub Jabar,-6.9181019,107.6324739,0,0
11707030859,Bandung Creative Hub B,-6.9184177,107.6312506,0,0
v_107.630143_-6.916119,Jalan Laswi,-6.916119,107.6301434,0,0
12947493617,Seberang Hotel Grand Tebu,-6.9133503,107.6290686,0,0
v_107.626721_-6.913320,Jalan Kamuning,-6.9133198,107.6267213,0,0
v_107.623940_-6.912510,Jalan Patra Komala,-6.9125098,107.6239395,0,0
v_107.621662_-6.911950,Jalan Patra Komala,-6.9119501,107.6216623,0,0
v_107.618607_-6.911561,Jalan Belitung,-6.9115608,107.6186071,0,0
v_107.616590_-6.904961,Jalan Banda,-6.9049615,107.6165897,0,0
v_107.616920_-6.902617,Jalan Cilamaya,-6.9026169,107.6169204,0,0
v_107.615409_-6.900922,Jalan Diponegoro,-6.900922,107.6154093,0,0
v_107.613691_-6.885216,Jalan Ir. H. Djuanda,-6.8852164,107.6136907,0,0
v_107.614953_-6.882814,Jalan Ir. H. Djuanda,-6.8828137,107.6149531,0,0
v_107.616122_-6.880552,Jalan Ir. H. Djuanda,-6.8805516,107.6161219,0,0
v_107.616800_-6.878083,Jalan Ir. H. Djuanda,-6.8780829,107.6167998,0,0
3373712063,Dago Pojok,-6.8745002,107.6190216,0,0
v_107.619871_-6.872314,Jalan Ir. H. Djuanda,-6.8723137,107.6198709,0,0
12819940048,Taman Budaya,-6.8682321,107.6205719,0,0
11707030826,Panatayudha A,-6.8979225,107.6161542,0,0
1660289593,Gasibu,-6.8992842,107.6179657,0,0
v_107.623506_-6.903379,Jalan Citarum,-6.9033792,107.6235062,0,0
3375793685,Taman Pramuka,-6.9105798,107.6265967,0,0
3375793687,Hotel Grand Tebu,-6.9130163,107.6288644,0,0
5391666887,Jalan Mangga,-6.9151724,107.6310524,0,0
11735248691,Sekolah Agustinus,-6.9140574,107.6332108,0,0
v_107.688120_-6.937291,Jalan Soekarno-Hatta,-6.9372915,107.6881201,0,0
v_107.685206_-6.937691,Jalan Soekarno-Hatta,-6.9376909,107.6852061,0,0
v_107.677251_-6.940367,Jalan Cipamokolan,-6.9403669,107.6772511,0,0
v_107.678620_-6.942226,Jalan Riung Hegar Raya,-6.9422264,107.67862,0,0
v_107.681597_-6.943348,Jalan Riung Hegar Raya,-6.943348,107.6815966,0,0
v_107.682944_-6.945214,Jalan Riung Mungpulung Raya,-6.9452145,107.6829443,0,0
12633822769,Pasar Caringin,-6.9419021,107.5829792,0,0
v_107.581340_-6.940079,Jalan Soekarno-Hatta,-6.9400788,107.5813405,0,0
v_107.580013_-6.938138,Jalan Soekarno-Hatta,-6.9381376,107.5800131,0,0
v_107.578692_-6.936176,Jalan Soekarno-Hatta,-6.936176,107.5786923,0,0
12808867766,Griya Sumbersari,-6.9325102,107.5766013,0,0
v_107.576348_-6.930268,Jalan Pasir Koja,-6.9302683,107.5763485,0,0
v_107.578539_-6.929421,Jalan Pasir Koja,-6.9294213,107.5785391,0,0
v_107.580688_-6.928592,Jalan Pasir Koja,-6.9285922,107.5806882,0,0
v_107.584067_-6.927273,Jalan Pasir Koja,-6.9272726,107.5840665,0,0
v_107.585572_-6.925167,Jalan Jamika,-6.9251667,107.5855719,0,0
11711275757,Toko Ambon,-6.9186067,107.5855198,0,0
1911635044,Yayasan LPPN,-6.9157549,107.5853751,0,0
v_107.587880_-6.914669,Jalan terdekat,-6.9146694,107.5878799,0,0
v_107.589074_-6.914027,Jalan Ciroyom,-6.9140273,107.5890738,0,0
11735239268,SMA Trinitas,-6.9165436,107.5917121,0,0
v_107.594246_-6.916450,Jalan Kebon Jati,-6.9164499,107.5942457,0,0
11735248671,Rumah Sakit Kebon Jati,-6.9163694,107.5966005,0,0
3640664489,Paskal Hypersquare,-6.9155623,107.5981241,0,0
5825246687,Unknown,-6.906026,107.6093278,0,0
v_107.609544_-6.903435,Jalan Purnawarman,-6.9034354,107.6095436,0,0
v_107.630850_-6.896495,Jalan Jalaprang,-6.8964949,107.6308502,0,0
v_107.630761_-6.894020,Jalan Rereng Adumanis,-6.8940198,107.6307614,0,0
v_107.632677_-6.892727,Jalan Sido Mukti,-6.8927274,107.6326771,0,0
v_107.630578_-6.891568,Jalan Cikondang,-6.8915677,107.6305783,0,0
v_107.630086_-6.889228,Jalan Cigadung Raya Timur,-6.8892284,107.6300861,0,0
v_107.630196_-6.886802,Jalan Cigadung Raya Timur,-6.8868025,107.6301961,0,0
v_107.629179_-6.884780,Jalan Cigadung Raya Tengah,-6.8847796,107.6291786,0,0
v_107.628376_-6.882674,Jalan Cigadung Raya Tengah,-6.8826744,107.6283755,0,0
v_107.626068_-6.882430,Jalan Cigadung Raya Barat,-6.8824305,107.6260679,0,0
v_107.624849_-6.880439,Jalan Cigadung Raya Barat,-6.8804388,107.6248493,0,0
312523735,Cigadung/Rancakendal,-6.8780245,107.6236902,0,0
v_107.623033_-6.875753,Jalan Cigadung Raya Barat,-6.8757529,107.6230326,0,0
v_107.622487_-6.873239,Jalan Cigadung Raya Barat,-6.8732388,107.6224874,0,0
v_107.623074_-6.870512,Jalan Cigadung Raya Barat,-6.8705122,107.623074,0,0
v_107.623922_-6.868239,Jalan Cigadung Raya Barat,-6.8682394,107.6239224,0,0
5825396969,Unknown,-6.8651084,107.6262405,0,0
v_107.624653_-6.863478,Jalan Ir. H. Djuanda,-6.8634784,107.6246534,0,0
v_107.622545_-6.865035,Jalan Ir. H. Djuanda,-6.8650353,107.6225451,0,0
v_107.624582_-6.863525,Jalan Ir. H. Djuanda,-6.8635247,107.6245821,0,0
v_107.624903_-6.866998,Jalan Raya Golf,-6.8669984,107.6249029,0,0
v_107.623697_-6.868964,Jalan Cigadung Raya Barat,-6.8689638,107.6236974,0,0
v_107.622758_-6.871091,Jalan Cigadung Raya Barat,-6.8710906,107.622758,0,0
v_107.622507_-6.873576,Jalan Cigadung Raya Barat,-6.8735757,107.6225067,0,0
v_107.624773_-6.880262,Jalan Cigadung Raya Barat,-6.8802625,107.6247733,0,0
v_107.625961_-6.882270,Jalan Cigadung Raya Barat,-6.8822696,107.6259609,0,0
v_107.628287_-6.882627,Jalan Cigadung Raya Tengah,-6.8826272,107.628287,0,0
v_107.614845_-6.899127,Jalan Prabu Dimuntur,-6.8991266,107.6148451,0,0
12628813996,Cikapayang Dago 1,-6.8990335,107.6120546,0,0
v_107.609782_-6.898330,Jalan Cikapayang,-6.8983302,107.6097817,0,0
v_107.609577_-6.900817,Jalan Sawunggaling,-6.9008166,107.6095765,0,0
v_107.608706_-6.902929,Jalan Harian Banga,-6.9029289,107.6087064,0,0
v_107.607907_-6.905302,Jalan Taman Sari,-6.9053019,107.6079073,0,0
2012970403,Arjuna/Bima,-6.9087296,107.5917888,0,0
v_107.590128_-6.910674,Jalan Arjuna,-6.9106741,107.5901279,0,0
v_107.587475_-6.910776,Jalan Komodor Udara Supadio,-6.9107757,107.5874751,0,0
v_107.585372_-6.909932,Jalan Komodor Udara Supadio,-6.9099324,107.585372,0,0
v_107.582959_-6.908966,Jalan Komodor Udara Supadio,-6.9089659,107.5829594,0,0
v_107.579924_-6.907750,Jalan Komodor Udara Supadio,-6.9077503,107.5799239,0,0
v_107.581386_-6.909701,Jalan Ciroyom,-6.9097015,107.5813863,0,0
v_107.583414_-6.911047,Jalan Ciroyom,-6.9110471,107.583414,0,0
v_107.582620_-6.913170,Jalan Andir,-6.9131705,107.5826203,0,0
v_107.587598_-6.916187,Jalan Rajawali Timur,-6.9161866,107.5875979,0,0
v_107.590073_-6.916471,Jalan Rajawali Timur,-6.9164713,107.5900726,0,0
v_107.590134_-6.919141,Jalan Waringin,-6.9191414,107.5901341,0,0
v_107.587533_-6.918835,Jalan Jendral Sudirman,-6.9188349,107.5875333,0,0
v_107.586214_-6.920918,Jalan Jamika,-6.9209176,107.5862144,0,0
v_107.585817_-6.923554,Jalan Jamika,-6.9235544,107.5858172,0,0
12626357387,Simpang Pasir Koja,-6.9270511,107.5849563,0,0
v_107.582183_-6.928113,Jalan Pasir Koja,-6.928113,107.5821832,0,0
12626357388,SPBU Pasir Koja,-6.9292122,107.5793217,0,0
12808867765,Sumbersari 1,-6.9313117,107.5763049,0,0
12626357398,Sumber Sari Junction,-6.9323901,107.576671,0,0
v_107.577830_-6.934750,Jalan Soekarno-Hatta,-6.9347499,107.5778296,0,0
v_107.579576_-6.937339,Jalan Soekarno-Hatta,-6.937339,107.5795763,0,0
v_107.580938_-6.939331,Jalan Soekarno-Hatta,-6.9393311,107.580938,0,0
12626357399,Pasar Induk Caringin,-6.9419015,107.5831212,0,0
12808867764,Simpang Caringin,-6.9434372,107.5850407,0,0
3272542985,Puskesmas Kopo,-6.9462748,107.5892183,0,0
7484309659,Barat Simpang Kopo Caringin,-6.9467105,107.5879339,0,0
v_107.585566_-6.946220,Jalan Caringin,-6.9462201,107.5855655,0,0
3251007192,Pangkalan Angkot Panghegar,-6.9237417,107.6835707,0,0
12814754637,SMK YPF,-6.9206777,107.6842783,0,0
v_107.684900_-6.918504,Jalan terdekat,-6.9185044,107.6849004,0,0
v_107.685067_-6.916227,Jalan terdekat,-6.916227,107.6850672,0,0
v_107.683964_-6.914209,Jalan Cicukang,-6.9142092,107.6839636,0,0
v_107.683468_-6.911597,Jalan Cicukang,-6.9115966,107.6834678,0,0
12814754622,Silver Kris,-6.909138,107.6844034,0,0
v_107.685336_-6.906931,Jalan Cicukang,-6.9069314,107.6853357,0,0
v_107.682806_-6.905833,Jalan Abdul Haris Nasution,-6.9058327,107.6828062,0,0
v_107.680277_-6.905111,Jalan Abdul Haris Nasution,-6.9051106,107.6802772,0,0
12806309250,Seberang Borma Pasirimpun,-6.9047223,107.6758598,0,0
35135540,Lapas Sukamiskin,-6.9046182,107.6750064,0,0
12806309247,Komplek Sarimas,-6.9046989,107.672335,0,0
v_107.669869_-6.904230,Jalan Abdul Haris Nasution,-6.90423,107.6698686,0,0
v_107.667497_-6.904197,Jalan Abdul Haris Nasution,-6.904197,107.6674966,0,0
v_107.665032_-6.903980,Jalan Abdul Haris Nasution,-6.9039795,107.6650321,0,0
v_107.662520_-6.903704,Jalan Abdul Haris Nasution,-6.9037038,107.6625205,0,0
v_107.660579_-6.902475,Jalan Abdul Haris Nasution,-6.9024754,107.6605793,0,0
5832221936,Depan Terminal Cicaheum,-6.9022123,107.6568007,0,0
v_107.654175_-6.902975,Jalan Jenderal Ahmad Yani,-6.9029752,107.654175,0,0
v_107.651275_-6.904482,Jalan Jenderal Ahmad Yani,-6.9044817,107.6512752,0,0
11735248707,BCA Cimuncang,-6.9060351,107.6483165,0,0
11735248706,Gateway Cicadas,-6.9072816,107.6459395,0,0
v_107.643799_-6.908447,Jalan Jenderal Ahmad Yani,-6.9084471,107.6437989,0,0
v_107.620976_-6.904272,Jalan Cisanggarung,-6.9042722,107.6209757,0,0
v_107.618681_-6.903761,Jalan Cilamaya,-6.9037611,107.6186813,0,0
v_107.616904_-6.902019,Jalan Cilamaya,-6.9020191,107.6169036,0,0
v_107.615071_-6.900633,Jalan Diponegoro,-6.9006334,107.6150711,0,0
v_107.612738_-6.900306,Jalan Diponegoro,-6.9003059,107.6127382,0,0
v_107.610527_-6.899646,Jalan Sulanjana,-6.8996458,107.6105271,0,0
12813237928,Lapangan Sipil,-6.8933731,107.6094774,0,0
2035856554,Gerbang Depan ITB,-6.8932466,107.6109077,0,0
12813237913,Ganesha Ciungwanara,-6.8936144,107.6121446,0,0
v_107.613166_-6.891496,Jalan Ir. H. Djuanda,-6.8914961,107.6131662,0,0
v_107.615703_-6.891705,Jalan Teuku Umar,-6.891705,107.6157035,0,0
11104669204,Rumah Sakit Santo Borromeus A,-6.8944643,107.6129302,0,0
12813237923,Masjid Salman,-6.8933595,107.611316,0,0
12813237926,Klinik Pratama ITB,-6.8933482,107.6095668,0,0
v_107.609463_-6.900454,Jalan Sawunggaling,-6.9004538,107.6094627,0,0
v_107.608844_-6.902778,Jalan Harian Banga,-6.9027781,107.6088443,0,0
v_107.608047_-6.904917,Jalan Taman Sari,-6.9049172,107.608047,0,0
v_107.616759_-6.906202,Jalan L.L. RE. Martadinata,-6.9062016,107.6167588,0,0
v_107.617382_-6.909011,Jalan Banda,-6.9090114,107.617382,0,0
v_107.617619_-6.911328,Jalan Banda,-6.9113281,107.6176192,0,0
v_107.615709_-6.919453,Jalan Veteran,-6.9194533,107.6157093,0,0
11735248679,Pasar Kosambi,-6.9199012,107.6221779,0,0
11735248685,Segitiga Mas,-6.9179222,107.6258605,0,0
11735248686,Jaya Plaza,-6.9174142,107.6268373,0,0
11735248689,Dinas Pendidikan Kota Bandung,-6.9164526,107.6287225,0,0
v_107.643780_-6.908380,Jalan Jenderal Ahmad Yani,-6.9083798,107.6437801,0,0
v_107.645858_-6.907325,Jalan Jenderal Ahmad Yani,-6.9073247,107.6458575,0,0
v_107.647873_-6.906268,Jalan Jenderal Ahmad Yani,-6.9062675,107.6478731,0,0
11735248708,Cimuncang,-6.9050722,107.650154,0,0
v_107.652260_-6.903960,Jalan Jenderal Ahmad Yani,-6.9039596,107.6522601,0,0
v_107.659386_-6.902210,Jalan Abdul Haris Nasution,-6.9022105,107.6593864,0,0
v_107.661345_-6.903412,Jalan Abdul Haris Nasution,-6.9034118,107.6613446,0,0
12806309242,SDN Cikadut,-6.9040466,107.6656526,0,0
v_107.667918_-6.904204,Jalan Abdul Haris Nasution,-6.9042041,107.6679175,0,0
12806309246,Gang H.M. Syarief,-6.9044513,107.6718533,0,0
12806309248,Borma Pasirimpun,-6.904729,107.6759315,0,0
v_107.678299_-6.904855,Jalan Abdul Haris Nasution,-6.9048547,107.6782995,0,0
v_107.680997_-6.905210,Jalan Abdul Haris Nasution,-6.9052105,107.6809974,0,0
v_107.683322_-6.906065,Jalan Abdul Haris Nasution,-6.9060645,107.6833223,0,0
12814754624,Yuntex Raya,-6.9099636,107.6840757,0,0
v_107.683238_-6.912112,Jalan Cicukang,-6.9121122,107.6832381,0,0
v_107.684050_-6.914244,Jalan Cicukang,-6.9142445,107.6840501,0,0
v_107.685054_-6.916275,Jalan terdekat,-6.9162749,107.685054,0,0
v_107.684880_-6.918656,Jalan terdekat,-6.918656,107.6848801,0,0
12814754639,K.H. Djunaedi,-6.922592,107.6839378,0,0
v_107.596283_-6.878750,Jalan Sukajadi,-6.8787501,107.5962832,0,0
v_107.594488_-6.877274,Jalan Sindang Sirna,-6.8772736,107.5944884,0,0
v_107.594287_-6.879565,Jalan Bungur,-6.8795648,107.5942874,0,0
v_107.592406_-6.878001,Jalan Sindang Sirna,-6.8780015,107.5924065,0,0
v_107.590637_-6.876561,Jalan Cipedes Atas,-6.876561,107.5906365,0,0
v_107.590958_-6.874310,Jalan Cipedes Atas,-6.8743096,107.590958,0,0
v_107.590198_-6.871954,Jalan Cipedes Atas,-6.871954,107.5901979,0,0
v_107.589287_-6.869717,Jalan Geger Kalong Hilir,-6.8697168,107.589287,0,0
29357243,KPAD,-6.8685096,107.5860838,0,0
v_107.583716_-6.868124,Jalan Geger Kalong Hilir,-6.8681236,107.5837165,0,0
v_107.582438_-6.870162,Jalan Sari Endah Baru,-6.870162,107.582438,0,0
v_107.580731_-6.871900,Jalan Sarijadi Raya,-6.8719003,107.5807314,0,0
v_107.580209_-6.874168,Jalan Sarijadi Raya,-6.8741681,107.5802088,0,0
v_107.579249_-6.876463,Jalan Sarijadi Raya,-6.8764632,107.579249,0,0
v_107.577344_-6.878288,Jalan Sarimanah,-6.8782876,107.5773438,0,0
v_107.576405_-6.880484,Jalan Sarimanah,-6.8804841,107.5764048,0,0
v_107.578353_-6.876073,Jalan Sarimanah,-6.8760725,107.5783526,0,0
v_107.580077_-6.874601,Jalan Sarijadi Raya,-6.8746007,107.5800766,0,0
v_107.580675_-6.872138,Jalan Sarijadi Raya,-6.8721384,107.5806752,0,0
v_107.581279_-6.869888,Jalan Sarijadi Raya,-6.8698882,107.5812787,0,0
v_107.582922_-6.868085,Jalan Geger Kalong Hilir,-6.8680848,107.5829223,0,0
v_107.588982_-6.869619,Jalan Geger Kalong Hilir,-6.8696193,107.5889824,0,0
v_107.590491_-6.871337,Jalan Cipedes Atas,-6.8713372,107.5904906,0,0
v_107.590523_-6.873726,Jalan Cipedes Atas,-6.8737259,107.590523,0,0
12634504453,Karangsetra Waterland,-6.8790317,107.5951798,0,0
v_107.596398_-6.880934,Jalan Sirna Galih,-6.8809341,107.5963984,0,0
v_107.600512_-6.882585,Jalan Dokter Danudirja Setiabudhi,-6.8825853,107.600512,0,0
v_107.601694_-6.885053,Jalan Raden Adipati Aria Wiranatakusumah,-6.8850534,107.6016942,0,0
v_107.602150_-6.887298,Jalan Raden Adipati Aria Wiranatakusumah,-6.8872977,107.6021499,0,0
v_107.587195_-6.910664,Jalan Komodor Udara Supadio,-6.9106635,107.5871952,0,0
3383508275,Komodor Supadio,-6.9094444,107.5841152,0,0
v_107.581985_-6.908573,Jalan Komodor Udara Supadio,-6.9085731,107.5819854,0,0
v_107.580003_-6.907485,Jalan terdekat,-6.9074851,107.580003,0,0
v_107.578490_-6.909760,Jalan Garuda,-6.90976,107.5784895,0,0
v_107.577956_-6.912086,Jalan Garuda,-6.9120857,107.5779564,0,0
v_107.577438_-6.914394,Jalan Garuda,-6.9143939,107.5774382,0,0
v_107.576871_-6.916820,Jalan Garuda,-6.91682,107.5768707,0,0
v_107.574560_-6.917279,Jalan Jendral Sudirman,-6.9172787,107.5745601,0,0
v_107.574434_-6.919653,Jalan Soekarno-Hatta,-6.9196531,107.5744343,0,0
v_107.574830_-6.922387,Jalan Soekarno-Hatta,-6.9223874,107.5748304,0,0
v_107.575169_-6.924690,Jalan Soekarno-Hatta,-6.9246901,107.5751686,0,0
29380518,Holis/Bojong,-6.9279358,107.5740641,0,0
v_107.571664_-6.927755,Jalan Bojong Raya,-6.927755,107.5716644,0,0
v_107.568675_-6.927557,Jalan Bojong Raya,-6.927557,107.5686754,0,0
3252892639,Cijerah,-6.9266742,107.5657238,0,0
v_107.565420_-6.929108,Jalan Raya Cijerah,-6.9291085,107.5654202,0,0
v_107.564540_-6.931610,Jalan Raya Cijerah,-6.9316096,107.5645396,0,0
v_107.561932_-6.932028,Jalan Gempol,-6.9320282,107.5619318,0,0
3110267088,Gempol Sari,-6.9299747,107.5580796,0,0
v_107.556015_-6.928692,Jalan Gempol,-6.9286918,107.5560146,0,0
v_107.553952_-6.927500,Jalan Gempol,-6.9274998,107.5539518,0,0
v_107.551656_-6.928375,Jalan Dirgantara,-6.9283753,107.5516563,0,0
3385219353,Terminal Bumi Asri,-6.9324632,107.5508272,0,0
v_107.574780_-6.925664,Jalan Holis,-6.925664,107.5747803,0,0
v_107.574866_-6.923303,Jalan Soekarno-Hatta,-6.9233028,107.5748665,0,0
v_107.574491_-6.920910,Jalan Soekarno-Hatta,-6.9209105,107.5744906,0,0
v_107.574303_-6.918267,Jalan Soekarno-Hatta,-6.9182666,107.5743029,0,0
v_107.574928_-6.915728,Jalan Elang,-6.9157275,107.5749278,0,0
11711326973,Terminal Elang,-6.9133498,107.575723,0,0
11735239264,Rajawali 1,-6.9137773,107.5781901,0,0
11735239266,Dunguscariang,-6.9149105,107.5828928,0,0
v_107.551319_-6.930104,Jalan Dirgantara,-6.9301039,107.551319,0,0
v_107.551786_-6.927897,Jalan Dirgantara,-6.9278971,107.5517856,0,0
v_107.554845_-6.927985,Jalan Gempol,-6.9279848,107.5548453,0,0
v_107.560056_-6.931266,Jalan Gempol,-6.9312664,107.5600557,0,0
v_107.562406_-6.932109,Jalan Gempol,-6.9321088,107.5624059,0,0
v_107.564781_-6.931061,Jalan Raya Cijerah,-6.9310607,107.5647812,0,0
v_107.568535_-6.927538,Jalan Bojong Raya,-6.9275379,107.5685351,0,0
v_107.571243_-6.927752,Jalan Bojong Raya,-6.9277519,107.5712431,0,0
11711326972,Plaza Telkom Rajawali,-6.9129722,107.5753653,0,0
v_107.598292_-6.917888,Jalan Gardujati,-6.9178883,107.5982915,0,0
v_107.598351_-6.920244,Jalan Astana Anyar,-6.9202439,107.5983508,0,0
v_107.598568_-6.922533,Jalan Astana Anyar,-6.9225334,107.5985679,0,0
v_107.599158_-6.924794,Jalan Astana Anyar,-6.9247939,107.5991575,0,0
v_107.599952_-6.926977,Jalan Astana Anyar,-6.9269769,107.5999523,0,0
v_107.600698_-6.929232,Jalan Astana Anyar,-6.9292319,107.6006985,0,0
v_107.597345_-6.929862,Jalan Panjunan,-6.9298621,107.5973451,0,0
v_107.596536_-6.932496,Jalan Kyai Haji Wahid Hasyim,-6.9324963,107.5965357,0,0
12806717333,RS Imanuel Pintu Kopo,-6.9351264,107.5957871,0,0
11739021652,Rumah Sakit Immanuel A,-6.9372267,107.5956524,0,0
v_107.598016_-6.937706,Jalan Peta,-6.9377065,107.5980158,0,0
12628930762,Muara A,-6.9371534,107.6020331,0,0
12806765746,Taman Tegalega/Sri Baduga,-6.9373001,107.6037009,0,0
11707031601,PT INTI B (BKR 5),-6.9375463,107.6067624,0,0
3445680780,Samsudin,-6.9375959,107.6083051,0,0
v_107.610513_-6.936656,Jalan Mochammad Ramdhan,-6.9366557,107.6105128,0,0
v_107.612368_-6.935165,Jalan Mochammad Ramdhan,-6.9351648,107.6123682,0,0
v_107.614087_-6.933465,Jalan Mochammad Ramdhan,-6.9334648,107.6140869,0,0
v_107.623058_-6.928673,Jalan Palasari,-6.928673,107.6230578,0,0
v_107.623714_-6.925252,Jalan Malabar,-6.925252,107.623714,0,0
12806717340,Aneka Jeans,-6.924329,107.6268157,0,0
12806717344,SPBU Laswi,-6.9236669,107.6279241,0,0
v_107.630135_-6.922250,Jalan Laswi,-6.9222498,107.6301346,0,0
11735248690,Stadion Persib Sidolig,-6.9161976,107.6292904,0,0
12637510528,Stasiun Cikudapateuh,-6.9189956,107.6258024,0,0
v_107.625497_-6.921459,Jalan Terate,-6.9214586,107.6254974,0,0
12806717338,SMK Pariwisata Telkom,-6.9255559,107.623843,0,0
9189908949,Yayasan Muslimah,-6.9272967,107.6234197,0,0
2607816747,Unknown,-6.9309756,107.622434,0,0
v_107.621134_-6.933768,Jalan Gajah,-6.9337683,107.6211343,0,0
10815723012,Simpang Mohamad Toha Biddokkes,-6.9375586,107.6055097,0,0
v_107.603170_-6.937346,Jalan Peta,-6.9373463,107.6031703,0,0
12806765747,Muara,-6.9374746,107.5999005,0,0
11739021653,Rumah Sakit Immanuel B,-6.9372977,107.5955421,0,0
v_107.595824_-6.934987,Jalan Kyai Haji Wahid Hasyim,-6.9349871,107.5958242,0,0
v_107.596454_-6.932812,Jalan Kyai Haji Wahid Hasyim,-6.9328118,107.5964545,0,0
v_107.597194_-6.930284,Jalan Kyai Haji Wahid Hasyim,-6.9302837,107.5971942,0,0
v_107.597923_-6.927818,Jalan Kopo,-6.9278179,107.5979226,0,0
12806765750,Karanganyar,-6.9226401,107.598583,0,0
v_107.596726_-6.921219,Jalan Cibadak,-6.9212186,107.5967264,0,0
v_107.594356_-6.920936,Jalan Cibadak,-6.9209362,107.5943556,0,0
11711275755,Mayapada Tower,-6.9193345,107.591747,0,0
11735248716,Simpang Jamika,-6.9188238,107.5874451,0,0
11954573588,SDN Raya Barat,-6.9181852,107.5819763,0,0
11711275763,Kemenag Kanwil Jabar,-6.9176018,107.5771136,0,0
v_107.574790_-6.917329,Jalan Jendral Sudirman,-6.9173287,107.5747901,0,0
2604179157,Optik Krida,-6.9155598,107.5720549,0,0
v_107.570877_-6.913559,Jalan Jendral Sudirman,-6.9135594,107.5708773,0,0
11954573590,Batas Kota,-6.9109035,107.569361,0,0
11711326971,Rajawali Barat,-6.9109306,107.5701462,0,0
v_107.572578_-6.911882,Jalan Rajawali Barat,-6.9118819,107.5725782,0,0
11898859975,Grand Yogya Kepatihan,-6.9238597,107.606261,0,0
v_107.608442_-6.922635,Jalan Dalem Kaum,-6.9226352,107.6084422,0,0
v_107.610733_-6.922900,Jalan Dalem Kaum,-6.9229004,107.6107335,0,0
v_107.614496_-6.927832,Jalan Cikawao,-6.9278316,107.6144957,0,0
v_107.617159_-6.929104,Jalan Sadakeling,-6.9291037,107.6171591,0,0
v_107.622883_-6.933533,Jalan Kyai Haji Ahmad Dahlan,-6.9335325,107.6228829,0,0
11707031579,Hotel Horison B,-6.9343038,107.6251981,0,0
7702036194,Hotel Horison A,-6.9343354,107.6252887,0,0
v_107.623721_-6.936105,Jalan Pelajar Pejuang 45,-6.9361054,107.6237206,0,0
v_107.624305_-6.938581,Jalan Buah Batu,-6.9385814,107.6243051,0,0
12808948214,Selontongan,-6.9402599,107.625925,0,0
12626499695,Taman Buah Batu,-6.9484693,107.6339239,0,0
12626499694,Swadarma BNI,-6.9503784,107.6357751,0,0
12626499692,Pasar Kordon B,-6.9534876,107.6387006,0,0
v_107.639334_-6.955946,Jalan Buah Batu,-6.9559465,107.6393343,0,0
12626499689,Bluebird B,-6.9584038,107.6394982,0,0
v_107.639014_-6.960777,Jalan Buah Batu,-6.9607769,107.6390142,0,0
12626499688,Puskesmas Kujangsari B,-6.9649573,107.6381038,0,0
6609327003,Cipagalo,-6.9657129,107.6378871,0,0
12808943892,Puskesmas Kujangsari A,-6.9647853,107.6380282,0,0
v_107.638535_-6.962169,Jalan Buah Batu,-6.9621689,107.6385351,0,0
12626499690,Bluebird A,-6.9576866,107.639482,0,0
35138340,Pasar Kordon A,-6.9541863,107.638933,0,0
12626499693,JAPNAS,-6.9512022,107.6364761,0,0
v_107.634757_-6.949437,Jalan Buah Batu,-6.9494368,107.634757,0,0
1980592202,Seberang Selontongan,-6.9400594,107.6256577,0,0
v_107.624083_-6.938410,Jalan Buah Batu,-6.9384102,107.6240828,0,0
v_107.622539_-6.936746,Jalan Buah Batu,-6.9367463,107.6225387,0,0
v_107.620877_-6.935041,Jalan Buah Batu,-6.9350405,107.6208771,0,0
v_107.619173_-6.933202,Jalan Buah Batu,-6.9332024,107.6191727,0,0
v_107.615152_-6.928135,Jalan Cikawao,-6.928135,107.6151523,0,0
12626529706,Banceuy,-6.9187122,107.6066404,0,0
v_107.601403_-6.904652,Jalan Dokter Gunawan Mangunkusumo,-6.9046523,107.6014033,0,0
29357939,Junction 8 Sukajadi,-6.8840134,107.596703,0,0
v_107.598932_-6.884488,Jalan Cemara,-6.8844885,107.5989322,0,0
v_107.601580_-6.884516,Jalan Cemara,-6.8845161,107.60158,0,0
v_107.602431_-6.889762,Jalan Raden Adipati Aria Wiranatakusumah,-6.8897621,107.6024306,0,0
v_107.602573_-6.892041,Jalan Raden Adipati Aria Wiranatakusumah,-6.8920405,107.6025732,0,0
3376669085,Masjid Besar Cipaganti,-6.894782,107.602517,0,0
v_107.600589_-6.896135,Jalan Profesor Christiaan Eijkman,-6.8961348,107.6005885,0,0
v_107.598253_-6.895934,Jalan Profesor Christiaan Eijkman,-6.8959337,107.5982533,0,0
v_107.598570_-6.900207,Jalan Pasteur,-6.900207,107.5985704,0,0
v_107.603960_-6.912498,Jalan Cicendo,-6.9124977,107.6039597,0,0
v_107.597854_-6.896295,Jalan Sederhana,-6.8962946,107.597854,0,0
v_107.597397_-6.898625,Jalan Pasir Kaliki,-6.8986245,107.5973974,0,0
v_107.599138_-6.900205,Jalan Pasteur,-6.900205,107.5991384,0,0
v_107.597491_-6.901991,Jalan HOS. Cokroaminoto,-6.9019914,107.5974913,0,0
v_107.578868_-6.908543,Jalan Garuda,-6.9085429,107.578868,0,0
v_107.578181_-6.911097,Jalan Garuda,-6.9110965,107.5781807,0,0
v_107.577624_-6.913560,Jalan Garuda,-6.9135596,107.5776241,0,0
v_107.577108_-6.915829,Jalan Garuda,-6.9158293,107.5771079,0,0
v_107.575454_-6.917422,Jalan Jendral Sudirman,-6.9174221,107.5754537,0,0
v_107.570781_-6.917537,Jalan Raya Cijerah,-6.9175368,107.5707809,0,0
v_107.570031_-6.919776,Jalan Raya Cijerah,-6.9197761,107.570031,0,0
v_107.569116_-6.921845,Jalan Raya Cijerah,-6.921845,107.5691156,0,0
v_107.567908_-6.923863,Jalan Raya Cijerah,-6.9238625,107.5679081,0,0
3115995953,Cijerah,-6.927117,107.5648451,0,0
1387999370,Puskesmas Melong Asih,-6.9239311,107.5628736,0,0
v_107.566325_-6.925296,Jalan Raya Cijerah,-6.9252957,107.5663253,0,0
v_107.568025_-6.923628,Jalan Raya Cijerah,-6.9236278,107.5680252,0,0
v_107.569370_-6.921808,Jalan Raya Cijerah,-6.9218079,107.5693702,0,0
v_107.570070_-6.919636,Jalan Raya Cijerah,-6.9196362,107.5700698,0,0
v_107.570804_-6.917407,Jalan Raya Cijerah,-6.9174068,107.5708036,0,0
v_107.571327_-6.915115,Jalan Raya Cijerah,-6.9151148,107.5713267,0,0
v_107.577534_-6.913634,Jalan Rajawali Timur,-6.9136343,107.5775341,0,0
v_107.578684_-6.908831,Jalan Garuda,-6.9088312,107.5786836,0,0
v_107.580529_-6.907483,Jalan Abdul Rahman Saleh,-6.907483,107.5805286,0,0
v_107.583012_-6.907607,Jalan Abdul Rahman Saleh,-6.907607,107.5830117,0,0
v_107.585400_-6.907256,Jalan Abdul Rahman Saleh,-6.9072563,107.5854,0,0
v_107.597512_-6.903507,Jalan HOS. Cokroaminoto,-6.9035067,107.5975116,0,0
v_107.597384_-6.900901,Jalan HOS. Cokroaminoto,-6.9009013,107.5973841,0,0
v_107.597340_-6.898563,Jalan Pasir Kaliki,-6.8985629,107.5973395,0,0
v_107.598717_-6.894063,Jalan Sederhana,-6.8940629,107.5987172,0,0
v_107.597039_-6.893016,Jalan Sukajadi,-6.8930157,107.5970391,0,0
v_107.594863_-6.892371,Jalan Sukagalih,-6.8923714,107.5948625,0,0
v_107.592597_-6.892433,Jalan Sukagalih,-6.8924332,107.5925975,0,0
v_107.590379_-6.892933,Jalan Cipedes Selatan,-6.8929326,107.5903791,0,0
v_107.592577_-6.897571,Jalan Dr. Djunjunan,-6.8975709,107.5925774,0,0
v_107.569900_-6.889704,Jalan Gunung Batu,-6.889704,107.5698999,0,0
v_107.567449_-6.889406,Jalan Gunung Batu,-6.8894061,107.5674492,0,0
v_107.564867_-6.888851,Jalan Gunung Batu,-6.8888505,107.5648671,0,0
v_107.563478_-6.890658,Jalan Gunung Batu,-6.8906583,107.5634775,0,0
v_107.562197_-6.892530,Jalan Gunung Batu,-6.8925303,107.5621967,0,0
1666231924,Pangkalan Angkot Cimindi,-6.8953145,107.5602213,0,0
v_107.561809_-6.893567,Jalan Gunung Batu,-6.8935667,107.5618094,0,0
v_107.563008_-6.891400,Jalan Gunung Batu,-6.8913999,107.5630081,0,0
v_107.564165_-6.889446,Jalan Gunung Batu,-6.8894459,107.5641647,0,0
v_107.588040_-6.893183,Jalan Sukagalih,-6.8931831,107.5880398,0,0
v_107.590399_-6.893250,Jalan Sukagalih,-6.8932499,107.5903993,0,0
v_107.592568_-6.892429,Jalan Sukagalih,-6.8924285,107.592568,0,0
v_107.671302_-6.961950,Jalan Marga Cinta,-6.9619504,107.6713023,0,0
v_107.672748_-6.963724,Marga Cinta,-6.9637235,107.672748,0,0
v_107.676811_-6.961247,Jalan terdekat,-6.9612474,107.676811,0,0
v_107.677276_-6.958857,Jalan terdekat,-6.9588568,107.677276,0,0
v_107.677567_-6.956595,Jalan terdekat,-6.9565949,107.6775666,0,0
v_107.676396_-6.954179,Jalan terdekat,-6.9541791,107.6763963,0,0
v_107.676513_-6.951887,Jalan terdekat,-6.9518875,107.6765127,0,0
