stop_id,stop_name,stop_lat,stop_lon,location_type,wheelchair_boarding
10314211362,Padalarang,-6.8434759,107.4978557,0,0
7835804492,Gadobangkong,-6.8653045,107.5154562,0,0
3370786092,Cimahi,-6.8865383,107.5366775,0,0
3370786794,Cimindi,-6.8965475,107.5617886,0,0
3370786798,Ciroyom,-6.9140765,107.5913716,0,0
10312881283,Bandung,-6.9145291,107.6031495,0,0
1228645053,Cikudapateuh,-6.9190287,107.6268971,0,0
11549081619,Kiaracondong,-6.9254604,107.6474712,0,0
11549081662,Gedebage,-6.9411554,107.6905412,0,0
10694286157,Cimekar,-6.9492676,107.7129671,0,0
10693253652,Rancaekek,-6.9651313,107.7564447,0,0
10693478235,Haurpugur,-6.9808307,107.7998788,0,0
11407574339,Cicalengka,-6.9821908,107.8330738,0,0
11407574341,Cicalengka,-6.981035,107.8320912,0,0
6872615131,Haurpugur,-6.9802356,107.7983447,0,0
10693253653,Rancaekek,-6.9646056,107.7553737,0,0
10694286156,Cimekar,-6.9486453,107.7113976,0,0
11549081663,Gedebage,-6.940438,107.6888097,0,0
11549081621,Kiaracondong,-6.9247723,107.6456051,0,0
7835805289,Cikudapateuh,-6.9185947,107.625378,0,0
10694245344,Bandung,-6.9144562,107.6013653,0,0
10693460291,Ciroyom,-6.9139018,107.5896798,0,0
291546102,Cimindi,-6.8956811,107.5606244,0,0
11546259370,Cimahi,-6.8849429,107.5353528,0,0
3468494606,Gadobangkong,-6.8637207,107.514805,0,0
10693460257,Padalarang,-6.8424481,107.4968441,0,0
10693460258,Padalarang,-6.8424956,107.4968046,0,0
11755899803,Cicalengka,-6.980985,107.8321466,0,0
1227216840,Padalarang,-6.8423863,107.4969052,0,0
12063631330,Purwakarta,-6.553856,107.447082,0,0
10698966828,Ciganea,-6.5729485,107.4301051,0,0
10694595400,Sukatani,-6.6111493,107.4083066,0,0
10314211391,Plered,-6.6416537,107.3912649,0,0
10314211392,Cikadongdong,-6.715896,107.3913369,0,0
3448590009,Rendeh,-6.7365152,107.3993095,0,0
10694595345,Maswati,-6.760778,107.4093454,0,0
10694595317,Sasaksaat,-6.78052,107.4321188,0,0
11432455981,Cilame,-6.8036184,107.4645349,0,0
10314211366,Padalarang,-6.8435633,107.4980668,0,0
11874360196,Cicalengka,-6.9821038,107.8331166,0,0
9961298138,Nagreg,-7.0187312,107.8872319,0,0
535300018,Leles,-7.0849971,107.8998538,0,0
7206399183,Karangsari,-7.0988099,107.931297,0,0
10694286200,Leuwigoong,-7.1028395,107.9587146,0,0
10314211373,Cibatu,-7.0997162,107.9803328,0,0
9961235587,Pasirjengkol,-7.1291772,107.9922967,0,0
9961258726,Wanaraja,-7.1658406,107.9762771,0,0
10694286203,Garut,-7.2134006,107.9023164,0,0
11871903351,Garut,-7.2134704,107.905318,0,0
9961258724,Wanaraja,-7.1640756,107.9770777,0,0
10694286202,Pasirjengkol,-7.1273374,107.9925883,0,0
7205156020,Cibatu,-7.1002693,107.9787295,0,0
10694286201,Leuwigoong,-7.1038719,107.9575344,0,0
7206401686,Karangsari,-7.0974245,107.9308109,0,0
9961298076,Leles,-7.0838873,107.8997164,0,0
11874360195,Nagreg,-7.0178472,107.8854353,0,0
11432455980,Cilame,-6.8032048,107.4629178,0,0
10694595318,Sasaksaat,-6.7790843,107.4314942,0,0
3352316735,Maswati,-6.7608275,107.4080713,0,0
10694595366,Rendeh,-6.7359973,107.3978666,0,0
10314211393,Cikadongdong,-6.7151762,107.3903795,0,0
10314211390,Plered,-6.6402782,107.3913512,0,0
10698993414,Sukatani,-6.6105348,107.4086071,0,0
10698966829,Ciganea,-6.5737471,107.4309483,0,0
10698921283,Purwakarta,-6.5525636,107.4464512,0,0
3277886379,Terminal Leuwipanjang,-6.9458452,107.5932425,0,0
12626357384,Hotel Grand Pasundan,-6.9360768,107.5934112,0,0
12626357385,Bumi Kopo Kencana,-6.933574,107.5905268,0,0
12626357386,Festival Citylink,-6.9291184,107.5872624,0,0
12626357387,Simpang Pasir Koja,-6.9270511,107.5849563,0,0
12626357388,SPBU Pasir Koja,-6.9292122,107.5793217,0,0
12626357389,Hotel Soreang A,-7.0141236,107.5309483,0,0
12626357390,Mall Pelayanan Publik,-7.0206847,107.5292319,0,0
12626357392,Plaza Pemkab Bandung,-7.0234041,107.5303409,0,0
12626357393,Simpang Desa Soreang,-7.0287904,107.5287745,0,0
12626357394,Pasar Ikan Modern,-7.0305108,107.5412986,0,0
12626357395,RSUD Otto Iskandar Dinata,-7.0273253,107.5425246,0,0
12626357396,Samsat Soreang,-7.0218422,107.5416105,0,0
12626357397,Geo Dipa Energi,-7.0154748,107.5363125,0,0
12626357383,Hotel Soreang B,-7.0141857,107.530779,0,0
12626357398,Sumber Sari Junction,-6.9323901,107.576671,0,0
12626357399,Pasar Induk Caringin,-6.9419015,107.5831212,0,0
11295303565,Leuwipanjang Soekarno Hatta,-6.9468277,107.5934341,0,0
11955383183,IKEA Kota Baru Parahyangan,-6.8663512,107.4668097,0,0
12143596539,Wahoo Waterworld,-6.8655811,107.4654195,0,0
11955383184,Parahyangan Timur,-6.8663744,107.4712124,0,0
11955383185,Rumah Sakit Cahaya Kawaluyaan,-6.8665328,107.4734039,0,0
11955383187,Masjid Al Irsyad,-6.8648529,107.4783521,0,0
11955383188,Tatar Wangsakerta A,-6.8619949,107.4805786,0,0
11955383190,Bale Pare A,-6.8568342,107.4897438,0,0
11536873492,Stasiun Kereta Cepat Padalarang,-6.8428228,107.4966418,0,0
11953710372,STEI LPPM A,-6.8573652,107.4986651,0,0
5287090695,RS Karisma Cimareme A,-6.8629469,107.5028237,0,0
5348536065,RS IMC A,-6.8633262,107.5098225,0,0
9908476904,Masjid Ar Ridwan A,-6.8675906,107.5190095,0,0
11954137035,Padasuka Indah A,-6.8685422,107.5263898,0,0
11954137037,Ranca Belut A,-6.8688013,107.5319386,0,0
11954137039,PLN Cisangkan A,-6.8704221,107.5363908,0,0
10680256969,BRI Cimahi,-6.8748788,107.5442734,0,0
11954552709,RSUD Cibabat A,-6.8797123,107.5503819,0,0
11954552711,Dinas Sosial,-6.8859958,107.5542851,0,0
11954552713,Jalan Budi,-6.8921818,107.5580359,0,0
11954552722,SMAN 13 Bandung A,-6.9033346,107.5648032,0,0
1666364135,Paledang,-6.905851,107.5663258,0,0
11711326971,Rajawali Barat,-6.9109306,107.5701462,0,0
11711326972,Plaza Telkom Rajawali,-6.9129722,107.5753653,0,0
11735239264,Rajawali 1,-6.9137773,107.5781901,0,0
11735239266,Dunguscariang,-6.9149105,107.5828928,0,0
11735239268,SMA Trinitas,-6.9165436,107.5917121,0,0
11735248671,Rumah Sakit Kebon Jati,-6.9163694,107.5966005,0,0
11735248674,SMA Pasundan,-6.9162422,107.599627,0,0
11711326974,Perintis Kemerdekaan,-6.9140241,107.607935,0,0
1849525838,Lembong,-6.916445,107.609811,0,0
11711275743,Alun-Alun Bandung,-6.9211653,107.6071455,0,0
11711275750,KEB Hana Bank,-6.9205571,107.6020569,0,0
11711275748,GKI Anugerah,-6.9200243,107.597515,0,0
11711275755,Mayapada Tower,-6.9193345,107.591747,0,0
11711275757,Toko Ambon,-6.9186067,107.5855198,0,0
11711275763,Kemenag Kanwil Jabar,-6.9176018,107.5771136,0,0
2604179157,Optik Krida,-6.9155598,107.5720549,0,0
11711326969,Sudirman 3,-6.9115004,107.5696333,0,0
11954552729,Kebon Kopi,-6.9063062,107.5664877,0,0
11954552723,SMAN 13 Bandung B,-6.9033981,107.5647281,0,0
11954552712,Cilembar,-6.8923353,107.5579997,0,0
11954552710,RS Mitra Kasih,-6.8837408,107.5528472,0,0
10680256973,RSUD Cibabat B,-6.8796404,107.5503366,0,0
10680256972,SMPN 6 Cimahi,-6.8772766,107.5452289,0,0
10680256971,Gedung 4,-6.8799337,107.5417036,0,0
11954552707,Buana,-6.8759934,107.5406762,0,0
10680256963,PLN Cisangkan B,-6.8704594,107.5364884,0,0
10680256961,Ranca Belut B,-6.8687794,107.531878,0,0
10680256959,Padasuka Indah B,-6.8684195,107.5260715,0,0
11953710374,Masjid Ar Ridwan B,-6.8676288,107.5191264,0,0
10680256956,RS IMC B,-6.8634203,107.5100491,0,0
10680256954,RS Karisma Cimareme B,-6.8630015,107.502934,0,0
11953710371,STEI LPPM B,-6.8574856,107.4986734,0,0
10680256950,Bale Pare B,-6.8567205,107.4901266,0,0
11955383189,Tatar Wangsakerta B,-6.8612441,107.4815775,0,0
12143596541,Parahyangan Utara B,-6.865168,107.4782844,0,0
11955383186,Tatar Pitaloka (Parahyangan Selatan),-6.8665457,107.4738005,0,0
11871901023,Baleendah,-7.0067058,107.6261375,0,0
2477247661,Masjid Al-Amanah,-7.0059605,107.6287137,0,0
12626499677,Matahari Land,-7.0040341,107.6312603,0,0
12626499678,Masjid Jami' Baitul Huda A,-7.0002118,107.6318753,0,0
12626499680,Bubur Ayam H. Amid,-6.9946948,107.6308112,0,0
12626499683,Borma Bojongsoang,-6.984586,107.6330944,0,0
12626499685,SD Negeri Lengkong,-6.9763963,107.6352127,0,0
12626499686,Puskesmas Bojongsoang,-6.9676213,107.6374709,0,0
12626499690,Bluebird A,-6.9576866,107.639482,0,0
35138340,Pasar Kordon A,-6.9541863,107.638933,0,0
12626499693,JAPNAS,-6.9512022,107.6364761,0,0
2614138793,Medal Sekarwangi,-6.9484371,107.6323136,0,0
12626499697,Bangunan Mart A,-6.9494451,107.6281496,0,0
12626499700,LPKIA A,-6.9495008,107.6242225,0,0
3384018111,PT LEN Industri A,-6.9490929,107.6190348,0,0
12626529703,PLN UP3 Bandung A,-6.9485877,107.612094,0,0
11739021648,TK Kemala Bhayangkari,-6.9453744,107.608407,0,0
11707031622,Sekolah Ganesha,-6.9390693,107.6063015,0,0
5355897678,Taman Tegalega 3,-6.9365596,107.6062815,0,0
11883812981,SDN Moh. Toha,-6.9301452,107.6067877,0,0
12626529705,ITC Kebon Kalapa,-6.926739,107.6059915,0,0
11898859975,Grand Yogya Kepatihan,-6.9238597,107.606261,0,0
12626529706,Banceuy,-6.9187122,107.6066404,0,0
11262097619,Stasiun Timur,-6.9153572,107.604546,0,0
293384756,Stasiun Bandung,-6.9125954,107.6029303,0,0
11739021629,SMAN 6 Bandung,-6.9114098,107.5979188,0,0
11138593915,SDN Pajajaran,-6.906861,107.599992,0,0
11739021630,STHB (Sekolah Tinggi Hukum Bandung),-6.9064803,107.6044125,0,0
5825243776,Bandung Electronic Center,-6.9081456,107.6093744,0,0
3376669066,Museum Kota Bandung,-6.9101076,107.6097021,0,0
11739021637,Merdeka,-6.9125343,107.6104548,0,0
11739021639,Toko Mas ABC,-6.9230192,107.6039434,0,0
11739021641,Simpang Ijan,-6.9280445,107.6036329,0,0
11739021644,Taman Tegallega,-6.9339734,107.603223,0,0
11707031623,Muhammad Toha 1 (PT INTI A),-6.939027,107.6062885,0,0
11739021649,Madurasa Tengah,-6.945205,107.6083491,0,0
3272360374,PLN UP3 Bandung B,-6.9484924,107.6121553,0,0
3384018110,PT LEN Industri B,-6.9489877,107.619152,0,0
12626499699,LPKIA B,-6.9494301,107.6248137,0,0
12626499698,Bangunan Mart B,-6.9493306,107.6280918,0,0
12626499695,Taman Buah Batu,-6.9484693,107.6339239,0,0
12626499694,Swadarma BNI,-6.9503784,107.6357751,0,0
12626499692,Pasar Kordon B,-6.9534876,107.6387006,0,0
12626499689,Bluebird B,-6.9584038,107.6394982,0,0
12626499688,Puskesmas Kujangsari B,-6.9649573,107.6381038,0,0
12626499687,Transmart Buahbatu,-6.9671846,107.6375686,0,0
549740249,Permata Buah Batu,-6.9729226,107.6361478,0,0
11950910945,Podomoro,-6.9749692,107.6355974,0,0
12626499684,AHASS,-6.981957,107.6339127,0,0
12626499682,Griya Bandung Asri,-6.9857289,107.6328659,0,0
12626499681,Alfamart SPBU Bojongsoang,-6.9914167,107.6316525,0,0
12626499679,Masjid Jami' Baitul Huda B,-7.0002949,107.6318593,0,0
2477247659,Apotek K24,-7.0054785,107.6309071,0,0
12626499675,KEJARI Bale Bandung,-7.0059629,107.6235977,0,0
12626499676,RS Al-Ihsan,-7.0074774,107.6243131,0,0
3277886365,Terminal Leuwipanjang,-6.9458124,107.5932469,0,0
11739021652,Rumah Sakit Immanuel A,-6.9372267,107.5956524,0,0
11739021646,Taman Tegallega,-6.9365059,107.6030596,0,0
11739021654,Pintu Masuk Terminal Tegallega,-6.9338521,107.6024577,0,0
6443280171,Astana Anyar RSIA Kota Bandung,-6.9293977,107.600717,0,0
1013407725,Stasiun Hall,-6.9161478,107.6024001,0,0
11739064594,SMK Negeri 1 Bandung,-6.9130013,107.609039,0,0
11739021634,Riau XL,-6.9068537,107.6096165,0,0
10653503633,Hotel The-One-O-One A,-6.9065022,107.6105556,0,0
10778322183,Taman Radio A,-6.9024821,107.6115254,0,0
11104718108,Kartikasari A,-6.8975185,107.6127786,0,0
11104669204,Rumah Sakit Santo Borromeus A,-6.8944643,107.6129302,0,0
11739021656,Masjid Baiturrahman,-6.8866267,107.6149671,0,0
11707030824,UNPAD Dipatiukur (4D),-6.8923055,107.6177764,0,0
11104718106,Rumah Sakit Santo Borromeus B,-6.8948263,107.6134343,0,0
10778322181,Kartikasari B,-6.897514,107.6128416,0,0
10778322182,Taman Radio B,-6.9025069,107.6115838,0,0
10653503634,Hotel The-One-O-One B,-6.9065902,107.6106208,0,0
11739021633,Bandung Indah Plaza,-6.9088887,107.610623,0,0
11735248675,Bank Indonesia,-6.9145426,107.608993,0,0
29354702,Pasar Baru,-6.9164303,107.6044519,0,0
10778322188,Dalem Kaum,-6.9219758,107.6040142,0,0
11739021642,Jalan Ibu Inggit Garnasih,-6.9314959,107.6039218,0,0
11739021647,Pasar Tegalega,-6.9368241,107.6062604,0,0
10815723012,Simpang Mohamad Toha Biddokkes,-6.9375586,107.6055097,0,0
11739021653,Rumah Sakit Immanuel B,-6.9372977,107.5955421,0,0
3375793673,UNPAD Dipatiukur,-6.8934568,107.6180361,0,0
11707030826,Panatayudha A,-6.8979225,107.6161542,0,0
1666155324,Lapangan Gasibu A,-6.9011743,107.6199195,0,0
11707030829,PUSDAI A,-6.9010661,107.6241876,0,0
11707030832,SMPN 14 Bandung (Lapangan Supratman A),-6.9080655,107.6301163,0,0
1107694939,Taman Pramuka,-6.9106475,107.6274766,0,0
3375793687,Hotel Grand Tebu,-6.9130163,107.6288644,0,0
11707030860,Bandung Creative Hub A,-6.9183624,107.6313457,0,0
7702036194,Hotel Horison A,-6.9343354,107.6252887,0,0
5487616737,Simpang By Pass Soekarno Hatta A,-6.9473728,107.6090862,0,0
11711185184,SPBU Moh. Toha,-6.954618,107.6115168,0,0
11711185187,Cileunyi A,-6.9410603,107.7541846,0,0
1966499313,IPDN A,-6.9356267,107.7652049,0,0
10697346845,UNPAD Jatinangor,-6.932299,107.7732376,0,0
11711185243,Jatinangor Town Square,-6.933968,107.7712431,0,0
5867026762,IPDN B,-6.9357446,107.7651014,0,0
11711185188,Cileunyi B,-6.9426257,107.7557736,0,0
11711185185,Jalan Haji Tatang Sumantri,-6.9547392,107.6115567,0,0
11707031627,Simpang By Pass Soekarno Hatta B,-6.9483342,107.6087518,0,0
11707031601,PT INTI B (BKR 5),-6.9375463,107.6067624,0,0
11707031579,Hotel Horison B,-6.9343038,107.6251981,0,0
11707030859,Bandung Creative Hub B,-6.9184177,107.6312506,0,0
11955476811,SPBU Ahmad Yani,-6.9129263,107.6339654,0,0
11707030833,SDN 062 Ciujung Bandung (Lapangan Supratman B),-6.907261,107.6297079,0,0
11707030828,PUSDAI B,-6.9011517,107.6241682,0,0
11707030827,Lapangan Gasibu B,-6.9012501,107.6201283,0,0
11707030825,Panatayudha B,-6.8979434,107.6161572,0,0
12628901396,SDN Babakan Tarogong,-6.9384872,107.594148,0,0
12628930762,Muara A,-6.9371534,107.6020331,0,0
12628930746,Palasari Radio,-6.9742063,107.6181453,0,0
12628930749,Zipur Dayeuhkolot,-6.9861797,107.624845,0,0
12628930752,Pasar Baleendah A,-6.9989678,107.6316216,0,0
12628930755,Bumi Siliwangi,-7.0100016,107.6397222,0,0
2459057875,Terminal Ciparay,-7.0357328,107.713347,0,0
12628930760,Terminal Majalaya,-7.0477372,107.7601852,0,0
12628930757,Giriharja Jelekong,-7.020725,107.6563884,0,0
12628930753,Pasar Baleendah B,-6.9990175,107.6316458,0,0
305891851,Palasari Ceres,-6.9719753,107.6173961,0,0
35131593,Bundaran Cibiru,-6.9352673,107.7175908,0,0
12806516349,Panyileukan,-6.9357289,107.7121547,0,0
12806516346,Cimincrang,-6.9361475,107.7064226,0,0
12806516345,Shakti,-6.936831,107.6970872,0,0
12806516344,Barat Simpang Gedebage,-6.9372117,107.6918125,0,0
12806868621,SMKN 6 Bandung,-6.9380944,107.6794141,0,0
12806868622,Cipamokolan,-6.9382789,107.6768401,0,0
12806868623,Aria Graha,-6.9385626,107.6729122,0,0
3375689668,RS Al Islam,-6.9388175,107.6692698,0,0
12806868625,Metro,-6.93901,107.6665574,0,0
12806868626,Rancabolang,-6.9392635,107.6633094,0,0
12806868627,SMKN 7 Bandung,-6.939893,107.6598099,0,0
12806868632,Gagak Rimang,-6.9400797,107.6590642,0,0
3272226033,Metro Indah Mall,-6.9403972,107.6580268,0,0
12806868633,BPN Kanwil Jabar,-6.9406892,107.6570876,0,0
12806851397,Cidurian Selatan,-6.9420012,107.6529256,0,0
12806868637,Kantor Pos Sekejati,-6.9427159,107.6506763,0,0
12806868639,Disnaker Jabar,-6.944058,107.646481,0,0
12806868640,UNINUS,-6.9448492,107.6441008,0,0
12806868670,Tenth Avenue,-6.9458361,107.6408496,0,0
12806868674,Sekelimus Tengah,-6.9466415,107.6381159,0,0
12806868677,Sekelimus Barat,-6.9475072,107.6353065,0,0
12808867752,STIE Inaba,-6.9493807,107.6227995,0,0
12808867754,Mengger Girang,-6.9490185,107.6180229,0,0
12808867758,Ampera Soekarno Hatta,-6.9480749,107.6050974,0,0
12808867763,Karasak Lama,-6.9478683,107.6021954,0,0
3277891129,Seberang Terminal Leuwipanjang,-6.9469193,107.592997,0,0
12633822769,Pasar Caringin,-6.9419021,107.5829792,0,0
12808867766,Griya Sumbersari,-6.9325102,107.5766013,0,0
12808867768,Holis 2,-6.9248687,107.5750983,0,0
11954573590,Batas Kota,-6.9109035,107.569361,0,0
12627968405,Terminal Elang,-6.9135373,107.5755571,0,0
12808867767,Holis 1,-6.9252035,107.575247,0,0
12808867765,Sumbersari 1,-6.9313117,107.5763049,0,0
12808867764,Simpang Caringin,-6.9434372,107.5850407,0,0
12808867762,Inhoftank,-6.9478017,107.6022466,0,0
12808867760,Seberang Ampera Soekarno Hatta,-6.9479853,107.6051379,0,0
12808867756,Karasak Utara,-6.9480912,107.6067107,0,0
12806868676,Griya Hemat,-6.9474943,107.6348946,0,0
12806868672,Sekelimus Utara,-6.9464022,107.638444,0,0
5825209951,Simpang Samsat Kiaracondong,-6.9450226,107.6428119,0,0
12806851389,STT Mandala,-6.944662,107.6438888,0,0
12806851390,SMK Medika Com,-6.9438278,107.6464874,0,0
12806851392,Unibi,-6.9425403,107.6505153,0,0
12806851396,Cidurian Utara,-6.941787,107.6528692,0,0
12806851393,SMKN 9 Bandung,-6.9405212,107.6569119,0,0
3375689664,Jasa Raharja Jabar,-6.9400924,107.6582639,0,0
12806851400,Suparma,-6.9395718,107.6601512,0,0
12806868601,Kawaluyaan,-6.9390207,107.6635594,0,0
12806868603,Sanggar Hurip,-6.938728,107.6672726,0,0
12806868618,Cisaranten Kulon,-6.9379974,107.6775339,0,0
12806868620,KPP Pratama Cicadas,-6.9378628,107.6794352,0,0
12814754658,Depan Pasar Gedebage,-6.9365674,107.6973063,0,0
12806516348,Universitas Bhakti Kencana,-6.9356286,107.7099558,0,0
6460801785,Terminal Cicaheum,-6.902329,107.6565637,0,0
11735248707,BCA Cimuncang,-6.9060351,107.6483165,0,0
11735248706,Gateway Cicadas,-6.9072816,107.6459395,0,0
3248969440,BTM,-6.911388,107.6434825,0,0
11735248700,Flyover Antapani,-6.9138756,107.6429791,0,0
3375793691,WUJ Jalan Banten,-6.9142036,107.6399016,0,0
11735248701,STMIK,-6.9144188,107.6381956,0,0
11735248702,GOR KONI,-6.9146627,107.6362469,0,0
11735248692,IBCC,-6.9142791,107.6327884,0,0
11735248690,Stadion Persib Sidolig,-6.9161976,107.6292904,0,0
5391666905,Cikudapateuh,-6.9186929,107.6245415,0,0
11735248683,Kantor Pos Kosambi,-6.9192144,107.6235031,0,0
3277420346,Seberang Pasar Kosambi,-6.9199617,107.6220644,0,0
11735248705,Ketapang,-6.921143,107.619848,0,0
11735248710,Asia Afrika,-6.9222132,107.61585,0,0
11735248711,Gedung Keuangan Negara/KM 0,-6.921618,107.6110406,0,0
11735248713,Simpang Sudirman,-6.9207677,107.6038238,0,0
11735248714,Sukamanah,-6.9195734,107.5937417,0,0
11735248716,Simpang Jamika,-6.9188238,107.5874451,0,0
11954573588,SDN Raya Barat,-6.9181852,107.5819763,0,0
11711326973,Terminal Elang,-6.9133498,107.575723,0,0
1911635044,Yayasan LPPN,-6.9157549,107.5853751,0,0
25434237,GKI Kebonjati,-6.916282,107.5988546,0,0
10801865379,Telkom Lembong,-6.9170839,107.6111029,0,0
11735248678,RSU Bungsu,-6.9182518,107.6132908,0,0
11735248679,Pasar Kosambi,-6.9199012,107.6221779,0,0
11735248685,Segitiga Mas,-6.9179222,107.6258605,0,0
11735248686,Jaya Plaza,-6.9174142,107.6268373,0,0
11735248689,Dinas Pendidikan Kota Bandung,-6.9164526,107.6287225,0,0
5391666887,Jalan Mangga,-6.9151724,107.6310524,0,0
11735248691,Sekolah Agustinus,-6.9140574,107.6332108,0,0
3375793690,A.Yani Supratman,-6.9133253,107.6345966,0,0
11735248693,Cikaso,-6.9119025,107.637255,0,0
11735248694,Awi Bitung,-6.9106533,107.6396001,0,0
11735248708,Cimuncang,-6.9050722,107.650154,0,0
5832221935,Seberang Terminal Cicaheum,-6.9021302,107.6567969,0,0
5832221930,Cimuncang,-6.9016812,107.6490533,0,0
12628835706,Cikutra,-6.8997726,107.6426735,0,0
12628835704,Sukasenang Raya 1,-6.8984698,107.6371799,0,0
12628835703,BKKBN,-6.8982473,107.6324886,0,0
5832220641,SMPN 63 Kota Bandung,-6.8998537,107.6293496,0,0
12628813999,Wisma BKN,-6.89924,107.6222912,0,0
12628813996,Cikapayang Dago 1,-6.8990335,107.6120546,0,0
12628813994,Griya Pasteur 1,-6.8950796,107.5884432,0,0
12628813991,Warung Cepot,-6.8923414,107.5832389,0,0
3384993309,Maranatha,-6.8859263,107.5813607,0,0
12628813987,Lemahneundeut,-6.8813034,107.5787258,0,0
12628813989,Sarimanah,-6.8814266,107.5764264,0,0
12628813986,Sarijadi,-6.8816653,107.578425,0,0
12628813990,Setrasari,-6.8821984,107.5814944,0,0
12013144935,Mall d'Botanica,-6.8925604,107.5849478,0,0
12628813992,Griya Pasteur 2,-6.8948914,107.5883918,0,0
12628813995,Tamansari Cikapayang,-6.8982089,107.610121,0,0
5832170587,Cikapayang Dago 2,-6.898852,107.6135004,0,0
1660289593,Gasibu,-6.8992842,107.6179657,0,0
12628813998,Distan Jabar,-6.8992307,107.6227599,0,0
12628814000,Dapen Telkom,-6.8998503,107.6285873,0,0
12628835702,Jalaprang,-6.8983546,107.6321413,0,0
12013144934,ITENAS,-6.8982483,107.6362093,0,0
5832220656,Sukasenang Raya 2,-6.8984458,107.6370787,0,0
12628835705,Sekolah Pribadi,-6.8992417,107.6404383,0,0
5832221887,Sukapada,-6.9000256,107.6439328,0,0
12628835709,Surapati Core,-6.9018908,107.6525276,0,0
10693001605,Terminal Leuwipanjang,-6.9459075,107.5932351,0,0
12806765746,Taman Tegalega/Sri Baduga,-6.9373001,107.6037009,0,0
3445680780,Samsudin,-6.9375959,107.6083051,0,0
12808948210,Patung Ikan,-6.937657,107.610179,0,0
3272575985,BKR Buah Batu,-6.9365872,107.6231054,0,0
12809462424,Kangkung Kaler,-6.9308456,107.6260901,0,0
3375794694,DPRD Kota Bandung,-6.916856,107.6342682,0,0
3476292190,Dishub Jabar,-6.9181019,107.6324739,0,0
12809462425,Seberang Kangkung Kaler,-6.9308642,107.6261794,0,0
12808948211,Simpang Buah Batu BKR,-6.9373473,107.6222364,0,0
3376171471,Masjid An Nur PT INTI,-6.9376849,107.6084233,0,0
12806765747,Muara,-6.9374746,107.5999005,0,0
12809603991,RSUD Bandung Kiwari,-6.9430856,107.5913003,0,0
12809462429,RSIA Grha Bunda,-6.9134024,107.6455398,0,0
2493372403,Borma Antapani,-6.9129025,107.6495005,0,0
12809462431,Stikes Dharma Husada,-6.9127456,107.6507427,0,0
302241143,bjb Antapani,-6.9123839,107.6538136,0,0
11735248698,Depan Terminal Antapani,-6.9149741,107.6658807,0,0
3378630365,Seberang Borma Antapani,-6.9130091,107.6492727,0,0
12947493617,Seberang Hotel Grand Tebu,-6.9133503,107.6290686,0,0
3376430783,Tugu Tunas Taman Pramuka,-6.9105422,107.6265596,0,0
12947493616,Riau Aceh,-6.9097089,107.6256861,0,0
12809507149,bjb Riau,-6.9092859,107.6252606,0,0
12947493614,HKBP Riau,-6.9086974,107.624592,0,0
12809507147,Riau Cihapit,-6.9081445,107.623898,0,0
12809507143,Pengadilan Negeri Bandung,-6.9063102,107.6220332,0,0
12947493613,De Pavilijoen,-6.9058792,107.6207244,0,0
12947493612,Sekolah Taruna Bakti,-6.9060981,107.6183784,0,0
3375794699,Simpang Banda Riau,-6.9063138,107.6159699,0,0
12825997245,Hotel Santika,-6.9070669,107.6119393,0,0
3376669065,Taman Sejarah Balai Kota Bandung,-6.9103764,107.6106101,0,0
12806120224,SDN Merdeka 5,-6.915607,107.610154,0,0
3374033500,Tamblong,-6.9189576,107.6123364,0,0
12809269114,Seberang SMAN 4 Bandung,-6.9194582,107.5983096,0,0
12809274346,Masjid Al-Ukhuwwah,-6.9111612,107.6090912,0,0
12809274348,Wastukencana Purnawarman,-6.9088722,107.6079826,0,0
3269294966,Abdul Rivai,-6.904381,107.6038123,0,0
1700556149,Taman Westhoff,-6.9010192,107.5982442,0,0
12809082539,Djunjunan Paskal,-6.9003956,107.5968191,0,0
12809283847,SDN Sukaraja,-6.8914927,107.5786575,0,0
1396428138,Simpang Dakota,-6.8935189,107.5726156,0,0
12809283844,Borma Dakota,-6.8908761,107.572217,0,0
12809283842,Mentor,-6.889704,107.5698999,0,0
3250402136,Gunung Batu,-6.8875315,107.5672467,0,0
2317306703,Seberang Gateway Pasteur,-6.8893002,107.566898,0,0
1658426541,BPJS Pasteur,-6.8922539,107.5829072,0,0
2958261155,Djundjunan 3,-6.8929291,107.5856805,0,0
12809237524,GKI Pasteur,-6.9002045,107.6027269,0,0
12809237525,Linggawastu,-6.9039986,107.605369,0,0
3376669071,Pasar Kembang Wastukencana,-6.9048943,107.607265,0,0
12809237527,Pajajaran Timur,-6.9071527,107.6047535,0,0
3376669069,Kimia Farma,-6.9077123,107.6044661,0,0
12806120204,Haji Mesri,-6.9124771,107.6007223,0,0
3272722527,Simpang Gedebage Selatan,-6.9377585,107.6925095,0,0
11730486996,Summarecon Mall Bandung,-6.955658,107.6992029,0,0
4608003593,Terminal Leuwipanjang,-6.9458755,107.5932396,0,0
12806765749,Simpang Astanaanyar Pasirkoja,-6.9263959,107.5997325,0,0
12809227879,Jalan Haji Safari,-6.9247939,107.5991575,0,0
12806765750,Karanganyar,-6.9226401,107.598583,0,0
12806765752,Cibadak Astanaanyar,-6.9209178,107.5984181,0,0
3640664489,Paskal Hypersquare,-6.9155623,107.5981241,0,0
12806120202,SDN 013 Pajajaran,-6.9081059,107.5976849,0,0
5639376088,Garunggang Kulon,-6.8989275,107.5973503,0,0
12825997250,SPBU Paskal,-6.8979069,107.5973197,0,0
29357744,Cibarengkok,-6.8960662,107.5972487,0,0
29357741,Sukagalih PVJ,-6.8913554,107.596952,0,0
1746711065,Polsek Sukajadi,-6.8878725,107.5967776,0,0
3380200149,Mandiri Sukajadi,-6.8836453,107.5965088,0,0
3376673098,Sukawangi,-6.8780655,107.596246,0,0
12825997252,Gereja Santo Laurentius,-6.8756034,107.5960887,0,0
12809082550,SMPN 15 Bandung,-6.8739356,107.5957592,0,0
12809046293,Gegerkalong Girang,-6.8653206,107.594077,0,0
3376673106,Museum Pendidikan Nasional UPI,-6.8600369,107.594757,0,0
11711070002,Terminal Ledeng,-6.85933,107.5951942,0,0
12809046289,Poltekpar NHI,-6.8682279,107.5936817,0,0
3376673102,Simpang Gegerkalong Hilir,-6.8693537,107.5935629,0,0
3376673100,Borma Setiabudhi,-6.8746244,107.5962411,0,0
3376669085,Masjid Besar Cipaganti,-6.894782,107.602517,0,0
12809082541,Paskal RSHS,-6.8982378,107.5973829,0,0
12013198354,Terminal Elang,-6.9144895,107.5753136,0,0
6473170574,Pasar Cileunyi,-6.9404081,107.7537453,0,0
10771913963,Gerbang IPDN Jatinangor,-6.9358995,107.7642048,0,0
12013198353,UNPAD Jatinangor,-6.9323545,107.7732585,0,0
3476277701,Damri Unpad Jatinangor,-6.9316463,107.7758563,0,0
10771913964,Seberang Gerbang IPDN Jatinangor,-6.9361566,107.7636862,0,0
1935454988,Terminal Tanjungsari,-6.9079951,107.7959097,0,0
2744242982,Pasirluyu Selatan/Sukaati,-6.9492577,107.6214461,0,0
12808912264,Pos Banceuy,-6.9205454,107.6065186,0,0
1956195997,Jalan Jati,-6.9262285,107.6125973,0,0
3376282080,Banteng Sadakeling,-6.9316133,107.6183599,0,0
1982390333,SMK Medina,-6.931384,107.619075,0,0
2250581874,GOR Lodaya,-6.9317067,107.6203316,0,0
12808948214,Selontongan,-6.9402599,107.625925,0,0
12808948215,Kliningan Buahbatu,-6.9426596,107.6282283,0,0
12806516353,SDN 050 Cibiru,-6.9342906,107.7215528,0,0
12823636734,Rumah Sakit Murni Teguh,-6.9208368,107.6159966,0,0
12806309242,SDN Cikadut,-6.9040466,107.6656526,0,0
12806309246,Gang H.M. Syarief,-6.9044513,107.6718533,0,0
12806309248,Borma Pasirimpun,-6.904729,107.6759315,0,0
11047579524,UPTD Laboratorium Lingkungan Hidup,-6.9074116,107.6864696,0,0
12806516361,SDN Ciporeat,-6.9173978,107.7061287,0,0
12806516359,Seberang Borma Cipadung,-6.9261531,107.7108057,0,0
12806516356,SDN Cipadung,-6.9316908,107.7137735,0,0
35131607,UIN SGD/Cipadung,-6.9323756,107.7157532,0,0
12014389702,Pangkalan DAMRI Cibiru,-6.9335177,107.7163132,0,0
12806516354,Seberang UIN Sunan Gunung Djati,-6.9324655,107.7158334,0,0
12806516357,Borma Cipadung,-6.9265281,107.7108912,0,0
2477149675,SDN Andir Kidul,-6.9136497,107.6955657,0,0
12806309257,Seberang SMAN 24 Bandung,-6.9084047,107.6881997,0,0
11047579523,Pusjatan,-6.907525,107.6867495,0,0
3251007173,Gerbang Pusjatan,-6.907087,107.6856912,0,0
12806309250,Seberang Borma Pasirimpun,-6.9047223,107.6758598,0,0
35135540,Lapas Sukamiskin,-6.9046182,107.6750064,0,0
12806309247,Komplek Sarimas,-6.9046989,107.672335,0,0
12888147067,Flyover KBP,-6.8529876,107.4941137,0,0
12390565460,Ratnasasih,-6.8689266,107.4688418,0,0
12888177149,BTD,-6.8724813,107.4678358,0,0
5509730969,Tatar Subanglarang,-6.8818457,107.4554476,0,0
11489094686,Kamandaka,-6.8716903,107.4660366,0,0
11489094682,Jingganagara,-6.8724249,107.4692856,0,0
11489094684,CBCS/BAIS,-6.8686557,107.4687526,0,0
12881302236,Timur IKEA Kota Baru Parahyangan,-6.8673805,107.4687013,0,0
12825997248,Taman Vanda,-6.9139284,107.6099856,0,0
3374033509,Terminal Abdul Muis/Kebon Kalapa,-6.9276265,107.6058121,0,0
12808948222,SMPN 43 Bandung,-6.9257801,107.6066649,0,0
12808948220,Pasundan,-6.9278672,107.608899,0,0
virtual_107.6118_-6.9307,Jalan terdekat,-6.930737966666666,107.61179006666666,0,0
virtual_107.6145_-6.9324,Jalan terdekat,-6.932398333333333,107.61451456666667,0,0
12806120217,Unla,-6.9311439,107.6158192,0,0
3375103664,Lauk Emas,-6.9302033,107.6164624,0,0
12806537958,Yayasan Kemala Bhayangkari,-6.9318636,107.6221815,0,0
virtual_107.6245_-6.9319,Jalan Lodaya,-6.9318518,107.6244842,0,0
virtual_107.6258_-6.9326,Jalan Raden Adipati Aria Martanegara,-6.9325851,107.6258197,0,0
virtual_107.6282_-6.9333,Jalan Raden Adipati Aria Martanegara,-6.9333101,107.6282092,0,0
11042827767,Riau Martanegara,-6.9342443,107.6326798,0,0
virtual_107.6341_-6.9340,Jalan Turangga,-6.9339893,107.6340607,0,0
12981961718,Seberang STIE Pasundan,-6.9321597,107.6348134,0,0
virtual_107.6354_-6.9298,Jalan terdekat,-6.9298477,107.6353994,0,0
12981961719,SD Kartika X-1,-6.9274337,107.6355011,0,0
11365366019,Trans Studio Mall,-6.9280668,107.6367954,0,0
virtual_107.6405_-6.9308,Jalan terdekat,-6.93078835,107.64054915,0,0
virtual_107.6439_-6.9298,Jalan H. Ibrahim Adjie,-6.9298097,107.6439317,0,0
virtual_107.6444_-6.9270,Jalan terdekat,-6.9269618,107.6444438,0,0
12806853451,Seberang Griya Kiaracondong,-6.9220961,107.6442877,0,0
12806853452,Daese Garmin,-6.9194414,107.6441456,0,0
12806853456,Gerbang Timur Kiara Artha Park,-6.9161586,107.6438444,0,0
virtual_107.6341_-6.9130,Jalan Layang Ahmad Yani - Supratman,-6.9129877,107.6340779,0,0
12811695428,Supratman 1,-6.9101794,107.6321776,0,0
2519917307,Pussenif,-6.9078314,107.6306426,0,0
5841989829,Muararajeun Baru,-6.9060357,107.6305171,0,0
virtual_107.6330_-6.9030,Jalan Brigjend. Katamso,-6.9030314,107.6329526,0,0
virtual_107.6347_-6.9021,Jalan Brigjend. Katamso,-6.9021409,107.6346604,0,0
12819917452,Seberang Griya Pahlawan,-6.9002535,107.634226,0,0
virtual_107.6340_-6.8984,Jalan terdekat,-6.8983766,107.63403505,0,0
12806309238,STIE Ekuitas,-6.8986302,107.6378565,0,0
virtual_107.6422_-6.8997,Jalan PH. H. Mustofa,-6.8996594,107.6421976,0,0
virtual_107.6454_-6.9005,Jalan terdekat,-6.9004686,107.64542695,0,0
virtual_107.6472_-6.9013,Jalan terdekat,-6.9013424,107.64718984999999,0,0
virtual_107.6500_-6.9017,Jalan terdekat,-6.90174955,107.64997142499999,0,0
11291524413,Terminal Angkot Cicaheum,-6.9024172,107.6562486,0,0
5832221932,Padasuka,-6.9019865,107.6536878,0,0
virtual_107.6522_-6.9019,Jalan terdekat,-6.90187375,107.65224524999999,0,0
virtual_107.6462_-6.9008,Jalan PH. H. Mustofa,-6.9008434,107.6461914,0,0
12814754615,Sukapada 2,-6.9001599,107.6446782,0,0
virtual_107.6436_-6.8984,Jalan terdekat,-6.89840754,107.64358638,0,0
virtual_107.6430_-6.8953,Jalan terdekat,-6.89532386,107.64300938000001,0,0
virtual_107.6406_-6.8940,Jalan terdekat,-6.89402382,107.64061086000001,0,0
3248882521,Pahlawan Sidomukti,-6.8933137,107.6354258,0,0
virtual_107.6346_-6.8967,Jalan terdekat,-6.896721633333334,107.63458296666667,0,0
12819917451,Griya Pahlawan,-6.9003045,107.634244,0,0
virtual_107.6343_-6.9024,Jalan Brigjend. Katamso,-6.9023515,107.6342515,0,0
virtual_107.6325_-6.9035,Jalan Brigjend. Katamso,-6.9034531,107.6324558,0,0
virtual_107.6304_-6.9063,Jalan Brigjend. Katamso,-6.9062732,107.6303549,0,0
12811695427,Supratman Cikaso,-6.9103228,107.6324017,0,0
12811695425,SMPN 22 Bandung,-6.9122413,107.6336698,0,0
virtual_107.6431_-6.9088,Jalan terdekat,-6.90883665,107.64310435,0,0
12633822765,Seberang Kiara Artha,-6.9142126,107.6437793,0,0
virtual_107.6442_-6.9181,Jalan terdekat,-6.918090733333333,107.64419296666667,0,0
12806853454,SDN 083 Babakan Surabaya Selatan,-6.9196178,107.6442909,0,0
12806853450,Griya Kiaracondong,-6.9221685,107.6444041,0,0
virtual_107.6445_-6.9244,Jalan H. Ibrahim Adjie,-6.9243614,107.6444992,0,0
12806853449,Jalan PSM,-6.9274017,107.6444424,0,0
virtual_107.6443_-6.9289,Jalan terdekat,-6.9289065999999995,107.64426205000001,0,0
12806853447,Honda Daya Motor Kiaracondong,-6.9310003,107.6438759,0,0
12806853446,SDN 38 Kiaracondong,-6.9333993,107.642917,0,0
virtual_107.6426_-6.9355,Jalan terdekat,-6.9355201,107.642604,0,0
12806853442,Kebon Kangkung 11,-6.9380472,107.6424362,0,0
12806853444,KPP Madya Dua Bandung,-6.9383619,107.6422771,0,0
virtual_107.6383_-6.9290,Jalan terdekat,-6.92895882,107.63830478,0,0
3248882519,Grha Wiksa Praniti,-6.928187,107.6358171,0,0
virtual_107.6353_-6.9302,Jalan terdekat,-6.9301795,107.63531809999999,0,0
virtual_107.6347_-6.9328,Jalan terdekat,-6.932758633333333,107.6346578,0,0
3376171452,Simpang Turangga Martanegara,-6.93438,107.6337591,0,0
virtual_107.6297_-6.9337,Jalan terdekat,-6.93365436,107.62965834,0,0
virtual_107.6261_-6.9328,Jalan terdekat,-6.93275124,107.62611618,0,0
virtual_107.6227_-6.9311,Jalan terdekat,-6.93107252,107.62266066000001,0,0
virtual_107.6211_-6.9338,Jalan Gajah,-6.9337683,107.6211343,0,0
virtual_107.6179_-6.9318,Jalan terdekat,-6.93183546,107.61787822,0,0
virtual_107.6154_-6.9320,Jalan terdekat,-6.93200616,107.61537630000001,0,0
virtual_107.6129_-6.9347,Jalan terdekat,-6.93469788,107.61286538,0,0
virtual_107.6097_-6.9372,Jalan terdekat,-6.93720958,107.60970927999999,0,0
virtual_107.6065_-6.9340,Jalan terdekat,-6.933989925,107.60647639999999,0,0
virtual_107.6060_-6.9318,Jalan terdekat,-6.93177035,107.60601159999999,0,0
virtual_107.6056_-6.9302,Jalan terdekat,-6.93017995,107.605580775,0,0
12825997237,Melong Karapitan,-6.9302053,107.6160678,0,0
12825997239,Karapitan Cikawao,-6.9282903,107.6165815,0,0
12825997243,Karapitan Emung,-6.9270918,107.6169043,0,0
12825997241,Karapitan Paledang,-6.9250993,107.61732,0,0
virtual_107.6176_-6.9222,Jalan terdekat,-6.9221954666666665,107.6176214,0,0
10280072517,Gereja Sidang Kristus,-6.9194254,107.6179265,0,0
12806120211,Yogya Sunda,-6.9178998,107.6180659,0,0
virtual_107.6184_-6.9157,Jalan Sumbawa,-6.9157469,107.6184091,0,0
12806120207,Balai Bahasa Jawa Barat,-6.9136482,107.6173371,0,0
12809507134,Kantor Kecamatan Sumurbandung,-6.9131842,107.6177677,0,0
12809507135,Seberang Stadion Siliwangi,-6.9110152,107.6184728,0,0
12809507136,PMI Kota Bandung,-6.9089935,107.6195116,0,0
virtual_107.6231_-6.9097,Jalan Aceh,-6.909675,107.6230541,0,0
3376430782,SMA Kartika,-6.9095321,107.6267561,0,0
12887217205,Jalan Suren,-6.908846,107.628258,0,0
virtual_107.6341_-6.8980,Jalan Pahlawan,-6.8979661,107.634127,0,0
12819917455,Taman Makam Pahlawan Cikutra,-6.8928924,107.6356272,0,0
virtual_107.6370_-6.8936,Jalan Cikutra,-6.8936268,107.6369595,0,0
virtual_107.6428_-6.8952,Jalan Cikutra,-6.8951583,107.6428455,0,0
virtual_107.6437_-6.8976,Jalan Cikutra,-6.897601,107.6437076,0,0
virtual_107.6460_-6.9008,Jalan terdekat,-6.900759866666666,107.64602016666666,0,0
virtual_107.6441_-6.9000,Jalan terdekat,-6.9000403,107.64406313333333,0,0
12814754613,Bekamin,-6.8995403,107.6416949,0,0
12806309240,YPKP Sanggabuana,-6.89932,107.6407662,0,0
virtual_107.6389_-6.8989,Jalan PH. H. Mustofa,-6.8988893,107.6389496,0,0
12814754611,SDN 151 Sukasenang,-6.8982085,107.6360412,0,0
virtual_107.6340_-6.8989,Jalan terdekat,-6.89890325,107.63398445,0,0
virtual_107.6344_-6.9023,Jalan terdekat,-6.90229885,107.63435372500001,0,0
virtual_107.6327_-6.9032,Jalan terdekat,-6.90324225,107.6327042,0,0
virtual_107.6305_-6.9061,Jalan terdekat,-6.9060950750000005,107.63047655,0,0
12887217206,Jalan Salam,-6.908808,107.6282951,0,0
12962149421,Aceh Taman Pramuka,-6.9102542,107.6255307,0,0
virtual_107.6229_-6.9096,Jalan terdekat,-6.909623933333333,107.62285373333333,0,0
virtual_107.6211_-6.9093,Jalan terdekat,-6.909310466666667,107.6211485,0,0
3376420325,Graha Manggala Siliwangi,-6.9090101,107.6195837,0,0
12887179699,Stadion Siliwangi,-6.9111664,107.6184317,0,0
virtual_107.6169_-6.9116,Jalan Belitung,-6.9115735,107.6168804,0,0
3374033495,SMAN 3 dan 5,-6.9119682,107.6150207,0,0
12809521950,Taman Lalu Lintas,-6.9124068,107.6138205,0,0
12887182816,SMP Negeri 2 Bandung,-6.9147065,107.6139894,0,0
virtual_107.6132_-6.9178,Jalan Sumatra,-6.9178221,107.6132116,0,0
virtual_107.6120_-6.9217,Jalan Tamblong,-6.9217387,107.6120118,0,0
virtual_107.6117_-6.9249,Jalan Lengkong Besar,-6.9248556,107.6116853,0,0
3374033505,UNPAS Lengkong Besar,-6.9290293,107.6129922,0,0
12809314942,SDN 020 Lengkong Besar,-6.9304102,107.612861,0,0
virtual_107.6099_-6.9323,Jalan terdekat,-6.932286966666666,107.60989223333334,0,0
virtual_107.6055_-6.9313,Jalan terdekat,-6.9313215,107.60547683333333,0,0
virtual_107.6073_-6.9275,Jalan terdekat,-6.9275176583333336,107.60727200833333,0,0
virtual_107.6119_-6.9308,Jalan terdekat,-6.930796641666666,107.61185001666666,0,0
virtual_107.6158_-6.9313,Jalan terdekat,-6.931282525,107.6157803875,0,0
virtual_107.6169_-6.9271,Jalan terdekat,-6.9271132,107.61689886666667,0,0
virtual_107.6175_-6.9235,Jalan terdekat,-6.9235356,107.61750003333333,0,0
virtual_107.6181_-6.9179,Jalan terdekat,-6.917871,107.618068375,0,0
virtual_107.6183_-6.9153,Jalan terdekat,-6.915320945833333,107.61828224166666,0,0
virtual_107.6156_-6.9118,Jalan terdekat,-6.911769566666666,107.61557846666666,0,0
virtual_107.6129_-6.9122,Jalan terdekat,-6.9121797875,107.6128876,0,0
virtual_107.6135_-6.9102,Jalan terdekat,-6.910233533333333,107.61347430833334,0,0
virtual_107.6127_-6.9070,Jalan terdekat,-6.907037175,107.61268663333334,0,0
virtual_107.6106_-6.9068,Jalan terdekat,-6.906784,107.61055285,0,0
virtual_107.6118_-6.9018,Jalan terdekat,-6.9017855458333335,107.61180537083332,0,0
virtual_107.6127_-6.8992,Jalan terdekat,-6.899151666666667,107.612697225,0,0
virtual_107.6129_-6.8945,Jalan terdekat,-6.8945065,107.6129279125,0,0
virtual_107.6134_-6.8892,Jalan terdekat,-6.889179466666667,107.6134155,0,0
virtual_107.6137_-6.8854,Jalan terdekat,-6.8853858625,107.6136659875,0,0
virtual_107.6141_-6.8837,Jalan terdekat,-6.883724,107.614144125,0,0
virtual_107.6163_-6.8799,Jalan terdekat,-6.879894754166667,107.61630402083333,0,0
virtual_107.6181_-6.8762,Jalan terdekat,-6.876235366666667,107.61814575,0,0
virtual_107.6197_-6.8730,Jalan terdekat,-6.8729597625,107.6196574,0,0
virtual_107.6201_-6.8707,Jalan terdekat,-6.870688825,107.62006973333334,0,0
virtual_107.6206_-6.8687,Jalan terdekat,-6.868666683333334,107.620569275,0,0
3373712056,Terminal Dago,-6.8670778,107.6212119,0,0
12819940049,SPBU Dago Atas,-6.8686285,107.620646,0,0
virtual_107.6202_-6.8706,Jalan Ir. H. Djuanda,-6.8705599,107.6201882,0,0
12816172252,Seberang Poltekesos,-6.8725481,107.6198876,0,0
virtual_107.6187_-6.8755,Jalan terdekat,-6.875466266666667,107.61869540000001,0,0
12820358786,Kanayakan,-6.8774811,107.6173296,0,0
virtual_107.6161_-6.8809,Jalan terdekat,-6.880883525,107.61613862499999,0,0
virtual_107.6148_-6.8832,Jalan terdekat,-6.88318575,107.6147746,0,0
virtual_107.6141_-6.8853,Jalan terdekat,-6.885295275000001,107.6140649,0,0
virtual_107.6162_-6.8897,Jalan terdekat,-6.889728933333333,107.6162113,0,0
virtual_107.6159_-6.8949,Jalan terdekat,-6.894864,107.615903,0,0
12820212473,STMIK LIKMI,-6.8955212,107.6129226,0,0
11873654244,Danamon Cikapayang,-6.8995115,107.6127597,0,0
12819940051,Superindo Dago,-6.9018046,107.6118668,0,0
virtual_107.6107_-6.9047,Jalan Ir. H. Djuanda,-6.9047122,107.6107043,0,0
virtual_107.6123_-6.9098,Jalan Aceh,-6.9097764,107.6122595,0,0
virtual_107.6176_-6.9113,Jalan Banda,-6.9113281,107.6176192,0,0
25433284,Banda Saparua,-6.9072231,107.6169984,0,0
virtual_107.6136_-6.9066,Jalan terdekat,-6.9066148,107.61361255,0,0
virtual_107.6065_-6.9072,Jalan Pajajaran,-6.9072053,107.6065225,0,0
virtual_107.6023_-6.9008,Jalan terdekat,-6.9007537,107.60230505,0,0
virtual_107.5988_-6.9004,Jalan terdekat,-6.90037195,107.59877599999999,0,0
virtual_107.5971_-6.8936,Jalan Sukajadi,-6.893622,107.5970769,0,0
virtual_107.5969_-6.8897,Jalan Sukajadi,-6.8897159,107.596901,0,0
virtual_107.5964_-6.8860,Jalan terdekat,-6.8859897,107.59642185,0,0
virtual_107.5964_-6.8817,Jalan terdekat,-6.881685166666667,107.59643940000001,0,0
virtual_107.5939_-6.8716,Jalan terdekat,-6.8715752750000005,107.59393857500001,0,0
virtual_107.5936_-6.8694,Jalan terdekat,-6.869396249999999,107.59355844999999,0,0
virtual_107.5937_-6.8679,Jalan terdekat,-6.867879575,107.5937239,0,0
virtual_107.5962_-6.8622,Jalan terdekat,-6.8621896,107.59618315,0,0
virtual_107.5948_-6.8612,Jalan terdekat,-6.8611536,107.59484690000001,0,0
virtual_107.5958_-6.8631,Jalan terdekat,-6.863143666666667,107.59575023333333,0,0
12809046291,Seberang Unpas Setiabudi,-6.8664168,107.5939201,0,0
virtual_107.5939_-6.8714,Jalan terdekat,-6.871428,107.59386073333333,0,0
virtual_107.5975_-6.8765,Jalan Dokter Danudirja Setiabudhi,-6.8764616,107.5975398,0,0
virtual_107.5982_-6.8791,Jalan Dokter Danudirja Setiabudhi,-6.8791416,107.5981885,0,0
virtual_107.5995_-6.8815,Jalan Dokter Danudirja Setiabudhi,-6.8814891,107.5994716,0,0
6165179774,Setiabudi Hegarmanah,-6.8829555,107.6023609,0,0
virtual_107.6040_-6.8840,Jalan Dokter Setiabudi,-6.8839936,107.6040202,0,0
12811652377,SDN 065 Cihampelas,-6.8869867,107.6040408,0,0
virtual_107.6040_-6.8887,Jalan terdekat,-6.8887331,107.6040404,0,0
virtual_107.6042_-6.8927,Jalan terdekat,-6.8927239,107.60420135000001,0,0
3376669082,Cihampelas Eyckman,-6.8959031,107.6039451,0,0
virtual_107.6041_-6.8987,Jalan terdekat,-6.898684299999999,107.60408435,0,0
virtual_107.6043_-6.9009,Jalan Cihampelas,-6.9008715,107.604264,0,0
virtual_107.6078_-6.9063,Jalan Wastukencana,-6.906285,107.6077784,0,0
virtual_107.6034_-6.9309,Jalan terdekat,-6.93093235,107.60343155000001,0,0
3383341282,Pasar Astana Anyar,-6.9306827,107.601334,0,0
2325452881,Jalan Panjunan,-6.9298621,107.5973451,0,0
virtual_107.5981_-6.9232,Jalan terdekat,-6.92321908,107.59810896,0,0
virtual_107.5950_-6.9228,Jalan terdekat,-6.92284266,107.59496834,0,0
virtual_107.5918_-6.9225,Jalan terdekat,-6.92249682,107.59175134,0,0
virtual_107.5883_-6.9222,Jalan terdekat,-6.92217184,107.58830394,0,0
2325452491,Unknown,-6.9219839,107.5859557,0,0
virtual_107.5837_-6.9219,Jalan terdekat,-6.92191775,107.5836903,0,0
1911634972,Pasar Cangkring/Situ Aksan,-6.9235251,107.5813879,0,0
1911634983,Jalan Suryani,-6.9206062,107.580869,0,0
virtual_107.5773_-6.9207,Jalan terdekat,-6.92068795,107.57734085,0,0
1911634927,RS Priangan,-6.9223077,107.5769466,0,0
6442840898,Simpang Holis Soekarno Hatta,-6.923662,107.5751042,0,0
virtual_107.5788_-6.9206,Jalan terdekat,-6.920556599999999,107.5788064,0,0
virtual_107.5887_-6.9222,Jalan terdekat,-6.922211,107.5886836,0,0
virtual_107.5928_-6.9226,Jalan Pagarsih Barat,-6.922594,107.5927501,0,0
virtual_107.5959_-6.9229,Jalan terdekat,-6.9229480500000005,107.59591449999999,0,0
virtual_107.5988_-6.9233,Jalan Kalipah Apo,-6.9232714,107.5987982,0,0
virtual_107.6026_-6.9237,Jalan terdekat,-6.92368365,107.6026014,0,0
virtual_107.6035_-6.9296,Jalan Otto Iskandardinata,-6.9295503,107.6035279,0,0
virtual_107.6055_-6.9310,Jalan terdekat,-6.9310481,107.6055104,0,0
virtual_107.6338_-6.9026,Jalan terdekat,-6.9025712,107.63382483333334,0,0
virtual_107.6319_-6.9042,Jalan terdekat,-6.904155766666666,107.63187243333333,0,0
12887162310,Seberang Telkom Supratman,-6.9062831,107.6296635,0,0
5842007854,Ciliwung,-6.9040635,107.6282013,0,0
virtual_107.6260_-6.9011,Jalan terdekat,-6.90112915,107.6259652,0,0
virtual_107.6217_-6.9012,Jalan terdekat,-6.901205266666667,107.62174381666667,0,0
virtual_107.6183_-6.9013,Jalan terdekat,-6.901281433333334,107.61827623333333,0,0
virtual_107.6141_-6.9006,Jalan terdekat,-6.90058535,107.6141216,0,0
virtual_107.6115_-6.8999,Jalan terdekat,-6.8998520999999995,107.6115145,0,0
1969331852,Balubur Town Square,-6.8987437,107.6093403,0,0
3376871368,Pelesiran,-6.8970719,107.6096181,0,0
11262097538,Tamansari (Bonbin),-6.8933258,107.6083698,0,0
virtual_107.6080_-6.8916,Jalan Taman Sari,-6.8916304,107.6080235,0,0
12805921498,BATAN,-6.8888308,107.6080995,0,0
3530181074,Sabuga ITB,-6.8877401,107.609232,0,0
virtual_107.6115_-6.8871,Jalan Taman Sari,-6.8870535,107.6115353,0,0
3376871360,Babakan Siliwangi,-6.8849719,107.6114877,0,0
virtual_107.6079_-6.8846,Jalan terdekat,-6.884591033333333,107.60792833333333,0,0
virtual_107.6054_-6.8834,Jalan terdekat,-6.8833706,107.6053905,0,0
virtual_107.6016_-6.8875,Jalan terdekat,-6.88751895,107.601593725,0,0
virtual_107.5992_-6.8898,Jalan terdekat,-6.8897873999999995,107.5991926,0,0
virtual_107.5967_-6.8873,Jalan terdekat,-6.887284625,107.596725925,0,0
virtual_107.6046_-6.8845,Jalan Cihampelas,-6.8844938,107.6045769,0,0
1660116948,Gandok,-6.8836088,107.6056396,0,0
virtual_107.6080_-6.8846,Jalan Siliwangi,-6.8846017,107.6079766,0,0
virtual_107.6113_-6.8848,Jalan Siliwangi,-6.8848052,107.6113446,0,0
12813270569,Sumur Bandung,-6.8856909,107.6127217,0,0
virtual_107.6097_-6.8877,Jalan terdekat,-6.887726,107.6097406,0,0
12805921497,FTMD ITB,-6.8888141,107.6080995,0,0
12805921499,Tamansari ITB,-6.8898018,107.6080694,0,0
virtual_107.6081_-6.8921,Jalan terdekat,-6.892143750000001,107.60807940000001,0,0
13009862614,Ganesha Tamansari,-6.8935213,107.608426,0,0
3376871366,Gelap Nyawang,-6.8946314,107.6086646,0,0
12986852691,Sulanjana Rangga Malela,-6.8996659,107.6106103,0,0
virtual_107.6130_-6.9004,Jalan terdekat,-6.9003983,107.613028925,0,0
virtual_107.6152_-6.9008,Jalan terdekat,-6.9007777,107.61524019999999,0,0
virtual_107.6181_-6.9013,Jalan terdekat,-6.9012913,107.61808015,0,0
virtual_107.6223_-6.9011,Jalan terdekat,-6.90111385,107.62226675,0,0
virtual_107.6261_-6.9010,Jalan Diponegoro,-6.901032,107.6261054,0,0
5842007855,Muararajeun,-6.9039847,107.6282881,0,0
virtual_107.6292_-6.9054,Jalan Supratman,-6.9054074,107.6292146,0,0
12814754609,Simpang Jalaprang,-6.8984824,107.6317973,0,0
virtual_107.6280_-6.8997,Jalan Surapati,-6.8996818,107.6279771,0,0
12814754605,Taman Pusdai,-6.8992562,107.6261407,0,0
12806309233,PVMBG,-6.8992825,107.6203701,0,0
virtual_107.6188_-6.8994,Jalan terdekat,-6.899364433333333,107.6187522,0,0
12816121755,Simpang Dipatiukur Hasanudin,-6.8950876,107.6172155,0,0
12820400848,Unpad Kampus Iwa Koesoemasoemantri,-6.8932726,107.6179071,0,0
virtual_107.6170_-6.8909,Jalan Dipatiukur,-6.8909264,107.6170495,0,0
12816121752,Seberang UNIKOM,-6.8870114,107.6150918,0,0
virtual_107.6140_-6.8853,Jalan terdekat,-6.88534125,107.6140355,0,0
virtual_107.6042_-6.8912,Jalan terdekat,-6.8911967800000005,107.60423130000001,0,0
virtual_107.6040_-6.8947,Jalan terdekat,-6.89466526,107.60404865999999,0,0
virtual_107.6022_-6.8958,Jalan terdekat,-6.8957923,107.6022102,0,0
virtual_107.5986_-6.8960,Jalan terdekat,-6.89600426,107.59857360000001,0,0
virtual_107.6011_-6.9003,Jalan terdekat,-6.900271099999999,107.60106505,0,0
12809082512,Seberang IWU,-6.9013037,107.5974649,0,0
12809082511,Seberang BPK Penabur,-6.9033942,107.5975385,0,0
3377321687,Depan Istana Plaza,-6.9054493,107.5976013,0,0
virtual_107.5967_-6.9065,Jalan terdekat,-6.9065054,107.59671855,0,0
11138593907,Padjajaran 2,-6.9068851,107.5939013,0,0
virtual_107.5921_-6.9071,Jalan terdekat,-6.907141666666667,107.5921264,0,0
virtual_107.5904_-6.9071,Jalan terdekat,-6.907062566666666,107.59041073333334,0,0
3377329064,Husein Pajajaran,-6.9068423,107.588209,0,0
virtual_107.5838_-6.9076,Jalan terdekat,-6.9075581999999995,107.58379473333333,0,0
virtual_107.5796_-6.9085,Jalan terdekat,-6.908509633333333,107.57961703333334,0,0
3244745033,Terminal Ciroyom,-6.9141236,107.5885486,0,0
virtual_107.5872_-6.9134,Jalan Layang Ciroyom,-6.91341,107.5871781,0,0
virtual_107.5894_-6.9113,Jalan terdekat,-6.9112937,107.5893783,0,0
3377321681,Pintu Masuk Bandara Husein Sastranegara,-6.9067739,107.588219,0,0
virtual_107.5907_-6.9070,Jalan terdekat,-6.907015100000001,107.59065595,0,0
7547053355,Pajajaran 1,-6.9070991,107.5925401,0,0
virtual_107.5956_-6.9066,Jalan terdekat,-6.9066251,107.5955915,0,0
3377321682,Istana Plaza (IP),-6.9053889,107.596171,0,0
12809082509,BPK Penabur,-6.9033926,107.5974789,0,0
12809082507,IWU,-6.9015643,107.597414,0,0
virtual_107.5977_-6.8964,Jalan terdekat,-6.896398633333334,107.5977466,0,0
virtual_107.5989_-6.8934,Jalan terdekat,-6.893417366666667,107.598921,0,0
3249461526,Pasar Sederhana,-6.8908128,107.5996153,0,0
virtual_107.5983_-6.8892,Jalan Sukamaju,-6.8892233,107.5982945,0,0
virtual_107.5967_-6.8868,Jalan Sukajadi,-6.8867916,107.5967016,0,0
virtual_107.5969_-6.8809,Jalan Karang Sari,-6.8808891,107.5969398,0,0
virtual_107.6002_-6.8823,Jalan Dokter Danudirja Setiabudhi,-6.8823036,107.6001689,0,0
virtual_107.6115_-6.8849,Jalan terdekat,-6.88487945,107.61150215,0,0
virtual_107.6136_-6.8852,Jalan terdekat,-6.88520215,107.613616,0,0
virtual_107.6155_-6.8881,Jalan terdekat,-6.8881336,107.61548855000001,0,0
3375793672,Sekeloa,-6.8902412,107.6165653,0,0
12816121756,Magister Manajemen UNPAD,-6.8950233,107.617258,0,0
virtual_107.6190_-6.8993,Jalan Surapati,-6.8992907,107.6189625,0,0
12806309232,Jalan Merak,-6.89928,107.6204436,0,0
12814453796,Jalan Gagak,-6.8992266,107.6234921,0,0
5832220640,PUSDAI,-6.8992435,107.6259835,0,0
12814754607,Seberang Imigrasi Bandung,-6.8988684,107.6312754,0,0
virtual_107.6336_-6.8979,Jalan Surapati,-6.897911,107.6336231,0,0
virtual_107.6291_-6.9052,Jalan terdekat,-6.905170433333333,107.62905996666666,0,0
virtual_107.6304_-6.9072,Jalan terdekat,-6.907181,107.63036743333333,0,0
12806853440,Den Jasa Ang,-6.9397848,107.6423227,0,0
virtual_107.6422_-6.9415,Jalan H. Ibrahim Adjie,-6.9415102,107.6422079,0,0
12806853435,SPBU Kebon Kangkung,-6.9428602,107.6421057,0,0
virtual_107.6418_-6.9465,Jalan terdekat,-6.9464569,107.64177116666667,0,0
virtual_107.6411_-6.9508,Jalan terdekat,-6.950829733333333,107.64112236666666,0,0
virtual_107.6405_-6.9542,Jalan Marga Cinta,-6.9541709,107.6404838,0,0
virtual_107.6438_-6.9547,Jalan terdekat,-6.954748966666667,107.6438139,0,0
virtual_107.6481_-6.9551,Jalan terdekat,-6.955104700000001,107.6481465,0,0
12813271263,Seberang Borma Margacinta,-6.9554682,107.6521388,0,0
virtual_107.6551_-6.9558,Jalan terdekat,-6.95579315,107.6550799,0,0
virtual_107.6573_-6.9577,Jalan terdekat,-6.95769615,107.65727505,0,0
virtual_107.6597_-6.9590,Jalan terdekat,-6.959001725,107.65969855,0,0
35138488,Taman Lansia Margahayu Raya,-6.9597741,107.6615127,0,0
virtual_107.6635_-6.9604,Jalan terdekat,-6.96037256,107.66348052000001,0,0
virtual_107.6663_-6.9611,Jalan terdekat,-6.96113042,107.66631354,0,0
virtual_107.6695_-6.9617,Jalan terdekat,-6.96171544,107.66946939,0,0
virtual_107.6719_-6.9620,Jalan terdekat,-6.96203458,107.67188209999999,0,0
virtual_107.6731_-6.9638,Jalan terdekat,-6.96376345,107.67314155,0,0
virtual_107.6765_-6.9641,Jalan terdekat,-6.96406212,107.67653686,0,0
virtual_107.6789_-6.9644,Jalan terdekat,-6.96440114,107.67893039,0,0
virtual_107.6823_-6.9647,Jalan terdekat,-6.9646820400000005,107.682339,0,0
virtual_107.6843_-6.9650,Jalan terdekat,-6.964975389999999,107.68426026,0,0
2518053983,Simpang Derwati,-6.9655502,107.6868117,0,0
3383628375,SMPN 51 Bandung,-6.9644172,107.6798172,0,0
virtual_107.6818_-6.9646,Jalan Derwati,-6.9646058,107.6817916,0,0
12813271267,SDN 069 Cipamokolan,-6.9648151,107.6832053,0,0
virtual_107.6852_-6.9652,Jalan terdekat,-6.9651695,107.68516815,0,0
virtual_107.6740_-6.9639,Jalan terdekat,-6.963850750000001,107.6740264,0,0
virtual_107.6711_-6.9619,Jalan Marga Cinta,-6.961918,107.6710864,0,0
virtual_107.6697_-6.9617,Jalan terdekat,-6.96174235,107.66972245,0,0
2258306743,Pasar Ciwastra,-6.9611563,107.6664238,0,0
virtual_107.6614_-6.9597,Jalan terdekat,-6.959744049999999,107.66142699999999,0,0
virtual_107.6632_-6.9603,Jalan terdekat,-6.960305633333333,107.66324423333333,0,0
virtual_107.6550_-6.9558,Jalan terdekat,-6.955785499999999,107.6550246,0,0
virtual_107.6566_-6.9571,Jalan terdekat,-6.9570578,107.65663036666666,0,0
virtual_107.6585_-6.9584,Jalan terdekat,-6.958447283333333,107.65851341666666,0,0
3383643778,Borma Margacinta,-6.9554392,107.6518488,0,0
virtual_107.6440_-6.9548,Jalan terdekat,-6.954762516666667,107.64397593333334,0,0
virtual_107.6489_-6.9552,Jalan terdekat,-6.9551707333333335,107.64894906666667,0,0
virtual_107.6417_-6.9544,Jalan terdekat,-6.95438495,107.6416833,0,0
virtual_107.6405_-6.9529,Jalan terdekat,-6.952948766666666,107.6405369,0,0
virtual_107.6415_-6.9483,Jalan terdekat,-6.948329433333334,107.64150445,0,0
12806853434,Jalan H. Basuki,-6.9443088,107.6418944,0,0
12806853438,Borma Kiaracondong,-6.9428669,107.6419879,0,0
12806853441,Seberang Jalan Sekejati,-6.9399607,107.6421744,0,0
virtual_107.6425_-6.9352,Jalan terdekat,-6.935199757142858,107.6424892,0,0
virtual_107.6430_-6.9326,Jalan terdekat,-6.932629328571428,107.64295355714286,0,0
virtual_107.6439_-6.9297,Jalan terdekat,-6.9297037,107.64393434285715,0,0
virtual_107.6442_-6.9282,Jalan terdekat,-6.928210242857142,107.64423982857143,0,0
virtual_107.6444_-6.9243,Jalan terdekat,-6.924303585714286,107.64438874285713,0,0
virtual_107.6228_-6.9012,Jalan terdekat,-6.90117985,107.62280965,0,0
virtual_107.6367_-6.9471,Jalan terdekat,-6.9470548,107.63674595,0,0
virtual_107.6296_-6.9492,Jalan Soekarno-Hatta,-6.9491718,107.6296209,0,0
virtual_107.6264_-6.9496,Jalan terdekat,-6.949560399999999,107.62637219999999,0,0
virtual_107.6148_-6.9488,Jalan terdekat,-6.948785166666667,107.61481153333334,0,0
virtual_107.6072_-6.9482,Jalan Soekarno-Hatta,-6.948227,107.6072047,0,0
virtual_107.5998_-6.9477,Jalan Soekarno-Hatta,-6.9477112,107.5997816,0,0
virtual_107.5974_-6.9476,Jalan Soekarno-Hatta,-6.9476477,107.5974373,0,0
virtual_107.5953_-6.9474,Jalan Soekarno-Hatta,-6.9473935,107.5952613,0,0
virtual_107.5951_-6.9472,Jalan terdekat,-6.947173575,107.595101425,0,0
virtual_107.5975_-6.9474,Jalan terdekat,-6.947411600000001,107.59747155,0,0
virtual_107.5998_-6.9476,Jalan terdekat,-6.9476241750000005,107.599848775,0,0
virtual_107.6094_-6.9483,Jalan Soekarno-Hatta,-6.9482727,107.6094101,0,0
virtual_107.6156_-6.9487,Jalan terdekat,-6.948741233333333,107.6156472,0,0
virtual_107.6213_-6.9491,Jalan terdekat,-6.949147733333334,107.62133296666667,0,0
virtual_107.6299_-6.9490,Jalan terdekat,-6.9490273333333334,107.62992413333333,0,0
virtual_107.6332_-6.9480,Jalan terdekat,-6.948032133333333,107.6331689,0,0
virtual_107.6410_-6.9456,Jalan Soekarno-Hatta,-6.9456323,107.6410307,0,0
virtual_107.6068_-6.9153,Jalan terdekat,-6.915296963157894,107.60684297894737,0,0
virtual_107.6077_-6.9142,Jalan terdekat,-6.914165284210527,107.6076583631579,0,0
virtual_107.6090_-6.9127,Jalan terdekat,-6.912717736842105,107.60904732631579,0,0
virtual_107.6081_-6.9089,Jalan terdekat,-6.908946768421053,107.6080533368421,0,0
virtual_107.6078_-6.9066,Jalan terdekat,-6.906554110526316,107.60779452105264,0,0
virtual_107.6106_-6.9067,Jalan terdekat,-6.906742573684211,107.61055334210526,0,0
virtual_107.6127_-6.8994,Jalan terdekat,-6.899387610526316,107.61268870526317,0,0
virtual_107.6128_-6.8966,Jalan terdekat,-6.896582310526315,107.61281162105263,0,0
virtual_107.6133_-6.8904,Jalan terdekat,-6.890428526315789,107.61326982105263,0,0
virtual_107.6136_-6.8869,Jalan terdekat,-6.886865184210526,107.61356761052632,0,0
virtual_107.6139_-6.8845,Jalan terdekat,-6.884451321052632,107.61388051578948,0,0
virtual_107.6158_-6.8817,Jalan terdekat,-6.881693357894737,107.61578805789475,0,0
virtual_107.6168_-6.8781,Jalan terdekat,-6.878066542105263,107.61680718947368,0,0
virtual_107.6186_-6.8754,Jalan terdekat,-6.875446478947368,107.61861141578947,0,0
virtual_107.6198_-6.8724,Jalan terdekat,-6.87243922631579,107.61983437894736,0,0
virtual_107.6202_-6.8702,Jalan terdekat,-6.870193031578948,107.62020688421053,0,0
virtual_107.6206_-6.8683,Jalan terdekat,-6.868270468421053,107.62057144210526,0,0
virtual_107.6206_-6.8692,Jalan terdekat,-6.869229836842106,107.62061971052631,0,0
virtual_107.6200_-6.8721,Jalan terdekat,-6.872093484210526,107.61998444736842,0,0
virtual_107.6194_-6.8737,Jalan terdekat,-6.873731615789474,107.61943267368422,0,0
virtual_107.6176_-6.8771,Jalan terdekat,-6.877072047368421,107.61764280526316,0,0
virtual_107.6142_-6.8838,Jalan terdekat,-6.883809857894737,107.61422819473684,0,0
2034531651,UNIKOM Pascasarjana,-6.8858131,107.6137012,0,0
virtual_107.6134_-6.8899,Jalan terdekat,-6.889855258333333,107.61340444166667,0,0
virtual_107.6131_-6.8932,Jalan terdekat,-6.893150483333334,107.613102,0,0
virtual_107.6128_-6.8980,Jalan terdekat,-6.898047175,107.612823575,0,0
virtual_107.6127_-6.9001,Jalan terdekat,-6.900086566666666,107.6126868,0,0
virtual_107.6116_-6.9024,Jalan terdekat,-6.902417616666667,107.61161863333332,0,0
virtual_107.6106_-6.9099,Jalan terdekat,-6.909862941666666,107.61064405833334,0,0
virtual_107.6099_-6.9139,Jalan terdekat,-6.9139368,107.60987173333334,0,0
virtual_107.6089_-6.9163,Jalan terdekat,-6.9162520999999995,107.60892011666667,0,0
virtual_107.6072_-6.9155,Jalan terdekat,-6.915507558333333,107.607188375,0,0
virtual_107.6069_-6.9153,Jalan Stasiun Timur,-6.9153005,107.606909,0,0
virtual_107.6184_-6.9156,Jalan Sumbawa,-6.9156491,107.6184073,0,0
virtual_107.6207_-6.9069,Jalan terdekat,-6.9069116,107.62065292,0,0
virtual_107.6213_-6.9051,Jalan terdekat,-6.905098,107.62131296,0,0
virtual_107.6250_-6.9014,Jalan terdekat,-6.90138844,107.62501494,0,0
virtual_107.6342_-6.8972,Jalan terdekat,-6.89720774,107.6342002,0,0
virtual_107.6352_-6.8926,Jalan terdekat,-6.8926102,107.63522358,0,0
virtual_107.6298_-6.8919,Jalan terdekat,-6.891933219999999,107.6297925,0,0
virtual_107.6277_-6.8923,Jalan terdekat,-6.89227014,107.62770244,0,0
3252929646,Terminal Sadang Serang,-6.8911775,107.6252674,0,0
virtual_107.6294_-6.8919,Jalan terdekat,-6.89192655,107.629388325,0,0
virtual_107.6317_-6.8922,Jalan terdekat,-6.892226924999999,107.631697925,0,0
12984617475,Tugu PKK Citarum,-6.9017565,107.6248367,0,0
12984617474,Seberang SMAN 20 Bandung,-6.9045542,107.6225407,0,0
virtual_107.6208_-6.9068,Jalan terdekat,-6.9068396666666665,107.62081736666667,0,0
virtual_107.6124_-6.9101,Jalan terdekat,-6.91005865,107.61243719999999,0,0
virtual_107.6082_-6.9162,Jalan Suniaraja,-6.9162248,107.6081984,0,0
319706142,RSAU dr. Salamun,-6.8635418,107.6049689,0,0
virtual_107.6061_-6.8659,Jalan terdekat,-6.865887,107.60614905999999,0,0
virtual_107.6059_-6.8686,Jalan terdekat,-6.86864682,107.60589021999999,0,0
virtual_107.6050_-6.8727,Jalan terdekat,-6.8727098799999995,107.60503272,0,0
3462094658,UNPAR,-6.8753147,107.6044647,0,0
virtual_107.6039_-6.8776,Jalan terdekat,-6.87761334,107.6039425,0,0
virtual_107.6038_-6.8807,Jalan terdekat,-6.88065532,107.60381665999999,0,0
virtual_107.6044_-6.8822,Jalan terdekat,-6.88215864,107.60435108,0,0
virtual_107.6048_-6.8837,Jalan terdekat,-6.88366862,107.60483599999999,0,0
3462094656,RS Advent,-6.8916075,107.6038612,0,0
virtual_107.6018_-6.8914,Jalan Sampurna,-6.8913648,107.6018009,0,0
virtual_107.5992_-6.8925,Jalan Sederhana,-6.8925236,107.5991519,0,0
29379371,Makmur,-6.8941794,107.5989838,0,0
29379391,RS Hasan Sadikin,-6.8961604,107.5993726,0,0
virtual_107.5987_-6.8941,Jalan Sederhana,-6.8940629,107.5987172,0,0
virtual_107.6043_-6.8846,Jalan terdekat,-6.8845569625,107.60434495,0,0
virtual_107.6045_-6.8825,Jalan terdekat,-6.8824952249999996,107.604521025,0,0
virtual_107.6036_-6.8801,Jalan terdekat,-6.88012355,107.6036426,0,0
virtual_107.6042_-6.8766,Jalan terdekat,-6.8765996000000005,107.60416875,0,0
virtual_107.6049_-6.8731,Jalan terdekat,-6.87308835,107.60494051250001,0,0
virtual_107.6059_-6.8682,Jalan terdekat,-6.8682243,107.6059104,0,0
virtual_107.6057_-6.8656,Jalan terdekat,-6.865574125,107.60565505,0,0
virtual_107.6042_-6.9001,Jalan terdekat,-6.90009835,107.60417645,0,0
virtual_107.6019_-6.9004,Jalan Pasteur,-6.9003583,107.6018744,0,0
2012498684,Taman Adipura,-6.9068065,107.5992067,0,0
25500626,GOR Padjajaran,-6.9070015,107.6019252,0,0
virtual_107.6041_-6.9105,Jalan terdekat,-6.91053895,107.60408495,0,0
virtual_107.5981_-6.9135,Jalan HOS. Cokroaminoto,-6.9134521,107.5980575,0,0
virtual_107.6042_-6.9191,Jalan terdekat,-6.919143233333333,107.60423060000001,0,0
virtual_107.6064_-6.9224,Jalan terdekat,-6.92241565,107.606369,0,0
virtual_107.6074_-6.9190,Jalan terdekat,-6.9189999,107.6073609,0,0
virtual_107.6089_-6.9197,Jalan terdekat,-6.9197156500000006,107.608927,0,0
virtual_107.6112_-6.9199,Jalan terdekat,-6.919936,107.61123895,0,0
virtual_107.6185_-6.9218,Jalan terdekat,-6.92184675,107.618528875,0,0
virtual_107.6242_-6.9237,Jalan terdekat,-6.92365365,107.624177175,0,0
12806717338,SMK Pariwisata Telkom,-6.9255559,107.623843,0,0
9189908949,Yayasan Muslimah,-6.9272967,107.6234197,0,0
12981961713,Seberang Hotel Harmony Inn,-6.9288374,107.623871,0,0
virtual_107.6262_-6.9294,Jalan Talaga Bodas,-6.9294385,107.6262232,0,0
virtual_107.6276_-6.9331,Jalan terdekat,-6.9331495,107.62759285,0,0
virtual_107.6325_-6.9349,Jalan terdekat,-6.93490175,107.632493,0,0
virtual_107.6315_-6.9385,Jalan terdekat,-6.93852905,107.63147380000001,0,0
12986852697,Seberang SMKN 8 Bandung,-6.9402159,107.6287964,0,0
12986852695,SMKN 4 Bandung,-6.9412408,107.6285303,0,0
virtual_107.6321_-6.9467,Jalan terdekat,-6.9467073500000005,107.63211692499999,0,0
virtual_107.6333_-6.9478,Jalan terdekat,-6.9478045,107.63326635,0,0
virtual_107.6408_-6.9457,Jalan terdekat,-6.945699449999999,107.6407761,0,0
virtual_107.6480_-6.9434,Jalan terdekat,-6.9433506000000005,107.64797635,0,0
virtual_107.6549_-6.9411,Jalan terdekat,-6.9411421,107.65494724999999,0,0
virtual_107.6659_-6.9388,Jalan Soekarno-Hatta,-6.9388221,107.6659038,0,0
virtual_107.6697_-6.9386,Jalan Soekarno-Hatta,-6.9385517,107.6696795,0,0
virtual_107.6725_-6.9383,Jalan Soekarno-Hatta,-6.9383493,107.6725046,0,0
virtual_107.6744_-6.9382,Jalan Soekarno-Hatta,-6.9382178,107.6744202,0,0
virtual_107.6836_-6.9376,Jalan terdekat,-6.9375732857142856,107.68359057142857,0,0
virtual_107.6861_-6.9374,Jalan terdekat,-6.937387771428572,107.68613172857143,0,0
virtual_107.6886_-6.9372,Jalan terdekat,-6.937202542857142,107.68860231428572,0,0
virtual_107.6910_-6.9370,Jalan terdekat,-6.937017628571429,107.69103705714285,0,0
virtual_107.6932_-6.9369,Jalan terdekat,-6.936858357142857,107.69317125714285,0,0
3780800108,Pasar Induk Gedebage,-6.9364151,107.6972019,0,0
virtual_107.6957_-6.9369,Jalan terdekat,-6.9369331333333335,107.69569736666666,0,0
virtual_107.6936_-6.9371,Jalan terdekat,-6.9370728,107.69364716666666,0,0
virtual_107.6886_-6.9374,Jalan terdekat,-6.9374358,107.68863454,0,0
virtual_107.6859_-6.9376,Jalan terdekat,-6.93764194,107.6858581,0,0
virtual_107.6833_-6.9378,Jalan terdekat,-6.93782362,107.68328732,0,0
virtual_107.6744_-6.9385,Jalan terdekat,-6.938455299999999,107.67441170000001,0,0
virtual_107.6707_-6.9387,Jalan terdekat,-6.93871945,107.6706693,0,0
virtual_107.6650_-6.9391,Jalan Soekarno-Hatta,-6.9391212,107.6650224,0,0
virtual_107.6618_-6.9395,Jalan terdekat,-6.9394575,107.66184530000001,0,0
virtual_107.6548_-6.9414,Jalan terdekat,-6.94143105,107.65476125,0,0
virtual_107.6491_-6.9432,Jalan terdekat,-6.9432114,107.64914775,0,0
virtual_107.6422_-6.9454,Jalan terdekat,-6.9454492,107.64220265,0,0
virtual_107.6333_-6.9480,Jalan Buah Batu,-6.9479888,107.6332967,0,0
12808948218,Guntursari Wetan,-6.9465686,107.6318869,0,0
virtual_107.6299_-6.9445,Jalan Buah Batu,-6.9445213,107.6299147,0,0
1980677053,ISBI Bandung,-6.942597,107.6280578,0,0
12986852696,SMKN 8 Bandung,-6.9401215,107.6288279,0,0
virtual_107.6278_-6.9381,Jalan terdekat,-6.938135933333333,107.6278116,0,0
virtual_107.6262_-6.9356,Jalan terdekat,-6.935627133333333,107.62615953333334,0,0
12806868635,Golkar Jawa Barat,-6.9337673,107.6269745,0,0
virtual_107.6260_-6.9327,Jalan Raden Adipati Aria Martanegara,-6.9327273,107.6259726,0,0
12981961714,Seberang Jalan Terusan Galunggung,-6.929086,107.6248423,0,0
12986852698,Universitas Aisyiyah,-6.9281529,107.6231948,0,0
virtual_107.6238_-6.9251,Jalan terdekat,-6.9251162,107.6237945,0,0
virtual_107.6247_-6.9224,Jalan Malabar,-6.9223936,107.624678,0,0
12986852700,Jalan Malabar,-6.9204704,107.62446,0,0
12806120209,Taman Musik,-6.9122853,107.6165113,0,0
virtual_107.6080_-6.9161,Jalan terdekat,-6.9161283,107.60800276666667,0,0
virtual_107.6069_-6.9147,Jalan terdekat,-6.914710666666667,107.60688443333333,0,0
virtual_107.6071_-6.9145,Jalan terdekat,-6.9144570000000005,107.60708600000001,0,0
virtual_107.5978_-6.9095,Jalan HOS. Cokroaminoto,-6.9094546,107.5977774,0,0
5825369226,Unknown,-6.9058209,107.59755,0,0
virtual_107.5928_-6.8977,Jalan terdekat,-6.897744899999999,107.5928001,0,0
virtual_107.5903_-6.8963,Jalan terdekat,-6.8962717,107.590315825,0,0
virtual_107.5866_-6.8937,Jalan terdekat,-6.893737933333333,107.58660423333333,0,0
virtual_107.5848_-6.8926,Jalan terdekat,-6.8926222,107.58479903333333,0,0
virtual_107.5811_-6.8921,Jalan terdekat,-6.892070833333333,107.58112440000001,0,0
virtual_107.5814_-6.8891,Jalan terdekat,-6.889089366666667,107.5814192,0,0
virtual_107.5811_-6.8824,Jalan terdekat,-6.882431066666666,107.58105783333333,0,0
306334264,Cibogo Atas,-6.8818614,107.5777479,0,0
1585594342,Rusun Sarijadi,-6.8827073,107.5749699,0,0
virtual_107.5809_-6.8801,Jalan Terusan Profesor Dokter Sutami,-6.8800589,107.5808999,0,0
virtual_107.5814_-6.8858,Jalan terdekat,-6.885752350000001,107.5814407,0,0
virtual_107.5815_-6.8889,Jalan Surya Sumantri,-6.8889233,107.5814622,0,0
virtual_107.5815_-6.8912,Jalan terdekat,-6.8911853,107.58147075,0,0
virtual_107.5902_-6.8961,Jalan Dr. Djunjunan,-6.8960883,107.5901962,0,0
virtual_107.5922_-6.8972,Jalan Dr. Djunjunan,-6.8971698,107.5921671,0,0
virtual_107.5944_-6.8990,Jalan Dr. Djunjunan,-6.8989736,107.5944451,0,0
virtual_107.5963_-6.9001,Jalan Dr. Djunjunan,-6.9001472,107.5963399,0,0
virtual_107.6022_-6.9048,Jalan terdekat,-6.904831533333333,107.60218573333334,0,0
virtual_107.6009_-6.9038,Jalan terdekat,-6.903750733333333,107.6009419,0,0
virtual_107.5806_-6.8923,Jalan Sukaraja,-6.8923312,107.580577,0,0
virtual_107.5760_-6.8911,Jalan Sukaraja,-6.8911239,107.5759728,0,0
virtual_107.5744_-6.8938,Jalan Sukaraja,-6.8937597,107.5744352,0,0
virtual_107.5674_-6.8894,Jalan terdekat,-6.889401100000001,107.56739590000001,0,0
virtual_107.5721_-6.8903,Jalan terdekat,-6.890264416666667,107.57205463333334,0,0
virtual_107.5726_-6.8934,Jalan terdekat,-6.8933738,107.57260293333334,0,0
virtual_107.5749_-6.8929,Jalan terdekat,-6.89288905,107.57491160000001,0,0
virtual_107.5765_-6.8912,Jalan terdekat,-6.8911574,107.5765446,0,0
virtual_107.5805_-6.8923,Jalan terdekat,-6.892304866666667,107.58050991666667,0,0
virtual_107.5989_-6.9002,Jalan Pasteur,-6.9002096,107.5988968,0,0
virtual_107.6043_-6.9025,Jalan terdekat,-6.90253125,107.60432449999999,0,0
virtual_107.6076_-6.9076,Jalan terdekat,-6.90758495,107.60755639999999,0,0
3874166202,Terminal Margahayu Raya,-6.9465292,107.6626652,0,0
virtual_107.6634_-6.9438,Jalan terdekat,-6.9438151999999995,107.66339793333334,0,0
virtual_107.6636_-6.9417,Jalan terdekat,-6.9417203333333335,107.66364423333333,0,0
virtual_107.6424_-6.9365,Jalan terdekat,-6.936484549999999,107.6423999125,0,0
virtual_107.6426_-6.9345,Jalan terdekat,-6.934525525,107.64256937500001,0,0
virtual_107.6439_-6.9308,Jalan terdekat,-6.93079895,107.64386114999999,0,0
virtual_107.6440_-6.9293,Jalan terdekat,-6.9292547125,107.6440479875,0,0
virtual_107.6444_-6.9275,Jalan terdekat,-6.92751525,107.6443512,0,0
12947493611,Graha Pos,-6.9061429,107.6173359,0,0
virtual_107.5975_-6.8764,Jalan terdekat,-6.87637342,107.59751984,0,0
virtual_107.5980_-6.8787,Jalan terdekat,-6.87869912,107.5979991,0,0
virtual_107.5991_-6.8810,Jalan terdekat,-6.8809717599999995,107.59913386000001,0,0
virtual_107.6012_-6.8846,Jalan terdekat,-6.88461486,107.60117072,0,0
29379224,Jl. Jurang,-6.8873092,107.6005647,0,0
virtual_107.5998_-6.8902,Jalan terdekat,-6.890232366666667,107.5998262,0,0
virtual_107.6077_-6.9062,Jalan Wastukencana,-6.9061802,107.6077494,0,0
12947493608,Rumah Sakit Sariningsih,-6.9070444,107.6114489,0,0
12819940053,Riau Junction,-6.9070609,107.6116695,0,0
12947493609,RSGM Kota Bandung,-6.9064746,107.6144094,0,0
12947493610,Heritage,-6.9061407,107.6173687,0,0
2670043322,TK Taruna Bakti,-6.905928,107.6195027,0,0
12809507145,Seberang Pengadilan Negeri Bandung,-6.9062923,107.6220004,0,0
3375793684,Pusdiklat PU,-6.9069596,107.6228683,0,0
12947493615,Riau Serayu,-6.9090547,107.6250154,0,0
virtual_107.6442_-6.9179,Jalan terdekat,-6.917859114285714,107.64417121428572,0,0
virtual_107.6443_-6.9196,Jalan terdekat,-6.919630928571428,107.64426224285714,0,0
virtual_107.6445_-6.9267,Jalan terdekat,-6.9266509,107.64450785714286,0,0
virtual_107.6638_-6.9404,Jalan terdekat,-6.940442,107.6637949,0,0
virtual_107.6636_-6.9427,Jalan Rancabolang,-6.9427353,107.6636111,0,0
virtual_107.6631_-6.9452,Jalan terdekat,-6.94523565,107.6631195,0,0
1664514926,Terminal Riung Bandung,-6.9493701,107.6832703,0,0
virtual_107.6822_-6.9436,Jalan terdekat,-6.943608719999999,107.68223582,0,0
virtual_107.6789_-6.9426,Jalan terdekat,-6.94261212,107.67891816,0,0
virtual_107.6773_-6.9403,Jalan terdekat,-6.94030194,107.67725406,0,0
virtual_107.6349_-6.9143,Jalan Jakarta,-6.9143394,107.634859,0,0
virtual_107.6300_-6.9158,Jalan terdekat,-6.9158406999999995,107.6300046,0,0
virtual_107.6271_-6.9138,Jalan Anggrek,-6.91382,107.627082,0,0
virtual_107.6216_-6.9119,Jalan Patra Komala,-6.9119057,107.6215838,0,0
virtual_107.6202_-6.9116,Jalan Menado,-6.9116215,107.6202457,0,0
virtual_107.6176_-6.9114,Jalan Banda,-6.9114486,107.6175917,0,0
virtual_107.6167_-6.9043,Jalan Banda,-6.9042651,107.6166779,0,0
virtual_107.6169_-6.9018,Jalan Cilamaya,-6.9017889,107.6168987,0,0
virtual_107.6162_-6.8994,Jalan Aria Jipang,-6.8994129,107.6162456,0,0
virtual_107.6139_-6.8853,Jalan terdekat,-6.88531132,107.61392398000001,0,0
virtual_107.6141_-6.8838,Jalan terdekat,-6.88382402,107.61408086,0,0
virtual_107.6160_-6.8810,Jalan terdekat,-6.88102122,107.6159909,0,0
virtual_107.6173_-6.8774,Jalan terdekat,-6.87736774,107.61729798,0,0
3373712063,Dago Pojok,-6.8745002,107.6190216,0,0
virtual_107.6199_-6.8722,Jalan Ir. H. Djuanda,-6.872166,107.6198987,0,0
virtual_107.6202_-6.8701,Jalan Ir. H. Djuanda,-6.8701301,107.620227,0,0
12819940048,Taman Budaya,-6.8682321,107.6205719,0,0
virtual_107.6193_-6.8994,Jalan terdekat,-6.8994454,107.61934869999999,0,0
3375793685,Taman Pramuka,-6.9105798,107.6265967,0,0
virtual_107.6280_-6.9120,Jalan terdekat,-6.91195435,107.62800544999999,0,0
virtual_107.6296_-6.9148,Jalan terdekat,-6.9148079,107.6296234,0,0
virtual_107.6773_-6.9401,Jalan Cipamokolan,-6.9401488,107.677261,0,0
virtual_107.6826_-6.9436,Jalan terdekat,-6.9435781,107.682605,0,0
virtual_107.6837_-6.9466,Jalan terdekat,-6.9466331,107.6836756,0,0
virtual_107.5820_-6.9409,Jalan terdekat,-6.940927680000001,107.58203186,0,0
virtual_107.5808_-6.9393,Jalan terdekat,-6.939281299999999,107.58079448,0,0
virtual_107.5795_-6.9374,Jalan terdekat,-6.93737244,107.57948486,0,0
virtual_107.5779_-6.9351,Jalan terdekat,-6.93505136,107.57792198,0,0
virtual_107.5760_-6.9306,Jalan Soekarno-Hatta,-6.9305942,107.5759903,0,0
13011497995,Simpang Tol Pasirkoja,-6.9298665,107.577385,0,0
virtual_107.5803_-6.9287,Jalan terdekat,-6.92874002,107.5803051,0,0
virtual_107.5843_-6.9272,Jalan terdekat,-6.92719456,107.58427468000001,0,0
virtual_107.5856_-6.9246,Jalan terdekat,-6.92464908,107.58561474,0,0
virtual_107.5884_-6.9142,Jalan terdekat,-6.914242333333333,107.58839013333333,0,0
virtual_107.5863_-6.9129,Jalan terdekat,-6.9129256,107.58627353333334,0,0
virtual_107.5980_-6.9134,Jalan HOS. Cokroaminoto,-6.9133911,107.598048,0,0
virtual_107.6093_-6.9064,Jalan terdekat,-6.906442266666667,107.60932506666667,0,0
virtual_107.6159_-6.8989,Jalan Surapati,-6.8989216,107.6158827,0,0
virtual_107.6321_-6.8928,Jalan terdekat,-6.892837992307692,107.63213393076923,0,0
virtual_107.6306_-6.8918,Jalan terdekat,-6.89177646923077,107.63064445384616,0,0
virtual_107.6300_-6.8880,Jalan terdekat,-6.888032769230769,107.6299728,0,0
virtual_107.6291_-6.8846,Jalan terdekat,-6.884571130769231,107.62913157692309,0,0
virtual_107.6277_-6.8822,Jalan terdekat,-6.882236561538462,107.62774018461538,0,0
virtual_107.6254_-6.8814,Jalan terdekat,-6.881437076923078,107.62544562307693,0,0
virtual_107.6236_-6.8768,Jalan terdekat,-6.876824107692308,107.62362928461539,0,0
virtual_107.6225_-6.8722,Jalan terdekat,-6.872206861538461,107.62246412307692,0,0
virtual_107.6248_-6.8671,Jalan terdekat,-6.867056923076923,107.62482337692308,0,0
virtual_107.6263_-6.8650,Jalan terdekat,-6.864964115384615,107.62629095384615,0,0
virtual_107.6250_-6.8633,Jalan terdekat,-6.863283307692308,107.62497580769231,0,0
virtual_107.6233_-6.8646,Jalan terdekat,-6.864614530769231,107.62326545384614,0,0
virtual_107.6214_-6.8657,Jalan terdekat,-6.865664033333333,107.62140946666666,0,0
virtual_107.6242_-6.8638,Jalan terdekat,-6.8638385,107.62418023333333,0,0
virtual_107.6264_-6.8640,Jalan Raya Golf,-6.8640049,107.6264111,0,0
virtual_107.6256_-6.8663,Jalan terdekat,-6.866329566666667,107.62564253333333,0,0
virtual_107.6229_-6.8709,Jalan terdekat,-6.8708978,107.62286333333334,0,0
virtual_107.6233_-6.8761,Jalan Cigadung Raya Barat,-6.876134,107.6232802,0,0
virtual_107.6248_-6.8804,Jalan terdekat,-6.8804023333333335,107.62483503333333,0,0
virtual_107.6275_-6.8823,Jalan terdekat,-6.882335733333333,107.6274643,0,0
virtual_107.6293_-6.8839,Jalan Cigadung Raya Tengah,-6.8839018,107.6292986,0,0
virtual_107.6300_-6.8878,Jalan terdekat,-6.8877819,107.6300081,0,0
virtual_107.6305_-6.8915,Jalan terdekat,-6.891465166666667,107.6305376,0,0
virtual_107.6348_-6.8961,Jalan Pahlawan,-6.8961255,107.6347529,0,0
virtual_107.6167_-6.8992,Jalan terdekat,-6.899171450000001,107.61669674999999,0,0
virtual_107.6093_-6.8992,Jalan terdekat,-6.89919755,107.6093227,0,0
virtual_107.6081_-6.9047,Jalan terdekat,-6.90470485,107.60807439999999,0,0
virtual_107.6073_-6.9076,Jalan Pajajaran,-6.9075859,107.6072754,0,0
virtual_107.5965_-6.9065,Jalan terdekat,-6.90653265,107.5965099,0,0
virtual_107.5927_-6.9076,Jalan Arjuna,-6.9075525,107.592661,0,0
2012970403,Arjuna/Bima,-6.9087296,107.5917888,0,0
virtual_107.5872_-6.9107,Jalan Komodor Udara Supadio,-6.9106635,107.5871952,0,0
virtual_107.5799_-6.9078,Jalan Komodor Udara Supadio,-6.9077503,107.5799239,0,0
virtual_107.5822_-6.9102,Jalan Ciroyom,-6.9102054,107.5821727,0,0
virtual_107.5902_-6.9165,Jalan terdekat,-6.916478140000001,107.59015144,0,0
virtual_107.5902_-6.9186,Jalan terdekat,-6.91860246,107.59020094,0,0
virtual_107.5870_-6.9188,Jalan terdekat,-6.91878008,107.58702837999999,0,0
virtual_107.5858_-6.9234,Jalan terdekat,-6.923422960000001,107.5858325,0,0
virtual_107.5835_-6.9276,Jalan terdekat,-6.9276017,107.5834832,0,0
virtual_107.5810_-6.9285,Jalan terdekat,-6.928548533333333,107.58104006666667,0,0
virtual_107.5775_-6.9342,Jalan terdekat,-6.9342187,107.57750876,0,0
virtual_107.5797_-6.9375,Jalan terdekat,-6.93746104,107.57966046,0,0
virtual_107.5806_-6.9388,Jalan terdekat,-6.9388250199999995,107.58059320000001,0,0
virtual_107.5816_-6.9403,Jalan terdekat,-6.94026624,107.58160032,0,0
3272542985,Puskesmas Kopo,-6.9462748,107.5892183,0,0
7484309659,Barat Simpang Kopo Caringin,-6.9467105,107.5879339,0,0
virtual_107.5855_-6.9462,Jalan Caringin,-6.9461921,107.5854608,0,0
virtual_107.5842_-6.9448,Jalan Babakan Ciparay,-6.9448211,107.5842417,0,0
3251007192,Pangkalan Angkot Panghegar,-6.9237417,107.6835707,0,0
12814754637,SMK YPF,-6.9206777,107.6842783,0,0
virtual_107.6849_-6.9186,Jalan terdekat,-6.91859536,107.68488822,0,0
virtual_107.6851_-6.9162,Jalan terdekat,-6.9162365800000005,107.68506456,0,0
virtual_107.6844_-6.9145,Jalan terdekat,-6.9145294,107.68438164,0,0
virtual_107.6833_-6.9131,Jalan terdekat,-6.9131095600000005,107.68327868,0,0
12814754622,Silver Kris,-6.909138,107.6844034,0,0
virtual_107.6821_-6.9055,Jalan Abdul Haris Nasution,-6.9055223,107.6821363,0,0
virtual_107.6802_-6.9051,Jalan Abdul Haris Nasution,-6.9051046,107.6802419,0,0
virtual_107.6778_-6.9048,Jalan Abdul Haris Nasution,-6.904799,107.677838,0,0
virtual_107.6705_-6.9042,Jalan terdekat,-6.904242016666666,107.67046673333334,0,0
virtual_107.6673_-6.9042,Jalan terdekat,-6.9041879,107.66729616666666,0,0
virtual_107.6654_-6.9040,Jalan terdekat,-6.9040152,107.66535725,0,0
virtual_107.6622_-6.9037,Jalan terdekat,-6.903665833333333,107.66217186666667,0,0
virtual_107.6600_-6.9023,Jalan terdekat,-6.902299683333333,107.66002613333333,0,0
5832221936,Depan Terminal Cicaheum,-6.9022123,107.6568007,0,0
virtual_107.6548_-6.9026,Jalan terdekat,-6.902646725,107.654762175,0,0
virtual_107.6512_-6.9045,Jalan terdekat,-6.904524,107.6511954,0,0
virtual_107.6496_-6.9054,Jalan terdekat,-6.9053539,107.649616375,0,0
virtual_107.6433_-6.9087,Jalan Jenderal Ahmad Yani,-6.9087293,107.6432893,0,0
virtual_107.6282_-6.9121,Jalan L.L. RE. Martadinata,-6.9121048,107.6281542,0,0
virtual_107.6211_-6.9046,Jalan terdekat,-6.904644333333334,107.62110195000001,0,0
virtual_107.6182_-6.9038,Jalan terdekat,-6.903782966666666,107.61817083333334,0,0
virtual_107.6166_-6.9014,Jalan terdekat,-6.901350600000001,107.61660005,0,0
virtual_107.6126_-6.9002,Jalan terdekat,-6.900228433333334,107.61257086666667,0,0
virtual_107.6086_-6.8945,Jalan Taman Sari,-6.8945355,107.6086077,0,0
12813237928,Lapangan Sipil,-6.8933731,107.6094774,0,0
2035856554,Gerbang Depan ITB,-6.8932466,107.6109077,0,0
12813237913,Ganesha Ciungwanara,-6.8936144,107.6121446,0,0
virtual_107.6131_-6.8924,Jalan Ir. H. Djuanda,-6.8923927,107.6130997,0,0
virtual_107.6157_-6.8917,Jalan Teuku Umar,-6.891705,107.6157035,0,0
12813237923,Masjid Salman,-6.8933595,107.611316,0,0
12813237926,Klinik Pratama ITB,-6.8933482,107.6095668,0,0
virtual_107.6095_-6.8995,Jalan terdekat,-6.899543899999999,107.6095019,0,0
virtual_107.6082_-6.9041,Jalan terdekat,-6.90412535,107.60817575,0,0
virtual_107.6169_-6.9069,Jalan Banda,-6.9069128,107.6169289,0,0
virtual_107.6171_-6.9201,Jalan terdekat,-6.9200710999999995,107.61707856666666,0,0
virtual_107.6243_-6.9187,Jalan Jenderal Ahmad Yani,-6.9187318,107.6243348,0,0
virtual_107.6424_-6.9091,Jalan terdekat,-6.909149,107.64235048,0,0
virtual_107.6457_-6.9074,Jalan terdekat,-6.907394,107.64572778,0,0
virtual_107.6474_-6.9065,Jalan terdekat,-6.90653888,107.64735160000001,0,0
virtual_107.6533_-6.9034,Jalan Jenderal Ahmad Yani,-6.903436,107.6532521,0,0
virtual_107.6551_-6.9020,Jalan PH. H. Mustofa,-6.9020243,107.6551401,0,0
virtual_107.6602_-6.9022,Jalan terdekat,-6.9022466,107.660220475,0,0
virtual_107.6615_-6.9035,Jalan terdekat,-6.903514299999999,107.661478,0,0
virtual_107.6640_-6.9039,Jalan terdekat,-6.9038685,107.66398579999999,0,0
virtual_107.6674_-6.9042,Jalan Abdul Haris Nasution,-6.9041911,107.6673559,0,0
virtual_107.6704_-6.9042,Jalan Abdul Haris Nasution,-6.9042415,107.6703958,0,0
virtual_107.6742_-6.9047,Jalan Abdul Haris Nasution,-6.9046579,107.6742142,0,0
virtual_107.6781_-6.9048,Jalan terdekat,-6.904828225,107.67807884999999,0,0
virtual_107.6806_-6.9052,Jalan terdekat,-6.90516055,107.6806373,0,0
virtual_107.6827_-6.9058,Jalan terdekat,-6.905761350000001,107.6826522,0,0
12814754624,Yuntex Raya,-6.9099636,107.6840757,0,0
virtual_107.6835_-6.9137,Jalan terdekat,-6.91367428,107.68353474,0,0
virtual_107.6847_-6.9155,Jalan terdekat,-6.91547486,107.6846995,0,0
virtual_107.6845_-6.9168,Jalan terdekat,-6.9168213000000005,107.6845063,0,0
virtual_107.6847_-6.9197,Jalan terdekat,-6.91970448,107.68472824,0,0
12814754639,K.H. Djunaedi,-6.922592,107.6839378,0,0
virtual_107.5963_-6.8788,Jalan Sukajadi,-6.8787501,107.5962832,0,0
virtual_107.5938_-6.8779,Jalan Sindang Sirna,-6.8778795,107.5937671,0,0
virtual_107.5923_-6.8780,Jalan Sindang Sirna,-6.8779914,107.5922854,0,0
virtual_107.5909_-6.8741,Jalan Cipedes Atas,-6.8741471,107.5909265,0,0
virtual_107.5902_-6.8724,Jalan Cipedes Atas,-6.872419,107.5902147,0,0
virtual_107.5906_-6.8704,Jalan Cipedes Atas,-6.8703531,107.590559,0,0
29357243,KPAD,-6.8685096,107.5860838,0,0
virtual_107.5842_-6.8682,Jalan Geger Kalong Hilir,-6.8682206,107.5841634,0,0
virtual_107.5826_-6.8697,Jalan Sari Endah Baru,-6.869724,107.5825654,0,0
virtual_107.5810_-6.8703,Jalan Sarijadi Raya,-6.8702619,107.581003,0,0
virtual_107.5805_-6.8729,Jalan Sarijadi Raya,-6.8728564,107.5804919,0,0
virtual_107.5800_-6.8748,Jalan Sarijadi Raya,-6.8747561,107.5800064,0,0
virtual_107.5778_-6.8774,Jalan Sarimanah,-6.8773821,107.5777637,0,0
virtual_107.5781_-6.8767,Jalan terdekat,-6.8766542,107.57809002857142,0,0
virtual_107.5801_-6.8745,Jalan terdekat,-6.8745461428571435,107.58010111428571,0,0
virtual_107.5807_-6.8721,Jalan terdekat,-6.872104385714286,107.58068322857143,0,0
virtual_107.5813_-6.8699,Jalan terdekat,-6.869854985714286,107.58132951428571,0,0
virtual_107.5823_-6.8679,Jalan terdekat,-6.867908685714285,107.58225915714286,0,0
virtual_107.5838_-6.8682,Jalan terdekat,-6.868151314285714,107.58384418571428,0,0
virtual_107.5906_-6.8701,Jalan terdekat,-6.870088633333333,107.5905966,0,0
virtual_107.5902_-6.8721,Jalan terdekat,-6.872128533333333,107.59019323333334,0,0
virtual_107.5906_-6.8741,Jalan Cipedes Atas,-6.8740679,107.5906282,0,0
virtual_107.5915_-6.8779,Jalan terdekat,-6.877890633333333,107.59151983333334,0,0
virtual_107.5948_-6.8772,Jalan terdekat,-6.877198566666667,107.59477913333333,0,0
12634504453,Karangsetra Waterland,-6.8790317,107.5951798,0,0
virtual_107.5962_-6.8809,Jalan Sirna Galih,-6.8809471,107.5962171,0,0
virtual_107.5994_-6.8814,Jalan Dokter Danudirja Setiabudhi,-6.8814326,107.5994309,0,0
virtual_107.6013_-6.8835,Jalan Dokter Setiabudi,-6.8834804,107.6013125,0,0
virtual_107.6013_-6.8875,Jalan Lamping,-6.8875212,107.601267,0,0
virtual_107.5995_-6.8911,Jalan Sederhana,-6.8910995,107.5995145,0,0
virtual_107.5987_-6.8960,Jalan terdekat,-6.896038000000001,107.59873235,0,0
virtual_107.5868_-6.9133,Jalan Layang Ciroyom,-6.9132636,107.5868348,0,0
virtual_107.5894_-6.9115,Jalan Arjuna,-6.9115203,107.5893946,0,0
3383508275,Komodor Supadio,-6.9094444,107.5841152,0,0
virtual_107.5795_-6.9075,Jalan terdekat,-6.90750364,107.57948415,0,0
virtual_107.5785_-6.9098,Jalan terdekat,-6.90979536,107.57847954,0,0
virtual_107.5770_-6.9162,Jalan terdekat,-6.9162314899999995,107.5770111,0,0
virtual_107.5745_-6.9173,Jalan terdekat,-6.91732022,107.57453186000001,0,0
virtual_107.5746_-6.9209,Jalan terdekat,-6.920872149999999,107.57459875,0,0
virtual_107.5754_-6.9263,Jalan terdekat,-6.92634888,107.57542434,0,0
virtual_107.5751_-6.9246,Jalan terdekat,-6.924612140000001,107.57505317,0,0
virtual_107.5747_-6.9262,Jalan terdekat,-6.92621976,107.5746735,0,0
virtual_107.5707_-6.9277,Jalan terdekat,-6.9277495,107.57073504,0,0
3252892639,Cijerah,-6.9266742,107.5657238,0,0
virtual_107.5650_-6.9305,Jalan terdekat,-6.9305213,107.56498450000001,0,0
virtual_107.5642_-6.9328,Jalan terdekat,-6.9328445,107.5641746,0,0
virtual_107.5617_-6.9319,Jalan terdekat,-6.9319158000000005,107.56165795,0,0
3110267088,Gempol Sari,-6.9299747,107.5580796,0,0
virtual_107.5560_-6.9287,Jalan Gempol,-6.9286918,107.5560146,0,0
virtual_107.5518_-6.9279,Jalan Dirgantara,-6.9278971,107.5517856,0,0
3385219353,Terminal Bumi Asri,-6.9324632,107.5508272,0,0
virtual_107.5517_-6.9281,Jalan terdekat,-6.9280501,107.55174424285714,0,0
virtual_107.5554_-6.9283,Jalan terdekat,-6.928317171428572,107.5554198,0,0
virtual_107.5577_-6.9297,Jalan terdekat,-6.929666428571428,107.55771297142857,0,0
virtual_107.5603_-6.9314,Jalan terdekat,-6.9313696,107.5603347,0,0
virtual_107.5641_-6.9329,Jalan terdekat,-6.932862157142858,107.56411667142858,0,0
virtual_107.5650_-6.9306,Jalan terdekat,-6.930555242857142,107.56497314285714,0,0
12809314934,Simpang Bojong Raya,-6.9268211,107.5661172,0,0
virtual_107.5698_-6.9277,Jalan terdekat,-6.9277444571428575,107.56981585714286,0,0
virtual_107.5734_-6.9277,Jalan terdekat,-6.927734500000001,107.57343261428572,0,0
virtual_107.5748_-6.9256,Jalan terdekat,-6.925589428571429,107.57479804285715,0,0
virtual_107.5748_-6.9231,Jalan terdekat,-6.923095314285715,107.57483491428572,0,0
virtual_107.5743_-6.9182,Jalan terdekat,-6.918172242857143,107.57430147142857,0,0
virtual_107.5811_-6.9144,Jalan Rajawali Timur,-6.9144359,107.5811424,0,0
virtual_107.5871_-6.9161,Jalan Rajawali Timur,-6.9161385,107.5871346,0,0
virtual_107.5896_-6.9164,Jalan Rajawali Timur,-6.9164063,107.5895623,0,0
virtual_107.5983_-6.9186,Jalan terdekat,-6.918621900000001,107.59827767142858,0,0
virtual_107.5985_-6.9214,Jalan terdekat,-6.921389057142857,107.59846878571429,0,0
virtual_107.5989_-6.9242,Jalan terdekat,-6.924151885714285,107.59892381428571,0,0
virtual_107.6003_-6.9280,Jalan terdekat,-6.927993385714285,107.60029074285714,0,0
virtual_107.6008_-6.9300,Jalan terdekat,-6.930037514285714,107.60075538571428,0,0
virtual_107.5969_-6.9313,Jalan terdekat,-6.931265657142857,107.59687947142857,0,0
12806717333,RS Imanuel Pintu Kopo,-6.9351264,107.5957871,0,0
virtual_107.5971_-6.9377,Jalan terdekat,-6.9376882,107.59711073333332,0,0
virtual_107.5995_-6.9375,Jalan terdekat,-6.937470766666666,107.59945733333333,0,0
virtual_107.6115_-6.9359,Jalan Mochammad Ramdhan,-6.9358756,107.6115373,0,0
virtual_107.6147_-6.9328,Jalan terdekat,-6.93277105,107.614706,0,0
2607816747,Simpang Pasar Palasari,-6.9304538,107.622579,0,0
12806717340,Aneka Jeans,-6.924329,107.6268157,0,0
12806717344,SPBU Laswi,-6.9236669,107.6279241,0,0
virtual_107.6290_-6.9228,Jalan terdekat,-6.9227911,107.62902983333333,0,0
virtual_107.6307_-6.9211,Jalan terdekat,-6.9210559,107.63070956666667,0,0
virtual_107.6265_-6.9177,Jalan terdekat,-6.91767435,107.62645775,0,0
12637510528,Stasiun Cikudapateuh,-6.9189956,107.6258024,0,0
virtual_107.6247_-6.9222,Jalan terdekat,-6.922191433333333,107.624719,0,0
virtual_107.6224_-6.9311,Jalan terdekat,-6.931142657142858,107.62238754285714,0,0
virtual_107.6205_-6.9344,Jalan terdekat,-6.934387157142857,107.62045608571428,0,0
virtual_107.6176_-6.9316,Jalan terdekat,-6.931628214285714,107.61764932857143,0,0
virtual_107.6152_-6.9322,Jalan terdekat,-6.932232642857143,107.6152014,0,0
virtual_107.6126_-6.9349,Jalan terdekat,-6.934908657142857,107.61264541428572,0,0
virtual_107.6032_-6.9374,Jalan terdekat,-6.9373502,107.60321326666667,0,0
virtual_107.5974_-6.9378,Jalan terdekat,-6.93781845,107.5974107,0,0
virtual_107.5959_-6.9345,Jalan terdekat,-6.934543000000001,107.59594638,0,0
virtual_107.5969_-6.9312,Jalan terdekat,-6.93122866,107.59689274,0,0
virtual_107.5981_-6.9272,Jalan terdekat,-6.92716118,107.59811338,0,0
virtual_107.5968_-6.9212,Jalan terdekat,-6.921225566666667,107.59677789999999,0,0
virtual_107.5939_-6.9209,Jalan terdekat,-6.920881366666667,107.59389623333333,0,0
virtual_107.5889_-6.9190,Jalan Jendral Sudirman,-6.9189911,107.5888501,0,0
virtual_107.5840_-6.9184,Jalan Jendral Sudirman,-6.9184165,107.5840062,0,0
virtual_107.5791_-6.9178,Jalan terdekat,-6.9178194,107.57905685,0,0
virtual_107.5747_-6.9173,Jalan Jendral Sudirman,-6.9173134,107.5747047,0,0
virtual_107.5709_-6.9136,Jalan Jendral Sudirman,-6.9135594,107.5708773,0,0
virtual_107.5718_-6.9116,Jalan terdekat,-6.911584666666666,107.57181813333334,0,0
virtual_107.5737_-6.9123,Jalan terdekat,-6.912318399999999,107.5736941,0,0
virtual_107.6077_-6.9225,Jalan terdekat,-6.922547633333333,107.6076954,0,0
virtual_107.6118_-6.9241,Jalan terdekat,-6.924058733333333,107.6117618,0,0
virtual_107.6138_-6.9275,Jalan Cikawao,-6.9275287,107.6138049,0,0
virtual_107.6171_-6.9302,Jalan Sadakeling,-6.9301863,107.61707,0,0
virtual_107.6233_-6.9338,Jalan terdekat,-6.933839833333333,107.6232995,0,0
virtual_107.6236_-6.9362,Jalan Pelajar Pejuang 45,-6.9362369,107.6235824,0,0
12986852693,Griya Buah Batu,-6.9412299,107.626856,0,0
virtual_107.6319_-6.9464,Jalan terdekat,-6.946449375,107.6318652,0,0
virtual_107.6377_-6.9523,Jalan terdekat,-6.9523402,107.6377482,0,0
virtual_107.6394_-6.9563,Jalan terdekat,-6.95627625,107.639393,0,0
virtual_107.6391_-6.9603,Jalan Buah Batu,-6.9602867,107.6391199,0,0
virtual_107.6387_-6.9619,Jalan Buah Batu,-6.9619483,107.6386966,0,0
6609327003,Cipagalo,-6.9657129,107.6378871,0,0
12808943892,Puskesmas Kujangsari A,-6.9647853,107.6380282,0,0
virtual_107.6386_-6.9619,Jalan Buah Batu,-6.961924,107.6385997,0,0
virtual_107.6392_-6.9591,Jalan Buah Batu,-6.9591283,107.6392259,0,0
virtual_107.6392_-6.9561,Jalan Buah Batu,-6.956081,107.6392458,0,0
virtual_107.6382_-6.9530,Jalan terdekat,-6.95301745,107.63824635,0,0
virtual_107.6349_-6.9496,Jalan terdekat,-6.9496138,107.63492933333333,0,0
12986852694,Seberang Griya Buah Batu,-6.9411196,107.6266613,0,0
1980592202,Seberang Selontongan,-6.9400594,107.6256577,0,0
virtual_107.6231_-6.9373,Jalan terdekat,-6.93734156,107.62306718,0,0
virtual_107.6192_-6.9333,Jalan terdekat,-6.93327288,107.61923721999999,0,0
virtual_107.6175_-6.9315,Jalan terdekat,-6.93151148,107.61745757999999,0,0
virtual_107.6076_-6.9225,Jalan terdekat,-6.9224801,107.6075532,0,0
virtual_107.6065_-6.9156,Jalan Banceuy,-6.9155971,107.6065461,0,0
29357939,Junction 8 Sukajadi,-6.8840134,107.596703,0,0
virtual_107.5984_-6.8838,Jalan terdekat,-6.88380912,107.5983897,0,0
virtual_107.5999_-6.8842,Jalan terdekat,-6.88416568,107.5999044,0,0
virtual_107.6017_-6.8849,Jalan terdekat,-6.884945940000001,107.60167136,0,0
virtual_107.6025_-6.8903,Jalan terdekat,-6.89026862,107.60246908,0,0
virtual_107.6002_-6.8963,Jalan terdekat,-6.8962647666666665,107.600196,0,0
virtual_107.5980_-6.8962,Jalan terdekat,-6.896169866666667,107.597992,0,0
virtual_107.5975_-6.9001,Jalan Pasir Kaliki,-6.9000574,107.5975127,0,0
virtual_107.6041_-6.9109,Jalan terdekat,-6.910893933333333,107.6040617,0,0
virtual_107.6046_-6.9145,Jalan terdekat,-6.914458833333333,107.60460646666667,0,0
virtual_107.5979_-6.8962,Jalan terdekat,-6.89621976,107.5979368,0,0
virtual_107.5975_-6.9000,Jalan terdekat,-6.9000446,107.59750197999999,0,0
virtual_107.6010_-6.9004,Jalan terdekat,-6.90035656,107.60103620000001,0,0
virtual_107.5975_-6.9006,Jalan terdekat,-6.900555,107.59750474,0,0
virtual_107.5906_-6.9071,Jalan Pajajaran,-6.9070791,107.5906383,0,0
virtual_107.5863_-6.9072,Jalan terdekat,-6.907181042857142,107.58631487142857,0,0
virtual_107.5808_-6.9076,Jalan terdekat,-6.907601942857142,107.58084544285714,0,0
virtual_107.5792_-6.9079,Jalan terdekat,-6.907949057142857,107.5791724,0,0
virtual_107.5779_-6.9126,Jalan terdekat,-6.912553328571429,107.57785798571429,0,0
virtual_107.5764_-6.9175,Jalan terdekat,-6.917525785714286,107.5763611142857,0,0
virtual_107.5742_-6.9173,Jalan terdekat,-6.917300600000001,107.57420488571428,0,0
virtual_107.5709_-6.9169,Jalan terdekat,-6.9169174,107.5708764,0,0
virtual_107.5700_-6.9198,Jalan Raya Cijerah,-6.9197761,107.570031,0,0
virtual_107.5688_-6.9218,Jalan terdekat,-6.9217823,107.56881645,0,0
virtual_107.5677_-6.9243,Jalan Raya Cijerah,-6.9242925,107.5676737,0,0
virtual_107.5660_-6.9260,Jalan terdekat,-6.92595775,107.56603195,0,0
3115995953,Cijerah,-6.927117,107.5648451,0,0
virtual_107.5639_-6.9257,Jalan terdekat,-6.9257207,107.5639271,0,0
1387999370,Puskesmas Melong Asih,-6.9239311,107.5628736,0,0
virtual_107.5638_-6.9255,Jalan terdekat,-6.9255173,107.5637956,0,0
virtual_107.5664_-6.9252,Jalan terdekat,-6.925240371428572,107.56637257142857,0,0
virtual_107.5679_-6.9239,Jalan terdekat,-6.923888057142857,107.56789501428571,0,0
virtual_107.5692_-6.9219,Jalan terdekat,-6.9218708285714285,107.56924655714286,0,0
virtual_107.5702_-6.9192,Jalan terdekat,-6.919215971428572,107.57021082857142,0,0
virtual_107.5710_-6.9161,Jalan terdekat,-6.9161180714285715,107.57101854285715,0,0
virtual_107.5702_-6.9125,Jalan terdekat,-6.912482542857142,107.57021987142858,0,0
virtual_107.5776_-6.9136,Jalan terdekat,-6.9135786,107.57762056666667,0,0
virtual_107.5788_-6.9086,Jalan terdekat,-6.908555733333333,107.5787647,0,0
virtual_107.5798_-6.9074,Jalan Abdul Rahman Saleh,-6.9074113,107.5797772,0,0
virtual_107.5853_-6.9073,Jalan terdekat,-6.9072723,107.58527866666667,0,0
virtual_107.5967_-6.9039,Jalan terdekat,-6.903946250000001,107.5967469,0,0
virtual_107.5974_-6.9017,Jalan HOS. Cokroaminoto,-6.9017168,107.5974213,0,0
virtual_107.5973_-6.8997,Jalan terdekat,-6.8996641,107.59733505,0,0
virtual_107.5973_-6.8980,Jalan Pasir Kaliki,-6.898017,107.597321,0,0
virtual_107.5983_-6.8955,Jalan terdekat,-6.89552195,107.59834244999999,0,0
virtual_107.5950_-6.8926,Jalan terdekat,-6.89263945,107.594978,0,0
virtual_107.5921_-6.8924,Jalan Sukagalih,-6.8923597,107.5921416,0,0
virtual_107.5888_-6.8931,Jalan terdekat,-6.8931379,107.5887551,0,0
virtual_107.5686_-6.8895,Jalan terdekat,-6.88950276,107.56859831999999,0,0
virtual_107.5643_-6.8893,Jalan terdekat,-6.88930736,107.564285,0,0
virtual_107.5626_-6.8919,Jalan terdekat,-6.8919211,107.56262076,0,0
virtual_107.5615_-6.8940,Jalan terdekat,-6.8939884199999995,107.56153456,0,0
1666231924,Pangkalan Angkot Cimindi,-6.8953145,107.5602213,0,0
virtual_107.5622_-6.8925,Jalan Gunung Batu,-6.8925303,107.5621967,0,0
virtual_107.5639_-6.8898,Jalan Gunung Batu,-6.8898285,107.5639108,0,0
virtual_107.5886_-6.8932,Jalan terdekat,-6.89319622,107.58859066000001,0,0
virtual_107.5904_-6.8927,Jalan terdekat,-6.89267942,107.59035852,0,0
virtual_107.5937_-6.8925,Jalan terdekat,-6.8925452,107.59368334,0,0
virtual_107.6707_-6.9619,Jalan terdekat,-6.9618581299999995,107.67072329,0,0
virtual_107.6727_-6.9637,Jalan terdekat,-6.96366914,107.67274992,0,0
virtual_107.6765_-6.9635,Jalan terdekat,-6.96345412,107.6765299,0,0
virtual_107.6774_-6.9578,Jalan terdekat,-6.9578025199999995,107.67741358,0,0
virtual_107.6775_-6.9553,Jalan terdekat,-6.95528075,107.6775478,0,0
virtual_107.6765_-6.9517,Jalan terdekat,-6.95165246,107.67650358,0,0
virtual_107.6762_-6.9470,Jalan terdekat,-6.94703644,107.67615524,0,0
virtual_107.6762_-6.9439,Jalan terdekat,-6.943897659999999,107.67615814,0,0
virtual_107.6772_-6.9418,Jalan terdekat,-6.94183807,107.67718451,0,0
virtual_107.6777_-6.9359,Jalan terdekat,-6.935855766666667,107.67769816666667,0,0
virtual_107.6792_-6.9346,Jalan terdekat,-6.934648325,107.6791806,0,0
virtual_107.6793_-6.9329,Jalan terdekat,-6.9328967666666665,107.67931893333333,0,0
virtual_107.6807_-6.9292,Jalan terdekat,-6.9291842,107.68072235833333,0,0
virtual_107.6829_-6.9265,Jalan terdekat,-6.92649185,107.6828697,0,0
virtual_107.6839_-6.9231,Jalan terdekat,-6.923061158333334,107.68387291666667,0,0
virtual_107.6849_-6.9165,Jalan terdekat,-6.91647865,107.68491259999999,0,0
virtual_107.6831_-6.9129,Jalan terdekat,-6.912857225,107.6830831,0,0
virtual_107.6879_-6.9081,Jalan terdekat,-6.9080902,107.68789888571429,0,0
virtual_107.6889_-6.9093,Jalan terdekat,-6.909303057142857,107.68890408571428,0,0
virtual_107.6911_-6.9121,Jalan terdekat,-6.912111971428572,107.69109707142857,0,0
virtual_107.6939_-6.9131,Jalan terdekat,-6.913122171428571,107.69389558571429,0,0
virtual_107.6982_-6.9141,Jalan terdekat,-6.914063014285714,107.69818872857144,0,0
11079993716,Ujungberung,-6.9140461,107.7028132,0,0
virtual_107.6994_-6.9141,Jalan terdekat,-6.914112033333334,107.69941689999999,0,0
virtual_107.6930_-6.9128,Jalan terdekat,-6.912848374999999,107.693042175,0,0
virtual_107.6907_-6.9117,Jalan terdekat,-6.91173885,107.69073225,0,0
virtual_107.6890_-6.9095,Jalan terdekat,-6.9094862,107.689021,0,0
virtual_107.6832_-6.9130,Jalan terdekat,-6.9130107,107.683217,0,0
virtual_107.6851_-6.9163,Jalan terdekat,-6.9162749,107.685054,0,0
virtual_107.6848_-6.9190,Jalan terdekat,-6.919037366666666,107.68482780000001,0,0
virtual_107.6839_-6.9222,Jalan terdekat,-6.922172733333333,107.68391100000001,0,0
virtual_107.6835_-6.9244,Jalan Cinambo,-6.9244192,107.6834604,0,0
virtual_107.6825_-6.9277,Jalan terdekat,-6.9276789333333335,107.6824558,0,0
virtual_107.6801_-6.9292,Jalan terdekat,-6.9291699,107.68012856666667,0,0
virtual_107.6793_-6.9330,Jalan Cisaranten Kulon,-6.9330295,107.6792872,0,0
virtual_107.6792_-6.9345,Jalan terdekat,-6.934466166666667,107.67923,0,0
virtual_107.6779_-6.9356,Jalan terdekat,-6.9356246,107.6778904,0,0
virtual_107.6772_-6.9408,Jalan Cipamokolan,-6.9407701,107.6772327,0,0
virtual_107.6766_-6.9437,Jalan Cipamokolan,-6.9437069,107.6766118,0,0
virtual_107.6762_-6.9468,Jalan Cipamokolan,-6.9468368,107.6761624,0,0
virtual_107.6765_-6.9511,Jalan terdekat,-6.9511028,107.6764984,0,0
virtual_107.6774_-6.9576,Jalan terdekat,-6.9576215,107.6774369,0,0
virtual_107.6765_-6.9632,Jalan terdekat,-6.963187,107.6765245,0,0
virtual_107.6708_-6.9619,Jalan Marga Cinta,-6.9618635,107.6707571,0,0
11313188130,Pusdiklat Geologi Cisitu,-6.8796599,107.6120393,0,0
virtual_107.6116_-6.8833,Jalan terdekat,-6.8832582,107.61161223333333,0,0
virtual_107.6023_-6.9173,Jalan Dulatip,-6.9173444,107.6022556,0,0
virtual_107.5984_-6.9211,Jalan terdekat,-6.9211097666666666,107.59844043333334,0,0
virtual_107.6006_-6.9234,Jalan terdekat,-6.923442133333333,107.6005516,0,0
virtual_107.6035_-6.9303,Jalan terdekat,-6.9303412,107.6034743,0,0
3246190447,Terminal Tegallega,-6.9338128,107.6027695,0,0
virtual_107.6020_-6.9320,Jalan terdekat,-6.9320079,107.60203455,0,0
29392595,UNISBA,-6.9043332,107.6081315,0,0
virtual_107.6083_-6.9018,Jalan terdekat,-6.9017783,107.60829203333334,0,0
12813184472,Sangkuriang,-6.8843045,107.6116232,0,0
virtual_107.6117_-6.8828,Jalan Cisitu Lama,-6.8828184,107.6117077,0,0
3115112896,Mesjid Jami Al Hamidah Cibolerang,-6.9487566,107.565655,0,0
virtual_107.5722_-6.9502,Jalan terdekat,-6.950228166666667,107.57222723333334,0,0
virtual_107.5757_-6.9509,Jalan terdekat,-6.9509267,107.5757251,0,0
virtual_107.5774_-6.9517,Jalan Cibolerang,-6.9517132,107.5774189,0,0
virtual_107.5787_-6.9522,Jalan terdekat,-6.952219066666667,107.57874993333333,0,0
virtual_107.5803_-6.9528,Jalan terdekat,-6.952756,107.58030143333333,0,0
virtual_107.5818_-6.9529,Jalan Cibolerang,-6.9528734,107.5818003,0,0
virtual_107.5851_-6.9525,Jalan terdekat,-6.952516033333333,107.58511213333333,0,0
virtual_107.5870_-6.9497,Jalan terdekat,-6.949672933333333,107.5869658,0,0
virtual_107.5842_-6.9458,Jalan terdekat,-6.94580005,107.58416980000001,0,0
virtual_107.5893_-6.9454,Jalan Soekarno-Hatta,-6.9453679,107.5893173,0,0
virtual_107.5908_-6.9440,Jalan Kyai Haji Wahid Hasyim,-6.9439758,107.590768,0,0
virtual_107.5919_-6.9421,Jalan Kyai Haji Wahid Hasyim,-6.9420837,107.59192,0,0
virtual_107.6128_-6.9377,Jalan terdekat,-6.93773866,107.61276222,0,0
virtual_107.6180_-6.9380,Jalan terdekat,-6.93800926,107.61800081999999,0,0
virtual_107.6203_-6.9380,Jalan terdekat,-6.93797762,107.62034914,0,0
virtual_107.6402_-6.9541,Jalan terdekat,-6.95405968,107.6402156,0,0
virtual_107.6419_-6.9544,Jalan terdekat,-6.95442182,107.64187074,0,0
virtual_107.6447_-6.9548,Jalan terdekat,-6.95482066,107.6446832,0,0
virtual_107.6728_-6.9629,Jalan terdekat,-6.962874090909091,107.67277817272728,0,0
virtual_107.6673_-6.9614,Jalan terdekat,-6.961355736363636,107.66729099090908,0,0
virtual_107.6655_-6.9608,Jalan terdekat,-6.960803136363636,107.66554408181818,0,0
virtual_107.6603_-6.9593,Jalan terdekat,-6.959291036363636,107.66028464545454,0,0
virtual_107.6626_-6.9601,Jalan terdekat,-6.960129509090909,107.66261930909091,0,0
virtual_107.6552_-6.9558,Jalan terdekat,-6.955821290909091,107.65520667272727,0,0
virtual_107.6577_-6.9580,Jalan terdekat,-6.9580497,107.65766362727273,0,0
virtual_107.6491_-6.9552,Jalan Marga Cinta,-6.955179,107.64905,0,0
virtual_107.6418_-6.9544,Jalan Marga Cinta,-6.9544023,107.6417609,0,0
virtual_107.6406_-6.9528,Jalan Terusan Kiara Condong,-6.9527909,107.6405809,0,0
virtual_107.6415_-6.9481,Jalan Terusan Kiara Condong,-6.9481416,107.6415292,0,0
virtual_107.6197_-6.9382,Jalan terdekat,-6.938176133333333,107.61969520000001,0,0
virtual_107.6182_-6.9381,Jalan terdekat,-6.9381387000000005,107.61818626666667,0,0
virtual_107.6161_-6.9380,Jalan BKR,-6.9380178,107.6160946,0,0
virtual_107.6127_-6.9378,Jalan terdekat,-6.937836533333333,107.61273783333333,0,0
virtual_107.5968_-6.9389,Jalan terdekat,-6.93886268,107.59683268,0,0
virtual_107.5965_-6.9415,Jalan terdekat,-6.94149476,107.5964606,0,0
virtual_107.5957_-6.9442,Jalan terdekat,-6.94421568,107.59570538,0,0
virtual_107.5953_-6.9470,Jalan terdekat,-6.94704312,107.59528528,0,0
virtual_107.5864_-6.9505,Jalan Kyai Haji Wahid Hasyim,-6.9505347,107.5863853,0,0
virtual_107.5836_-6.9533,Jalan Cibolerang,-6.9532962,107.5836405,0,0
virtual_107.5808_-6.9528,Jalan Cibolerang,-6.9528288,107.5808099,0,0
virtual_107.5776_-6.9520,Jalan Cibolerang,-6.9519784,107.5775656,0,0
