stop_id,stop_name,stop_lat,stop_lon,location_type,wheelchair_boarding
10314211362,Padalarang,-6.8434759,107.4978557,0,0
7835804492,Gadobangkong,-6.8653045,107.5154562,0,0
3370786092,Cimahi,-6.8865383,107.5366775,0,0
3370786794,Cimindi,-6.8965475,107.5617886,0,0
3370786798,Ciroyom,-6.9140765,107.5913716,0,0
10312881283,Bandung,-6.9145291,107.6031495,0,0
1228645053,Cikudapateuh,-6.9190287,107.6268971,0,0
11549081619,Kiaracondong,-6.9254604,107.6474712,0,0
11549081662,Gedebage,-6.9411554,107.6905412,0,0
10694286157,Cimekar,-6.9492676,107.7129671,0,0
10693253652,Rancaekek,-6.9651313,107.7564447,0,0
10693478235,Haurpugur,-6.9808307,107.7998788,0,0
11407574339,Cicalengka,-6.9821908,107.8330738,0,0
11407574341,Cicalengka,-6.981035,107.8320912,0,0
6872615131,Haurpugur,-6.9802356,107.7983447,0,0
10693253653,Rancaekek,-6.9646056,107.7553737,0,0
10694286156,Cimekar,-6.9486453,107.7113976,0,0
11549081663,Gedebage,-6.940438,107.6888097,0,0
11549081621,Kiaracondong,-6.9247723,107.6456051,0,0
7835805289,Cikudapateuh,-6.9185947,107.625378,0,0
10694245344,Bandung,-6.9144562,107.6013653,0,0
10693460291,Ciroyom,-6.9139018,107.5896798,0,0
291546102,Cimindi,-6.8956811,107.5606244,0,0
11546259370,Cimahi,-6.8849429,107.5353528,0,0
3468494606,Gadobangkong,-6.8637207,107.514805,0,0
10693460257,Padalarang,-6.8424481,107.4968441,0,0
10693460258,Padalarang,-6.8424956,107.4968046,0,0
11755899803,Cicalengka,-6.980985,107.8321466,0,0
1227216840,Padalarang,-6.8423863,107.4969052,0,0
11432455980,Cilame,-6.8032048,107.4629178,0,0
10694595318,Sasaksaat,-6.7790843,107.4314942,0,0
3352316735,Maswati,-6.7608275,107.4080713,0,0
10694595366,Rendeh,-6.7359973,107.3978666,0,0
10314211393,Cikadongdong,-6.7151762,107.3903795,0,0
10314211390,Plered,-6.6402782,107.3913512,0,0
10698993414,Sukatani,-6.6105348,107.4086071,0,0
10698966829,Ciganea,-6.5737471,107.4309483,0,0
10698921283,Purwakarta,-6.5525636,107.4464512,0,0
12063631330,Purwakarta,-6.553856,107.447082,0,0
10698966828,Ciganea,-6.5729485,107.4301051,0,0
10694595400,Sukatani,-6.6111493,107.4083066,0,0
10314211391,Plered,-6.6416537,107.3912649,0,0
10314211392,Cikadongdong,-6.715896,107.3913369,0,0
3448590009,Rendeh,-6.7365152,107.3993095,0,0
10694595345,Maswati,-6.760778,107.4093454,0,0
10694595317,Sasaksaat,-6.78052,107.4321188,0,0
11432455981,Cilame,-6.8036184,107.4645349,0,0
10314211366,Padalarang,-6.8435633,107.4980668,0,0
11874360196,Cicalengka,-6.9821038,107.8331166,0,0
9961298138,Nagreg,-7.0187312,107.8872319,0,0
535300018,Leles,-7.0849971,107.8998538,0,0
7206399183,Karangsari,-7.0988099,107.931297,0,0
10694286200,Leuwigoong,-7.1028395,107.9587146,0,0
10314211373,Cibatu,-7.0997162,107.9803328,0,0
9961235587,Pasirjengkol,-7.1291772,107.9922967,0,0
9961258726,Wanaraja,-7.1658406,107.9762771,0,0
10694286203,Garut,-7.2134006,107.9023164,0,0
11871903351,Garut,-7.2134704,107.905318,0,0
9961258724,Wanaraja,-7.1640756,107.9770777,0,0
10694286202,Pasirjengkol,-7.1273374,107.9925883,0,0
7205156020,Cibatu,-7.1002693,107.9787295,0,0
10694286201,Leuwigoong,-7.1038719,107.9575344,0,0
7206401686,Karangsari,-7.0974245,107.9308109,0,0
9961298076,Leles,-7.0838873,107.8997164,0,0
11874360195,Nagreg,-7.0178472,107.8854353,0,0
3277886379,Terminal Leuwipanjang,-6.9458452,107.5932425,0,0
12626357384,Hotel Grand Pasundan,-6.9360768,107.5934112,0,0
12626357385,Bumi Kopo Kencana,-6.933574,107.5905268,0,0
12626357386,Festival Citylink,-6.9291184,107.5872624,0,0
12626357387,Simpang Pasir Koja,-6.9270511,107.5849563,0,0
12626357388,SPBU Pasir Koja,-6.9292122,107.5793217,0,0
12626357389,Hotel Soreang A,-7.0141236,107.5309483,0,0
12626357390,Mall Pelayanan Publik,-7.0206847,107.5292319,0,0
12626357392,Plaza Pemkab Bandung,-7.0234041,107.5303409,0,0
12626357393,Simpang Desa Soreang,-7.0287904,107.5287745,0,0
12626357394,Pasar Ikan Modern,-7.0305108,107.5412986,0,0
12626357395,RSUD Otto Iskandar Dinata,-7.0273253,107.5425246,0,0
12626357396,Samsat Soreang,-7.0218422,107.5416105,0,0
12626357397,Geo Dipa Energi,-7.0154748,107.5363125,0,0
12626357383,Hotel Soreang B,-7.0141857,107.530779,0,0
12626357398,Sumber Sari Junction,-6.9323901,107.576671,0,0
12626357399,Pasar Induk Caringin,-6.9419015,107.5831212,0,0
11295303565,Leuwipanjang Soekarno Hatta,-6.9468277,107.5934341,0,0
11955383183,IKEA Kota Baru Parahyangan,-6.8663512,107.4668097,0,0
12143596539,Wahoo Waterworld,-6.8655811,107.4654195,0,0
11955383184,Parahyangan Timur,-6.8663744,107.4712124,0,0
11955383185,Rumah Sakit Cahaya Kawaluyaan,-6.8665328,107.4734039,0,0
11955383187,Masjid Al Irsyad,-6.8648529,107.4783521,0,0
11955383188,Tatar Wangsakerta A,-6.8619949,107.4805786,0,0
11955383190,Bale Pare A,-6.8568342,107.4897438,0,0
11536873492,Stasiun Kereta Cepat Padalarang,-6.8428228,107.4966418,0,0
11953710372,STEI LPPM A,-6.8573652,107.4986651,0,0
5287090695,RS Karisma Cimareme A,-6.8629469,107.5028237,0,0
5348536065,RS IMC A,-6.8633262,107.5098225,0,0
9908476904,Masjid Ar Ridwan A,-6.8675906,107.5190095,0,0
11954137035,Padasuka Indah A,-6.8685422,107.5263898,0,0
11954137037,Ranca Belut A,-6.8688013,107.5319386,0,0
11954137039,PLN Cisangkan A,-6.8704221,107.5363908,0,0
10680256969,BRI Cimahi,-6.8748788,107.5442734,0,0
11954552709,RSUD Cibabat A,-6.8797123,107.5503819,0,0
11954552711,Dinas Sosial,-6.8859958,107.5542851,0,0
11954552713,Jalan Budi,-6.8921818,107.5580359,0,0
11954552722,SMAN 13 Bandung A,-6.9033346,107.5648032,0,0
11954552728,Paledang,-6.905851,107.5663258,0,0
11711326971,Rajawali Barat,-6.9109306,107.5701462,0,0
11711326972,Plaza Telkom Rajawali,-6.9129722,107.5753653,0,0
11735239264,Rajawali 1,-6.9137773,107.5781901,0,0
11735239266,Dunguscariang,-6.9149105,107.5828928,0,0
11735239268,SMA Trinitas,-6.9165436,107.5917121,0,0
11735248671,Rumah Sakit Kebon Jati,-6.9163694,107.5966005,0,0
11735248674,SMA Pasundan,-6.9162422,107.599627,0,0
11711326974,Perintis Kemerdekaan,-6.9140241,107.607935,0,0
1849525838,Lembong,-6.916445,107.609811,0,0
11711275743,Alun-Alun Bandung,-6.9211653,107.6071455,0,0
11711275750,KEB Hana Bank,-6.9205571,107.6020569,0,0
11711275748,GKI Anugerah,-6.9200243,107.597515,0,0
11711275755,Mayapada Tower,-6.9193345,107.591747,0,0
11711275757,Toko Ambon,-6.9186067,107.5855198,0,0
11711275763,Kemenag Kanwil Jabar,-6.9176018,107.5771136,0,0
2604179157,Optik Krida,-6.9155598,107.5720549,0,0
11711326969,Sudirman 3,-6.9115004,107.5696333,0,0
11954552729,Kebon Kopi,-6.9063062,107.5664877,0,0
11954552723,SMAN 13 Bandung B,-6.9033981,107.5647281,0,0
11954552712,Cilembar,-6.8923353,107.5579997,0,0
11954552710,RS Mitra Kasih,-6.8837408,107.5528472,0,0
10680256973,RSUD Cibabat B,-6.8796404,107.5503366,0,0
10680256972,SMPN 6 Cimahi,-6.8772766,107.5452289,0,0
10680256971,Gedung 4,-6.8799337,107.5417036,0,0
11954552707,Buana,-6.8759934,107.5406762,0,0
10680256963,PLN Cisangkan B,-6.8704594,107.5364884,0,0
10680256961,Ranca Belut B,-6.8687794,107.531878,0,0
10680256959,Padasuka Indah B,-6.8684195,107.5260715,0,0
11953710374,Masjid Ar Ridwan B,-6.8676288,107.5191264,0,0
10680256956,RS IMC B,-6.8634203,107.5100491,0,0
10680256954,RS Karisma Cimareme B,-6.8630015,107.502934,0,0
11953710371,STEI LPPM B,-6.8574856,107.4986734,0,0
10680256950,Bale Pare B,-6.8567205,107.4901266,0,0
11955383189,Tatar Wangsakerta B,-6.8612441,107.4815775,0,0
12143596541,Parahyangan Utara B,-6.865168,107.4782844,0,0
11955383186,Tatar Pitaloka (Parahyangan Selatan),-6.8665457,107.4738005,0,0
11871901023,Baleendah,-7.0067058,107.6261375,0,0
2477247661,Masjid Al-Amanah,-7.0059605,107.6287137,0,0
12626499677,Matahari Land,-7.0040341,107.6312603,0,0
12626499678,Masjid Jami' Baitul Huda A,-7.0002118,107.6318753,0,0
12626499680,Bubur Ayam H. Amid,-6.9946948,107.6308112,0,0
12626499683,Borma Bojongsoang,-6.984586,107.6330944,0,0
12626499685,SD Negeri Lengkong,-6.9763963,107.6352127,0,0
12626499686,Puskesmas Bojongsoang,-6.9676213,107.6374709,0,0
12626499690,Bluebird A,-6.9576866,107.639482,0,0
35138340,Pasar Kordon A,-6.9541863,107.638933,0,0
12626499693,JAPNAS,-6.9512022,107.6364761,0,0
2614138793,Medal Sekarwangi,-6.9484371,107.6323136,0,0
12626499697,Bangunan Mart A,-6.9494451,107.6281496,0,0
12626499700,LPKIA A,-6.9495008,107.6242225,0,0
3384018111,PT LEN Industri A,-6.9490929,107.6190348,0,0
12626529703,PLN UP3 Bandung A,-6.9485877,107.612094,0,0
11739021648,TK Kemala Bhayangkari,-6.9453744,107.608407,0,0
11707031622,Sekolah Ganesha,-6.9390693,107.6063015,0,0
5355897678,Taman Tegalega 3,-6.9365596,107.6062815,0,0
11883812981,SDN Moh. Toha,-6.9301452,107.6067877,0,0
12626529705,ITC Kebon Kalapa,-6.926739,107.6059915,0,0
11898859975,Grand Yogya Kepatihan,-6.9238597,107.606261,0,0
12626529706,Banceuy,-6.9187122,107.6066404,0,0
11262097619,Stasiun Timur,-6.9153572,107.604546,0,0
293384756,Stasiun Bandung,-6.9125954,107.6029303,0,0
11739021629,SMAN 6 Bandung,-6.9114098,107.5979188,0,0
11138593915,SDN Pajajaran,-6.906861,107.599992,0,0
11739021630,STHB (Sekolah Tinggi Hukum Bandung),-6.9064803,107.6044125,0,0
5825243776,Bandung Electronic Center,-6.9081456,107.6093744,0,0
3376669066,Museum Kota Bandung,-6.9101076,107.6097021,0,0
11739021637,Merdeka,-6.9125343,107.6104548,0,0
11739021639,Toko Mas ABC,-6.9230192,107.6039434,0,0
11739021641,Simpang Ijan,-6.9280445,107.6036329,0,0
11739021644,Taman Tegallega,-6.9339734,107.603223,0,0
11707031623,Muhammad Toha 1 (PT INTI A),-6.939027,107.6062885,0,0
11739021649,Madurasa Tengah,-6.945205,107.6083491,0,0
3272360374,PLN UP3 Bandung B,-6.9484924,107.6121553,0,0
3384018110,PT LEN Industri B,-6.9489877,107.619152,0,0
12626499699,LPKIA B,-6.9494301,107.6248137,0,0
12626499698,Bangunan Mart B,-6.9493306,107.6280918,0,0
12626499695,Taman Buah Batu,-6.9484693,107.6339239,0,0
12626499694,Swadarma BNI,-6.9503784,107.6357751,0,0
12626499692,Pasar Kordon B,-6.9534876,107.6387006,0,0
12626499689,Bluebird B,-6.9584038,107.6394982,0,0
12626499688,Puskesmas Kujangsari B,-6.9649573,107.6381038,0,0
12626499687,Transmart Buahbatu,-6.9671846,107.6375686,0,0
549740249,Permata Buah Batu,-6.9729226,107.6361478,0,0
11950910945,Podomoro,-6.9749692,107.6355974,0,0
12626499684,AHASS,-6.981957,107.6339127,0,0
12626499682,Griya Bandung Asri,-6.9857289,107.6328659,0,0
12626499681,Alfamart SPBU Bojongsoang,-6.9914167,107.6316525,0,0
12626499679,Masjid Jami' Baitul Huda B,-7.0002949,107.6318593,0,0
2477247659,Apotek K24,-7.0054785,107.6309071,0,0
12626499675,KEJARI Bale Bandung,-7.0059629,107.6235977,0,0
12626499676,RS Al-Ihsan,-7.0074774,107.6243131,0,0
3277886365,Terminal Leuwipanjang,-6.9458124,107.5932469,0,0
11739021652,Rumah Sakit Immanuel A,-6.9372267,107.5956524,0,0
11739021646,Taman Tegallega,-6.9365059,107.6030596,0,0
11739021654,Pintu Masuk Terminal Tegallega,-6.9338521,107.6024577,0,0
6443280171,Astana Anyar RSIA Kota Bandung,-6.9293977,107.600717,0,0
1013407725,Stasiun Hall,-6.9161478,107.6024001,0,0
11739064594,SMK Negeri 1 Bandung,-6.9130013,107.609039,0,0
11739021634,Riau XL,-6.9068537,107.6096165,0,0
10653503633,Hotel The-One-O-One A,-6.9065022,107.6105556,0,0
10778322183,Taman Radio A,-6.9024821,107.6115254,0,0
11104718108,Kartikasari A,-6.8975185,107.6127786,0,0
11104669204,Rumah Sakit Santo Borromeus A,-6.8944643,107.6129302,0,0
11739021656,Masjid Baiturrahman,-6.8866267,107.6149671,0,0
11707030824,UNPAD Dipatiukur (4D),-6.8923055,107.6177764,0,0
11104718106,Rumah Sakit Santo Borromeus B,-6.8948263,107.6134343,0,0
10778322181,Kartikasari B,-6.897514,107.6128416,0,0
10778322182,Taman Radio B,-6.9025069,107.6115838,0,0
10653503634,Hotel The-One-O-One B,-6.9065902,107.6106208,0,0
11739021633,Bandung Indah Plaza,-6.9088887,107.610623,0,0
11735248675,Bank Indonesia,-6.9145426,107.608993,0,0
29354702,Pasar Baru,-6.9164303,107.6044519,0,0
10778322188,Dalem Kaum,-6.9219758,107.6040142,0,0
11739021642,Jalan Ibu Inggit Garnasih,-6.9314959,107.6039218,0,0
11739021647,Pasar Tegalega,-6.9368241,107.6062604,0,0
10815723012,Simpang Mohamad Toha Biddokkes,-6.9375586,107.6055097,0,0
11739021653,Rumah Sakit Immanuel B,-6.9372977,107.5955421,0,0
3375793673,UNPAD Dipatiukur,-6.8934568,107.6180361,0,0
11707030826,Panatayudha A,-6.8979225,107.6161542,0,0
1666155324,Lapangan Gasibu A,-6.9011743,107.6199195,0,0
11707030829,PUSDAI A,-6.9010661,107.6241876,0,0
11707030832,SMPN 14 Bandung (Lapangan Supratman A),-6.9080655,107.6301163,0,0
1107694939,Taman Pramuka,-6.9106475,107.6274766,0,0
3375793687,Hotel Grand Tebu,-6.9130163,107.6288644,0,0
11707030860,Bandung Creative Hub A,-6.9183624,107.6313457,0,0
7702036194,Hotel Horison A,-6.9343354,107.6252887,0,0
5487616737,Simpang By Pass Soekarno Hatta A,-6.9473728,107.6090862,0,0
11711185184,SPBU Moh. Toha,-6.954618,107.6115168,0,0
11711185187,Cileunyi A,-6.9410603,107.7541846,0,0
1966499313,IPDN A,-6.9356267,107.7652049,0,0
10697346845,UNPAD Jatinangor,-6.932299,107.7732376,0,0
11711185243,Jatinangor Town Square,-6.933968,107.7712431,0,0
5867026762,IPDN B,-6.9357446,107.7651014,0,0
11711185188,Cileunyi B,-6.9426257,107.7557736,0,0
11711185185,Jalan Haji Tatang Sumantri,-6.9547392,107.6115567,0,0
11707031627,Simpang By Pass Soekarno Hatta B,-6.9483342,107.6087518,0,0
11707031601,PT INTI B (BKR 5),-6.9375463,107.6067624,0,0
11707031579,Hotel Horison B,-6.9343038,107.6251981,0,0
11707030859,Bandung Creative Hub B,-6.9184177,107.6312506,0,0
11955476811,SPBU Ahmad Yani,-6.9129263,107.6339654,0,0
11707030833,SDN 062 Ciujung Bandung (Lapangan Supratman B),-6.907261,107.6297079,0,0
11707030828,PUSDAI B,-6.9011517,107.6241682,0,0
11707030827,Lapangan Gasibu B,-6.9012501,107.6201283,0,0
11707030825,Panatayudha B,-6.8979434,107.6161572,0,0
12628901396,SDN Babakan Tarogong,-6.9384872,107.594148,0,0
12628930762,Muara A,-6.9371534,107.6020331,0,0
12628930746,Palasari Radio,-6.9742063,107.6181453,0,0
12628930749,Zipur Dayeuhkolot,-6.9861797,107.624845,0,0
12628930752,Pasar Baleendah A,-6.9989678,107.6316216,0,0
12628930755,Bumi Siliwangi,-7.0100016,107.6397222,0,0
2459057875,Terminal Ciparay,-7.0357328,107.713347,0,0
12628930760,Terminal Majalaya,-7.0477372,107.7601852,0,0
12628930757,Giriharja Jelekong,-7.020725,107.6563884,0,0
12628930753,Pasar Baleendah B,-6.9990175,107.6316458,0,0
305891851,Palasari Ceres,-6.9719753,107.6173961,0,0
35131593,Bundaran Cibiru,-6.9352673,107.7175908,0,0
12806516349,Panyileukan,-6.9357289,107.7121547,0,0
12806516346,Cimincrang,-6.9361475,107.7064226,0,0
12806516345,Shakti,-6.936831,107.6970872,0,0
12806516344,Barat Simpang Gedebage,-6.9372117,107.6918125,0,0
12806868621,SMKN 6 Bandung,-6.9380944,107.6794141,0,0
12806868622,Cipamokolan,-6.9382789,107.6768401,0,0
12806868623,Aria Graha,-6.9385626,107.6729122,0,0
3375689668,RS Al Islam,-6.9388175,107.6692698,0,0
12806868625,Metro,-6.93901,107.6665574,0,0
12806868626,Rancabolang,-6.9392635,107.6633094,0,0
12806868627,SMKN 7 Bandung,-6.939893,107.6598099,0,0
12806868632,Gagak Rimang,-6.9400797,107.6590642,0,0
3272226033,Metro Indah Mall,-6.9403972,107.6580268,0,0
12806868633,BPN Kanwil Jabar,-6.9406892,107.6570876,0,0
12806851397,Cidurian Selatan,-6.9420012,107.6529256,0,0
12806868637,Kantor Pos Sekejati,-6.9427159,107.6506763,0,0
12806868639,Disnaker Jabar,-6.944058,107.646481,0,0
12806868640,UNINUS,-6.9448492,107.6441008,0,0
12806868670,Tenth Avenue,-6.9458361,107.6408496,0,0
12806868674,Sekelimus Tengah,-6.9466415,107.6381159,0,0
12806868677,Sekelimus Barat,-6.9475072,107.6353065,0,0
12808867752,STIE Inaba,-6.9493807,107.6227995,0,0
12808867754,Mengger Girang,-6.9490185,107.6180229,0,0
12808867758,Ampera Soekarno Hatta,-6.9480749,107.6050974,0,0
12808867763,Karasak Lama,-6.9478683,107.6021954,0,0
3277891129,Seberang Terminal Leuwipanjang,-6.9469193,107.592997,0,0
12633822769,Pasar Caringin,-6.9419021,107.5829792,0,0
12808867766,Griya Sumbersari,-6.9325102,107.5766013,0,0
12808867768,Holis 2,-6.9248687,107.5750983,0,0
11954573590,Batas Kota,-6.9109035,107.569361,0,0
12627968405,Terminal Elang,-6.9135373,107.5755571,0,0
12808867767,Holis 1,-6.9252035,107.575247,0,0
12808867765,Sumbersari 1,-6.9313117,107.5763049,0,0
12808867764,Simpang Caringin,-6.9434372,107.5850407,0,0
12808867762,Inhoftank,-6.9478017,107.6022466,0,0
12808867760,Seberang Ampera Soekarno Hatta,-6.9479853,107.6051379,0,0
12808867756,Karasak Utara,-6.9480912,107.6067107,0,0
12806868676,Griya Hemat,-6.9474943,107.6348946,0,0
12806868672,Sekelimus Utara,-6.9464022,107.638444,0,0
5825209951,Simpang Samsat Kiaracondong,-6.9450226,107.6428119,0,0
12806851389,STT Mandala,-6.944662,107.6438888,0,0
12806851390,SMK Medika Com,-6.9438278,107.6464874,0,0
12806851392,Unibi,-6.9425403,107.6505153,0,0
12806851396,Cidurian Utara,-6.941787,107.6528692,0,0
12806851393,SMKN 9 Bandung,-6.9405212,107.6569119,0,0
3375689664,Jasa Raharja Jabar,-6.9400924,107.6582639,0,0
12806851400,Suparma,-6.9395718,107.6601512,0,0
12806868601,Kawaluyaan,-6.9390207,107.6635594,0,0
12806868603,Sanggar Hurip,-6.938728,107.6672726,0,0
12806868618,Cisaranten Kulon,-6.9379974,107.6775339,0,0
12806868620,KPP Pratama Cicadas,-6.9378628,107.6794352,0,0
12814754658,Depan Pasar Gedebage,-6.9365674,107.6973063,0,0
12806516348,Universitas Bhakti Kencana,-6.9356286,107.7099558,0,0
6460801785,Terminal Cicaheum,-6.902329,107.6565637,0,0
11735248707,BCA Cimuncang,-6.9060351,107.6483165,0,0
11735248706,Gateway Cicadas,-6.9072816,107.6459395,0,0
3248969440,BTM,-6.911388,107.6434825,0,0
11735248700,Flyover Antapani,-6.9138756,107.6429791,0,0
3375793691,WUJ Jalan Banten,-6.9142036,107.6399016,0,0
11735248701,STMIK,-6.9144188,107.6381956,0,0
11735248702,GOR KONI,-6.9146627,107.6362469,0,0
11735248692,IBCC,-6.9142791,107.6327884,0,0
11735248690,Stadion Persib Sidolig,-6.9161976,107.6292904,0,0
5391666905,Cikudapateuh,-6.9186929,107.6245415,0,0
11735248683,Kantor Pos Kosambi,-6.9192144,107.6235031,0,0
3277420346,Seberang Pasar Kosambi,-6.9199617,107.6220644,0,0
11735248705,Ketapang,-6.921143,107.619848,0,0
11735248710,Asia Afrika,-6.9222132,107.61585,0,0
11735248711,Gedung Keuangan Negara/KM 0,-6.921618,107.6110406,0,0
11735248713,Simpang Sudirman,-6.9207677,107.6038238,0,0
11735248714,Sukamanah,-6.9195734,107.5937417,0,0
11735248716,Simpang Jamika,-6.9188238,107.5874451,0,0
11954573588,SDN Raya Barat,-6.9181852,107.5819763,0,0
11711326973,Terminal Elang,-6.9133498,107.575723,0,0
1911635044,Yayasan LPPN,-6.9157549,107.5853751,0,0
25434237,GKI Kebonjati,-6.916282,107.5988546,0,0
10801865379,Telkom Lembong,-6.9170839,107.6111029,0,0
11735248678,RSU Bungsu,-6.9182518,107.6132908,0,0
11735248679,Pasar Kosambi,-6.9199012,107.6221779,0,0
11735248685,Segitiga Mas,-6.9179222,107.6258605,0,0
11735248686,Jaya Plaza,-6.9174142,107.6268373,0,0
11735248689,Dinas Pendidikan Kota Bandung,-6.9164526,107.6287225,0,0
5391666887,Jalan Mangga,-6.9151724,107.6310524,0,0
11735248691,Sekolah Agustinus,-6.9140574,107.6332108,0,0
3375793690,A.Yani Supratman,-6.9133253,107.6345966,0,0
11735248693,Cikaso,-6.9119025,107.637255,0,0
11735248694,Awi Bitung,-6.9106533,107.6396001,0,0
11735248708,Cimuncang,-6.9050722,107.650154,0,0
5832221935,Seberang Terminal Cicaheum,-6.9021302,107.6567969,0,0
5832221930,Cimuncang,-6.9016812,107.6490533,0,0
12628835706,Cikutra,-6.8997726,107.6426735,0,0
12628835704,Sukasenang Raya 1,-6.8984698,107.6371799,0,0
12628835703,BKKBN,-6.8982473,107.6324886,0,0
5832220641,SMPN 63 Kota Bandung,-6.8998537,107.6293496,0,0
12628813999,Wisma BKN,-6.89924,107.6222912,0,0
12628813996,Cikapayang Dago 1,-6.8990335,107.6120546,0,0
12628813994,Griya Pasteur 1,-6.8950796,107.5884432,0,0
12628813991,Warung Cepot,-6.8923414,107.5832389,0,0
3384993309,Maranatha,-6.8859263,107.5813607,0,0
12628813987,Lemahneundeut,-6.8813034,107.5787258,0,0
12628813989,Sarimanah,-6.8814266,107.5764264,0,0
12628813986,Sarijadi,-6.8816653,107.578425,0,0
12628813990,Setrasari,-6.8821984,107.5814944,0,0
12013144935,Mall d'Botanica,-6.8925604,107.5849478,0,0
12628813992,Griya Pasteur 2,-6.8948914,107.5883918,0,0
12628813995,Tamansari Cikapayang,-6.8982089,107.610121,0,0
5832170587,Cikapayang Dago 2,-6.898852,107.6135004,0,0
1660289593,Gasibu,-6.8992842,107.6179657,0,0
12628813998,Distan Jabar,-6.8992307,107.6227599,0,0
12628814000,Dapen Telkom,-6.8998503,107.6285873,0,0
12628835702,Jalaprang,-6.8983546,107.6321413,0,0
12013144934,ITENAS,-6.8982483,107.6362093,0,0
5832220656,Sukasenang Raya 2,-6.8984458,107.6370787,0,0
12628835705,Sekolah Pribadi,-6.8992417,107.6404383,0,0
5832221887,Sukapada,-6.9000256,107.6439328,0,0
12628835709,Surapati Core,-6.9018908,107.6525276,0,0
10693001605,Terminal Leuwipanjang,-6.9459075,107.5932351,0,0
12806765746,Taman Tegalega/Sri Baduga,-6.9373001,107.6037009,0,0
3445680780,Samsudin,-6.9375959,107.6083051,0,0
12808948210,Patung Ikan,-6.937657,107.610179,0,0
3272575985,BKR Buah Batu,-6.9365872,107.6231054,0,0
12809462424,Kangkung Kaler,-6.9308456,107.6260901,0,0
3375794694,DPRD Kota Bandung,-6.916856,107.6342682,0,0
3476292190,Dishub Jabar,-6.9181019,107.6324739,0,0
12809462425,Seberang Kangkung Kaler,-6.9308642,107.6261794,0,0
12808948211,Simpang Buah Batu BKR,-6.9373473,107.6222364,0,0
3376171471,Masjid An Nur PT INTI,-6.9376849,107.6084233,0,0
12806765747,Muara,-6.9374746,107.5999005,0,0
12809603991,RSUD Bandung Kiwari,-6.9430856,107.5913003,0,0
12809462429,RSIA Grha Bunda,-6.9134024,107.6455398,0,0
2493372403,Borma Antapani,-6.9129025,107.6495005,0,0
12809462431,Stikes Dharma Husada,-6.9127456,107.6507427,0,0
302241143,bjb Antapani,-6.9123839,107.6538136,0,0
11735248698,Depan Terminal Antapani,-6.9149741,107.6658807,0,0
3378630365,Seberang Borma Antapani,-6.9130091,107.6492727,0,0
12947493617,Seberang Hotel Grand Tebu,-6.9133503,107.6290686,0,0
3376430783,Tugu Tunas Taman Pramuka,-6.9105422,107.6265596,0,0
12947493616,Riau Aceh,-6.9097089,107.6256861,0,0
12809507149,bjb Riau,-6.9092859,107.6252606,0,0
12947493614,HKBP Riau,-6.9086974,107.624592,0,0
12809507147,Riau Cihapit,-6.9081445,107.623898,0,0
12809507143,Pengadilan Negeri Bandung,-6.9063102,107.6220332,0,0
12947493613,De Pavilijoen,-6.9058792,107.6207244,0,0
12947493612,Sekolah Taruna Bakti,-6.9060981,107.6183784,0,0
3375794699,Simpang Banda Riau,-6.9063138,107.6159699,0,0
12825997245,Hotel Santika,-6.9070669,107.6119393,0,0
3376669065,Taman Sejarah Balai Kota Bandung,-6.9103764,107.6106101,0,0
12806120224,SDN Merdeka 5,-6.915607,107.610154,0,0
3374033500,Tamblong,-6.9189576,107.6123364,0,0
12809269114,Seberang SMAN 4 Bandung,-6.9194582,107.5983096,0,0
12809274346,Masjid Al-Ukhuwwah,-6.9111612,107.6090912,0,0
12809274348,Wastukencana Purnawarman,-6.9088722,107.6079826,0,0
3269294966,Abdul Rivai,-6.904381,107.6038123,0,0
1700556149,Taman Westhoff,-6.9010192,107.5982442,0,0
12809082539,Djunjunan Paskal,-6.9003956,107.5968191,0,0
12809283847,SDN Sukaraja,-6.8914927,107.5786575,0,0
1396428138,Simpang Dakota,-6.8935189,107.5726156,0,0
12809283844,Borma Dakota,-6.8908761,107.572217,0,0
12809283842,Mentor,-6.889704,107.5698999,0,0
3250402136,Gunung Batu,-6.8875315,107.5672467,0,0
2317306703,Seberang Gateway Pasteur,-6.8893002,107.566898,0,0
1658426541,BPJS Pasteur,-6.8922539,107.5829072,0,0
2958261155,Djundjunan 3,-6.8929291,107.5856805,0,0
12809237524,GKI Pasteur,-6.9002045,107.6027269,0,0
12809237525,Linggawastu,-6.9039986,107.605369,0,0
3376669071,Pasar Kembang Wastukencana,-6.9048943,107.607265,0,0
12809237527,Pajajaran Timur,-6.9071527,107.6047535,0,0
3376669069,Kimia Farma,-6.9077123,107.6044661,0,0
12806120204,Haji Mesri,-6.9124771,107.6007223,0,0
3272722527,Simpang Gedebage Selatan,-6.9377585,107.6925095,0,0
11730486996,Summarecon Mall Bandung,-6.955658,107.6992029,0,0
4608003593,Terminal Leuwipanjang,-6.9458755,107.5932396,0,0
12806765749,Simpang Astanaanyar Pasirkoja,-6.9263959,107.5997325,0,0
12809227879,Jalan Haji Safari,-6.9247939,107.5991575,0,0
12806765750,Karanganyar,-6.9226401,107.598583,0,0
12806765752,Cibadak Astanaanyar,-6.9209178,107.5984181,0,0
3640664489,Paskal Hypersquare,-6.9155623,107.5981241,0,0
12806120202,SDN 013 Pajajaran,-6.9081059,107.5976849,0,0
5639376088,Garunggang Kulon,-6.8989275,107.5973503,0,0
12825997250,SPBU Paskal,-6.8979069,107.5973197,0,0
29357744,Cibarengkok,-6.8960662,107.5972487,0,0
29357741,Sukagalih PVJ,-6.8913554,107.596952,0,0
1746711065,Polsek Sukajadi,-6.8878725,107.5967776,0,0
3380200149,Mandiri Sukajadi,-6.8836453,107.5965088,0,0
3376673098,Sukawangi,-6.8780655,107.596246,0,0
12825997252,Gereja Santo Laurentius,-6.8756034,107.5960887,0,0
12809082550,SMPN 15 Bandung,-6.8739356,107.5957592,0,0
12809046293,Gegerkalong Girang,-6.8653206,107.594077,0,0
3376673106,Museum Pendidikan Nasional UPI,-6.8600369,107.594757,0,0
11711070002,Terminal Ledeng,-6.85933,107.5951942,0,0
12809046289,Poltekpar NHI,-6.8682279,107.5936817,0,0
3376673102,Simpang Gegerkalong Hilir,-6.8693537,107.5935629,0,0
3376673100,Borma Setiabudhi,-6.8746244,107.5962411,0,0
3376669085,Masjid Besar Cipaganti,-6.894782,107.602517,0,0
12809082541,Paskal RSHS,-6.8982378,107.5973829,0,0
12013198354,Terminal Elang,-6.9144895,107.5753136,0,0
6473170574,Pasar Cileunyi,-6.9404081,107.7537453,0,0
10771913963,Gerbang IPDN Jatinangor,-6.9358995,107.7642048,0,0
12013198353,UNPAD Jatinangor,-6.9323545,107.7732585,0,0
3476277701,Damri Unpad Jatinangor,-6.9316463,107.7758563,0,0
10771913964,Seberang Gerbang IPDN Jatinangor,-6.9361566,107.7636862,0,0
1935454988,Terminal Tanjungsari,-6.9079951,107.7959097,0,0
2744242982,Pasirluyu Selatan/Sukaati,-6.9492577,107.6214461,0,0
12808912264,Pos Banceuy,-6.9205454,107.6065186,0,0
1956195997,Jalan Jati,-6.9262285,107.6125973,0,0
3376282080,Banteng Sadakeling,-6.9316133,107.6183599,0,0
1982390333,SMK Medina,-6.931384,107.619075,0,0
2250581874,GOR Lodaya,-6.9317067,107.6203316,0,0
12808948214,Selontongan,-6.9402599,107.625925,0,0
12808948215,Kliningan Buahbatu,-6.9426596,107.6282283,0,0
12806516353,SDN 050 Cibiru,-6.9342906,107.7215528,0,0
12823636734,Rumah Sakit Murni Teguh,-6.9208368,107.6159966,0,0
12806309242,SDN Cikadut,-6.9040466,107.6656526,0,0
12806309246,Gang H.M. Syarief,-6.9044513,107.6718533,0,0
12806309248,Borma Pasirimpun,-6.904729,107.6759315,0,0
11047579524,UPTD Laboratorium Lingkungan Hidup,-6.9074116,107.6864696,0,0
12806516361,SDN Ciporeat,-6.9173978,107.7061287,0,0
12806516359,Seberang Borma Cipadung,-6.9261531,107.7108057,0,0
12806516356,SDN Cipadung,-6.9316908,107.7137735,0,0
35131607,UIN SGD/Cipadung,-6.9323756,107.7157532,0,0
12014389702,Pangkalan DAMRI Cibiru,-6.9335177,107.7163132,0,0
12806516354,Seberang UIN Sunan Gunung Djati,-6.9324655,107.7158334,0,0
12806516357,Borma Cipadung,-6.9265281,107.7108912,0,0
2477149675,SDN Andir Kidul,-6.9136497,107.6955657,0,0
12806309257,Seberang SMAN 24 Bandung,-6.9084047,107.6881997,0,0
11047579523,Pusjatan,-6.907525,107.6867495,0,0
3251007173,Gerbang Pusjatan,-6.907087,107.6856912,0,0
12806309250,Seberang Borma Pasirimpun,-6.9047223,107.6758598,0,0
35135540,Lapas Sukamiskin,-6.9046182,107.6750064,0,0
12806309247,Komplek Sarimas,-6.9046989,107.672335,0,0
12888147067,Flyover KBP,-6.8529876,107.4941137,0,0
12390565460,Ratnasasih,-6.8689266,107.4688418,0,0
12888177149,BTD,-6.8724813,107.4678358,0,0
5509730969,Tatar Subanglarang,-6.8818457,107.4554476,0,0
11489094686,Kamandaka,-6.8716903,107.4660366,0,0
11489094682,Jingganagara,-6.8724249,107.4692856,0,0
11489094684,CBCS/BAIS,-6.8686557,107.4687526,0,0
12881302236,Timur IKEA Kota Baru Parahyangan,-6.8673805,107.4687013,0,0
12825997248,Taman Vanda,-6.9139284,107.6099856,0,0
3374033509,Terminal Abdul Muis/Kebon Kalapa,-6.9276265,107.6058121,0,0
12626529705,ITC Kebon Kalapa,-6.926739,107.6059915,0,0
12808948222,SMPN 43 Bandung,-6.9257801,107.6066649,0,0
12808948220,Pasundan,-6.9278672,107.608899,0,0
12806120217,Unla,-6.9311439,107.6158192,0,0
3375103664,Lauk Emas,-6.9302033,107.6164624,0,0
3376282080,Banteng Sadakeling,-6.9316133,107.6183599,0,0
1982390333,SMK Medina,-6.931384,107.619075,0,0
2250581874,GOR Lodaya,-6.9317067,107.6203316,0,0
12806537958,Yayasan Kemala Bhayangkari,-6.9318636,107.6221815,0,0
3376171449,Jl. Lodaya,-6.9320775,107.6249815,0,0
v_107.629268_-6.933580,Jalan Raden Adipati Aria Martanegara,-6.9335803,107.6292681,0,0
v_107.633797_-6.934385,Jalan Raden Adipati Aria Martanegara,-6.934385,107.6337971,0,0
11365366019,Trans Studio Mall,-6.9280668,107.6367954,0,0
v_107.640537_-6.930783,Jalan Jenderal Gatot Subroto,-6.9307832,107.6405374,0,0
v_107.644246_-6.927959,Jalan H. Ibrahim Adjie,-6.9279591,107.6442459,0,0
12806853451,Seberang Griya Kiaracondong,-6.9220961,107.6442877,0,0
12806853452,Daese Garmin,-6.9194414,107.6441456,0,0
12806853456,Gerbang Timur Kiara Artha Park,-6.9161586,107.6438444,0,0
11735248700,Flyover Antapani,-6.9138756,107.6429791,0,0
3375793691,WUJ Jalan Banten,-6.9142036,107.6399016,0,0
11735248701,STMIK,-6.9144188,107.6381956,0,0
11735248702,GOR KONI,-6.9146627,107.6362469,0,0
12811695428,Supratman 1,-6.9101794,107.6321776,0,0
2519917307,Pussenif,-6.9078314,107.6306426,0,0
11707030832,SMPN 14 Bandung (Lapangan Supratman A),-6.9080655,107.6301163,0,0
11707030833,SDN 062 Ciujung Bandung (Lapangan Supratman B),-6.907261,107.6297079,0,0
5841989829,Muararajeun Baru,-6.9060357,107.6305171,0,0
12819917452,Seberang Griya Pahlawan,-6.9002535,107.634226,0,0
12013144934,ITENAS,-6.8982483,107.6362093,0,0
5832220656,Sukasenang Raya 2,-6.8984458,107.6370787,0,0
12806309238,STIE Ekuitas,-6.8986302,107.6378565,0,0
12628835705,Sekolah Pribadi,-6.8992417,107.6404383,0,0
5832221887,Sukapada,-6.9000256,107.6439328,0,0
12628835709,Surapati Core,-6.9018908,107.6525276,0,0
5832221935,Seberang Terminal Cicaheum,-6.9021302,107.6567969,0,0
11291524413,Terminal Angkot Cicaheum,-6.9024172,107.6562486,0,0
5832221932,Padasuka,-6.9019865,107.6536878,0,0
5832221930,Cimuncang,-6.9016812,107.6490533,0,0
12814754615,Sukapada 2,-6.9001599,107.6446782,0,0
v_107.643294_-6.895641,Jalan Cikutra,-6.8956408,107.6432943,0,0
3248882521,Pahlawan Sidomukti,-6.8933137,107.6354258,0,0
12819917451,Griya Pahlawan,-6.9003045,107.634244,0,0
v_107.631789_-6.904269,Jalan Brigjend. Katamso,-6.9042688,107.6317894,0,0
12811695427,Supratman Cikaso,-6.9103228,107.6324017,0,0
12811695425,SMPN 22 Bandung,-6.9122413,107.6336698,0,0
3375793690,A.Yani Supratman,-6.9133253,107.6345966,0,0
11735248693,Cikaso,-6.9119025,107.637255,0,0
11735248694,Awi Bitung,-6.9106533,107.6396001,0,0
3248969440,BTM,-6.911388,107.6434825,0,0
12633822765,Seberang Kiara Artha,-6.9142126,107.6437793,0,0
12806853454,SDN 083 Babakan Surabaya Selatan,-6.9196178,107.6442909,0,0
12806853450,Griya Kiaracondong,-6.9221685,107.6444041,0,0
12806853449,Jalan PSM,-6.9274017,107.6444424,0,0
12806853447,Honda Daya Motor Kiaracondong,-6.9310003,107.6438759,0,0
12806853446,SDN 38 Kiaracondong,-6.9333993,107.642917,0,0
12806853442,Kebon Kangkung 11,-6.9380472,107.6424362,0,0
12806853444,KPP Madya Dua Bandung,-6.9383619,107.6422771,0,0
3248882519,Turangga,-6.928187,107.6358171,0,0
3376171452,Turangga,-6.9342955,107.6339321,0,0
v_107.624982_-6.932078,Jalan Lodaya,-6.9320775,107.6249815,0,0
v_107.620615_-6.934242,Jalan Gajah,-6.9342423,107.6206148,0,0
v_107.616575_-6.931506,Jalan Gurame,-6.9315064,107.6165751,0,0
v_107.613029_-6.934535,Jalan Mochammad Ramdhan,-6.9345354,107.613029,0,0
3376171471,Masjid An Nur PT INTI,-6.9376849,107.6084233,0,0
5355897678,Taman Tegalega 3,-6.9365596,107.6062815,0,0
12825997237,Melong Karapitan,-6.9302053,107.6160678,0,0
12825997239,Karapitan Cikawao,-6.9282903,107.6165815,0,0
12825997243,Karapitan Emung,-6.9270918,107.6169043,0,0
12825997241,Karapitan Paledang,-6.9250993,107.61732,0,0
10280072517,Gereja Sidang Kristus,-6.9194254,107.6179265,0,0
12806120211,Yogya Sunda,-6.9178998,107.6180659,0,0
12806120207,Balai Bahasa Jawa Barat,-6.9136482,107.6173371,0,0
12809507134,Kantor Kecamatan Sumurbandung,-6.9131842,107.6177677,0,0
12809507135,Seberang Stadion Siliwangi,-6.9110152,107.6184728,0,0
12809507136,PMI Kota Bandung,-6.9089935,107.6195116,0,0
3376430782,SMA Kartika,-6.9095321,107.6267561,0,0
12887217205,Jalan Suren,-6.908846,107.628258,0,0
12819917455,Taman Makam Pahlawan Cikutra,-6.8928924,107.6356272,0,0
v_107.640139_-6.893889,Jalan Cikutra,-6.8938889,107.6401385,0,0
12628835706,Cikutra,-6.8997726,107.6426735,0,0
12814754613,Bekamin,-6.8995403,107.6416949,0,0
12806309240,YPKP Sanggabuana,-6.89932,107.6407662,0,0
12628835704,Sukasenang Raya 1,-6.8984698,107.6371799,0,0
12814754611,SDN 151 Sukasenang,-6.8982085,107.6360412,0,0
12887217206,Jalan Salam,-6.908808,107.6282951,0,0
1107694939,Taman Pramuka,-6.9106475,107.6274766,0,0
12962149421,Aceh Taman Pramuka,-6.9102542,107.6255307,0,0
3376420325,Graha Manggala Siliwangi,-6.9090101,107.6195837,0,0
12887179699,Stadion Siliwangi,-6.9111664,107.6184317,0,0
3374033495,SMAN 3 dan 5,-6.9119682,107.6150207,0,0
12809521950,Taman Lalu Lintas,-6.9124068,107.6138205,0,0
12887182816,SMP Negeri 2 Bandung,-6.9147065,107.6139894,0,0
3374033500,Tamblong,-6.9189576,107.6123364,0,0
1956195997,Jalan Jati,-6.9262285,107.6125973,0,0
3374033505,UNPAS Lengkong Besar,-6.9290293,107.6129922,0,0
12809314942,SDN 020 Lengkong Besar,-6.9304102,107.612861,0,0
v_107.608404_-6.932089,Jalan Ibu Inggit Ganarsih,-6.9320886,107.6084036,0,0
1831360476,Unknown,-6.9313355,107.6124017,0,0
v_107.616432_-6.928807,Jalan Karapitan,-6.9288073,107.6164323,0,0
v_107.617439_-6.924156,Jalan Karapitan,-6.9241564,107.6174388,0,0
v_107.617914_-6.919578,Jalan Sunda,-6.919578,107.6179137,0,0
v_107.618145_-6.915077,Jalan Sumbawa,-6.9150772,107.6181449,0,0
v_107.614463_-6.912164,Jalan Belitung,-6.9121644,107.6144635,0,0
v_107.612895_-6.907209,Jalan Seram,-6.9072095,107.6128951,0,0
v_107.611388_-6.902825,Jalan Ir. H. Djuanda,-6.9028247,107.6113884,0,0
v_107.612740_-6.898451,Jalan Ir. H. Djuanda,-6.8984512,107.6127403,0,0
v_107.612990_-6.893766,Jalan Ir. H. Djuanda,-6.8937658,107.6129903,0,0
v_107.613406_-6.889253,Jalan Ir. H. Djuanda,-6.8892526,107.6134064,0,0
v_107.613809_-6.884725,Jalan Ir. H. Djuanda,-6.884725,107.6138089,0,0
v_107.616122_-6.880552,Jalan Ir. H. Djuanda,-6.8805516,107.6161219,0,0
v_107.618035_-6.876381,Jalan Ir. H. Djuanda,-6.8763814,107.6180347,0,0
v_107.619886_-6.872240,Jalan Ir. H. Djuanda,-6.87224,107.6198864,0,0
3373712056,Terminal Dago,-6.8670778,107.6212119,0,0
12819940049,SPBU Dago Atas,-6.8686285,107.620646,0,0
12816172252,Seberang Poltekesos,-6.8725481,107.6198876,0,0
12820358786,Kanayakan,-6.8774811,107.6173296,0,0
v_107.615870_-6.881760,Jalan Ir. H. Djuanda,-6.8817604,107.6158704,0,0
11739021656,Masjid Baiturrahman,-6.8866267,107.6149671,0,0
11707030824,UNPAD Dipatiukur (4D),-6.8923055,107.6177764,0,0
3375793673,UNPAD Dipatiukur,-6.8934568,107.6180361,0,0
11104718106,Rumah Sakit Santo Borromeus B,-6.8948263,107.6134343,0,0
12820212473,STMIK LIKMI,-6.8955212,107.6129226,0,0
10778322181,Kartikasari B,-6.897514,107.6128416,0,0
11873654244,Danamon Cikapayang,-6.8995115,107.6127597,0,0
12819940051,Superindo Dago,-6.9018046,107.6118668,0,0
10778322182,Taman Radio B,-6.9025069,107.6115838,0,0
10653503634,Hotel The-One-O-One B,-6.9065902,107.6106208,0,0
11739021633,Bandung Indah Plaza,-6.9088887,107.610623,0,0
25433284,Banda Saparua,-6.9072231,107.6169984,0,0
3375794699,Simpang Banda Riau,-6.9063138,107.6159699,0,0
12825997245,Hotel Santika,-6.9070669,107.6119393,0,0
3376669065,Taman Sejarah Balai Kota Bandung,-6.9103764,107.6106101,0,0
11739021637,Merdeka,-6.9125343,107.6104548,0,0
12825997248,Taman Vanda,-6.9139284,107.6099856,0,0
11739064594,SMK Negeri 1 Bandung,-6.9130013,107.609039,0,0
12809274346,Masjid Al-Ukhuwwah,-6.9111612,107.6090912,0,0
12809274348,Wastukencana Purnawarman,-6.9088722,107.6079826,0,0
11739021630,STHB (Sekolah Tinggi Hukum Bandung),-6.9064803,107.6044125,0,0
3269294966,Abdul Rivai,-6.904381,107.6038123,0,0
5639376088,Garunggang Kulon,-6.8989275,107.5973503,0,0
12825997250,SPBU Paskal,-6.8979069,107.5973197,0,0
29357744,Cibarengkok,-6.8960662,107.5972487,0,0
29357741,Sukagalih PVJ,-6.8913554,107.596952,0,0
1746711065,Polsek Sukajadi,-6.8878725,107.5967776,0,0
3380200149,Mandiri Sukajadi,-6.8836453,107.5965088,0,0
3376673098,Sukawangi,-6.8780655,107.596246,0,0
12825997252,Gereja Santo Laurentius,-6.8756034,107.5960887,0,0
12809082550,SMPN 15 Bandung,-6.8739356,107.5957592,0,0
v_107.593510_-6.869957,Jalan Dokter Danudirja Setiabudhi,-6.8699573,107.5935096,0,0
12809046293,Gegerkalong Girang,-6.8653206,107.594077,0,0
3376673106,Museum Pendidikan Nasional UPI,-6.8600369,107.594757,0,0
11711070002,Terminal Ledeng,-6.85933,107.5951942,0,0
12809046291,Seberang Unpas Setiabudi,-6.8664168,107.5939201,0,0
12809046289,Poltekpar NHI,-6.8682279,107.5936817,0,0
3376673102,Simpang Gegerkalong Hilir,-6.8693537,107.5935629,0,0
3376673100,Borma Setiabudhi,-6.8746244,107.5962411,0,0
v_107.598045_-6.878802,Jalan Dokter Danudirja Setiabudhi,-6.8788022,107.5980445,0,0
6165179774,Setiabudi Hegarmanah,-6.8829555,107.6023609,0,0
12811652377,SDN 065 Cihampelas,-6.8869867,107.6040408,0,0
3376669082,Cihampelas Eyckman,-6.8959031,107.6039451,0,0
12809237525,Linggawastu,-6.9039986,107.605369,0,0
3376669071,Pasar Kembang Wastukencana,-6.9048943,107.607265,0,0
5825243776,Bandung Electronic Center,-6.9081456,107.6093744,0,0
3376669066,Museum Kota Bandung,-6.9101076,107.6097021,0,0
11739021641,Simpang Ijan,-6.9280445,107.6036329,0,0
3383341282,Pasar Astana Anyar,-6.9306827,107.601334,0,0
2325452881,Jalan Panjunan,-6.9298621,107.5973451,0,0
12806765749,Simpang Astanaanyar Pasirkoja,-6.9263959,107.5997325,0,0
12809227879,Jalan Haji Safari,-6.9247939,107.5991575,0,0
2723584288,Pasar Ulekan Pagarsih,-6.9229321,107.5957657,0,0
v_107.591192_-6.922443,Jalan Pagarsih Barat,-6.9224429,107.5911917,0,0
2325452491,Unknown,-6.9219839,107.5859557,0,0
1911634972,Pasar Cangkring/Situ Aksan,-6.9235251,107.5813879,0,0
1911634983,Jalan Suryani,-6.9206062,107.580869,0,0
1911634927,RS Priangan,-6.9223077,107.5769466,0,0
6442840898,Simpang Holis Soekarno Hatta,-6.923662,107.5751042,0,0
v_107.590671_-6.922400,Jalan Pagarsih Barat,-6.9223995,107.5906715,0,0
2250562868,Otista/Kalipah Apo,-6.923931,107.6038724,0,0
12887162310,Seberang Telkom Supratman,-6.9062831,107.6296635,0,0
5842007854,Ciliwung,-6.9040635,107.6282013,0,0
11707030828,PUSDAI B,-6.9011517,107.6241682,0,0
v_107.619512_-6.901267,Jalan Diponegoro,-6.9012668,107.6195121,0,0
v_107.614994_-6.900621,Jalan Diponegoro,-6.900621,107.6149941,0,0
1969331852,Balubur Town Square,-6.8987437,107.6093403,0,0
3376871368,Pelesiran,-6.8970719,107.6096181,0,0
11262097538,Tamansari (Bonbin),-6.8933258,107.6083698,0,0
12805921498,BATAN,-6.8888308,107.6080995,0,0
3530181074,Sabuga ITB,-6.8877401,107.609232,0,0
3376871360,Babakan Siliwangi,-6.8849719,107.6114877,0,0
v_107.599888_-6.890065,Jalan Jurang,-6.8900645,107.5998881,0,0
1660116948,Gandok,-6.8836088,107.6056396,0,0
12813270569,Sumur Bandung,-6.8856909,107.6127217,0,0
12805921497,FTMD ITB,-6.8888141,107.6080995,0,0
12805921499,Tamansari ITB,-6.8898018,107.6080694,0,0
3376871366,Gelap Nyawang,-6.8946314,107.6086646,0,0
12628813995,Tamansari Cikapayang,-6.8982089,107.610121,0,0
v_107.614338_-6.900617,Jalan Diponegoro,-6.9006167,107.6143382,0,0
1666155324,Lapangan Gasibu A,-6.9011743,107.6199195,0,0
11707030829,PUSDAI A,-6.9010661,107.6241876,0,0
5832220639,Unknown,-6.9010164,107.6259572,0,0
5842007855,Muararajeun,-6.9039847,107.6282881,0,0
12628835703,BKKBN,-6.8982473,107.6324886,0,0
12814754609,Simpang Jalaprang,-6.8984824,107.6317973,0,0
5832220641,SMPN 63 Kota Bandung,-6.8998537,107.6293496,0,0
12814754605,Taman Pusdai,-6.8992562,107.6261407,0,0
12628813999,Wisma BKN,-6.89924,107.6222912,0,0
12806309233,PVMBG,-6.8992825,107.6203701,0,0
5832170587,Cikapayang Dago 2,-6.898852,107.6135004,0,0
11707030825,Panatayudha B,-6.8979434,107.6161572,0,0
12816121755,Simpang Dipatiukur Hasanudin,-6.8950876,107.6172155,0,0
12820400848,Unpad Kampus Iwa Koesoemasoemantri,-6.8932726,107.6179071,0,0
12816121752,Seberang UNIKOM,-6.8870114,107.6150918,0,0
v_107.604236_-6.891624,Jalan Cihampelas,-6.8916244,107.6042355,0,0
v_107.602471_-6.895793,Jalan Profesor Christiaan Eijkman,-6.8957932,107.6024711,0,0
12809082541,Paskal RSHS,-6.8982378,107.5973829,0,0
12809082512,Seberang IWU,-6.9013037,107.5974649,0,0
12809082511,Seberang BPK Penabur,-6.9033942,107.5975385,0,0
3377321687,Depan Istana Plaza,-6.9054493,107.5976013,0,0
11138593907,Padjajaran 2,-6.9068851,107.5939013,0,0
3377329064,Husein Pajajaran,-6.9068423,107.588209,0,0
v_107.583457_-6.907625,Jalan Abdul Rahman Saleh,-6.9076247,107.5834572,0,0
3244745033,Terminal Ciroyom,-6.9141236,107.5885486,0,0
3377321681,Pintu Masuk Bandara Husein Sastranegara,-6.9067739,107.588219,0,0
7547053355,Pajajaran 1,-6.9070991,107.5925401,0,0
3377321682,Istana Plaza (IP),-6.9053889,107.596171,0,0
12809082509,BPK Penabur,-6.9033926,107.5974789,0,0
12809082507,IWU,-6.9015643,107.597414,0,0
3249461526,Pasar Sederhana,-6.8908128,107.5996153,0,0
v_107.610266_-6.884462,Jalan Siliwangi,-6.8844619,107.6102659,0,0
3375793672,Sekeloa,-6.8902412,107.6165653,0,0
12816121756,Magister Manajemen UNPAD,-6.8950233,107.617258,0,0
12806309232,Jalan Merak,-6.89928,107.6204436,0,0
12628813998,Distan Jabar,-6.8992307,107.6227599,0,0
12814453796,Jalan Gagak,-6.8992266,107.6234921,0,0
5832220640,PUSDAI,-6.8992435,107.6259835,0,0
12628814000,Dapen Telkom,-6.8998503,107.6285873,0,0
12814754607,Seberang Imigrasi Bandung,-6.8988684,107.6312754,0,0
12628835702,Jalaprang,-6.8983546,107.6321413,0,0
12806853440,Den Jasa Ang,-6.9397848,107.6423227,0,0
12806853435,SPBU Kebon Kangkung,-6.9428602,107.6421057,0,0
v_107.641608_-6.947538,Jalan Terusan Kiara Condong,-6.9475383,107.641608,0,0
v_107.640779_-6.952189,Jalan Terusan Kiara Condong,-6.9521886,107.6407795,0,0
v_107.644666_-6.954819,Jalan Marga Cinta,-6.9548192,107.6446655,0,0
12813271263,Seberang Borma Margacinta,-6.9554682,107.6521388,0,0
v_107.656616_-6.957044,Jalan Marga Cinta,-6.957044,107.6566158,0,0
35138488,Taman Lansia Margahayu Raya,-6.9597741,107.6615127,0,0
v_107.665971_-6.961040,Jalan Marga Cinta,-6.9610398,107.6659707,0,0
v_107.670644_-6.961846,Jalan Marga Cinta,-6.9618456,107.6706444,0,0
v_107.674736_-6.963912,Jalan Derwati,-6.9639119,107.6747359,0,0
v_107.679817_-6.964417,Jalan Derwati,-6.9644172,107.6798172,0,0
2518053983,Simpang Derwati,-6.9655502,107.6868117,0,0
3383628375,SMPN 51 Bandung,-6.9644172,107.6798172,0,0
12813271267,SDN 069 Cipamokolan,-6.9648031,107.6832053,0,0
v_107.672872_-6.963736,Jalan Derwati,-6.9637355,107.672872,0,0
2258306743,Pasar Ciwastra,-6.9611563,107.6664238,0,0
v_107.660163_-6.959233,Jalan Marga Cinta,-6.9592328,107.6601626,0,0
v_107.656250_-6.956697,Jalan Marga Cinta,-6.9566973,107.6562501,0,0
3383643778,Borma Margacinta,-6.9554392,107.6518488,0,0
v_107.643836_-6.954751,Jalan Marga Cinta,-6.9547511,107.6438361,0,0
v_107.641068_-6.951144,Jalan Terusan Kiara Condong,-6.9511442,107.6410675,0,0
12806853434,Jalan H. Basuki,-6.9443088,107.6418944,0,0
12806853438,Borma Kiaracondong,-6.9428669,107.6419879,0,0
12806853441,Seberang Jalan Sekejati,-6.9399607,107.6421744,0,0
v_107.642703_-6.933825,Jalan H. Ibrahim Adjie,-6.9338245,107.6427034,0,0
v_107.643946_-6.929470,Jalan H. Ibrahim Adjie,-6.9294702,107.6439464,0,0
11707030827,Lapangan Gasibu B,-6.9012501,107.6201283,0,0
12806868670,Tenth Avenue,-6.9458361,107.6408496,0,0
12806868674,Sekelimus Tengah,-6.9466415,107.6381159,0,0
12806868677,Sekelimus Barat,-6.9475072,107.6353065,0,0
2614138793,Medal Sekarwangi,-6.9484371,107.6323136,0,0
12626499697,Bangunan Mart A,-6.9494451,107.6281496,0,0
12626499700,LPKIA A,-6.9495008,107.6242225,0,0
12808867752,STIE Inaba,-6.9493807,107.6227995,0,0
2744242982,Pasirluyu Selatan/Sukaati,-6.9492577,107.6214461,0,0
3384018111,PT LEN Industri A,-6.9490929,107.6190348,0,0
12808867754,Mengger Girang,-6.9490185,107.6180229,0,0
12626529703,PLN UP3 Bandung A,-6.9485877,107.612094,0,0
11707031627,Simpang By Pass Soekarno Hatta B,-6.9483342,107.6087518,0,0
12808867758,Ampera Soekarno Hatta,-6.9480749,107.6050974,0,0
12808867763,Karasak Lama,-6.9478683,107.6021954,0,0
3277891129,Seberang Terminal Leuwipanjang,-6.9469193,107.592997,0,0
11295303565,Leuwipanjang Soekarno Hatta,-6.9468277,107.5934341,0,0
12808867762,Inhoftank,-6.9478017,107.6022466,0,0
12808867760,Seberang Ampera Soekarno Hatta,-6.9479853,107.6051379,0,0
12808867756,Karasak Utara,-6.9480912,107.6067107,0,0
3272360374,PLN UP3 Bandung B,-6.9484924,107.6121553,0,0
3384018110,PT LEN Industri B,-6.9489877,107.619152,0,0
12626499699,LPKIA B,-6.9494301,107.6248137,0,0
12626499698,Bangunan Mart B,-6.9493306,107.6280918,0,0
12806868676,Griya Hemat,-6.9474943,107.6348946,0,0
12806868672,Sekelimus Utara,-6.9464022,107.638444,0,0
11262097619,Stasiun Timur,-6.9153572,107.604546,0,0
v_107.608938_-6.913839,Jalan Perintis Kemerdekaan,-6.9138394,107.6089385,0,0
v_107.608391_-6.909367,Jalan Wastukencana,-6.9093671,107.6083912,0,0
v_107.610561_-6.905260,Jalan Ir. H. Djuanda,-6.9052602,107.6105606,0,0
v_107.612203_-6.900857,Jalan Ir. H. Djuanda,-6.9008571,107.6122033,0,0
v_107.612839_-6.895905,Jalan Ir. H. Djuanda,-6.895905,107.6128386,0,0
v_107.613217_-6.890944,Jalan Ir. H. Djuanda,-6.890944,107.6132172,0,0
v_107.613583_-6.886360,Jalan Ir. H. Djuanda,-6.8863604,107.6135826,0,0
v_107.615646_-6.881899,Jalan Ir. H. Djuanda,-6.8818987,107.6156462,0,0
v_107.617292_-6.877376,Jalan Ir. H. Djuanda,-6.8773761,107.6172919,0,0
v_107.619469_-6.873427,Jalan Ir. H. Djuanda,-6.873427,107.6194689,0,0
v_107.619998_-6.871909,Jalan Ir. H. Djuanda,-6.8719092,107.6199983,0,0
v_107.618198_-6.876304,Jalan Ir. H. Djuanda,-6.8763036,107.6181983,0,0
v_107.616246_-6.880480,Jalan Ir. H. Djuanda,-6.8804798,107.6162461,0,0
2034531651,UNIKOM Pascasarjana,-6.8858131,107.6137012,0,0
v_107.613342_-6.890379,Jalan Ir. H. Djuanda,-6.8903787,107.6133416,0,0
v_107.612959_-6.894937,Jalan Ir. H. Djuanda,-6.894937,107.6129594,0,0
v_107.612760_-6.899512,Jalan Ir. H. Djuanda,-6.8995115,107.6127597,0,0
v_107.610910_-6.904216,Jalan Ir. H. Djuanda,-6.9042157,107.61091,0,0
v_107.610623_-6.908862,Jalan Merdeka,-6.9088624,107.6106227,0,0
v_107.610342_-6.913613,Jalan Merdeka,-6.9136128,107.6103417,0,0
11711326974,Perintis Kemerdekaan,-6.9140241,107.607935,0,0
11735248675,Bank Indonesia,-6.9145426,107.608993,0,0
1849525838,Lembong,-6.916445,107.609811,0,0
10801865379,Telkom Lembong,-6.9170839,107.6111029,0,0
11735248678,RSU Bungsu,-6.9182518,107.6132908,0,0
v_107.620771_-6.906860,Jalan Lombok,-6.90686,107.6207709,0,0
v_107.634657_-6.895355,Jalan Pahlawan,-6.8953549,107.6346567,0,0
v_107.631164_-6.892247,Jalan Cikutra Barat,-6.8922471,107.6311643,0,0
3252929646,Terminal Sadang Serang,-6.8911775,107.6252674,0,0
v_107.629829_-6.891940,Jalan Cikutra Barat,-6.8919403,107.6298288,0,0
v_107.623506_-6.903379,Jalan Citarum,-6.9033792,107.6235062,0,0
319706142,RSAU dr. Salamun,-6.8635418,107.6049689,0,0
v_107.605910_-6.868211,Jalan Ciumbuleuit,-6.8682113,107.6059103,0,0
3462094658,UNPAR,-6.8753147,107.6044647,0,0
v_107.603606_-6.880009,Jalan Ciumbuleuit,-6.8800095,107.603606,0,0
3462094656,RS Advent,-6.8916075,107.6038612,0,0
29379371,Makmur,-6.8941794,107.5989838,0,0
29379391,RS Hasan Sadikin,-6.8961604,107.5993726,0,0
v_107.603715_-6.878637,Jalan Ciumbuleuit,-6.8786367,107.6037148,0,0
v_107.604825_-6.873670,Jalan Ciumbuleuit,-6.8736699,107.6048246,0,0
v_107.605807_-6.869213,Jalan Ciumbuleuit,-6.8692127,107.6058073,0,0
v_107.605233_-6.864128,Jalan Ciumbuleuit,-6.8641277,107.6052329,0,0
v_107.605885_-6.868743,Jalan Ciumbuleuit,-6.8687427,107.6058851,0,0
v_107.603900_-6.900402,Jalan Pasteur,-6.9004015,107.6038997,0,0
2012498684,Taman Adipura,-6.9068065,107.5992067,0,0
11138593915,SDN Pajajaran,-6.906861,107.599992,0,0
25500626,GOR Padjajaran,-6.9070015,107.6019252,0,0
3376669069,Kimia Farma,-6.9077123,107.6044661,0,0
293384756,Stasiun Bandung,-6.9125954,107.6029303,0,0
12806120204,Haji Mesri,-6.9124771,107.6007223,0,0
25434237,GKI Kebonjati,-6.916282,107.5988546,0,0
11735248674,SMA Pasundan,-6.9162422,107.599627,0,0
1013407725,Stasiun Hall,-6.9161478,107.6024001,0,0
10778322188,Dalem Kaum,-6.9219758,107.6040142,0,0
11711275743,Alun-Alun Bandung,-6.9211653,107.6071455,0,0
12808912264,Pos Banceuy,-6.9205454,107.6065186,0,0
12823636734,Rumah Sakit Murni Teguh,-6.9208368,107.6159966,0,0
v_107.619935_-6.923309,Jalan Burangrang,-6.9233089,107.6199354,0,0
v_107.623190_-6.926439,Jalan Halimun,-6.9264392,107.6231899,0,0
12809462425,Seberang Kangkung Kaler,-6.9308642,107.6261794,0,0
v_107.629763_-6.933693,Jalan Raden Adipati Aria Martanegara,-6.9336931,107.6297626,0,0
v_107.631760_-6.937913,Jalan Reog,-6.9379133,107.63176,0,0
12808948215,Kliningan Buahbatu,-6.9426596,107.6282283,0,0
5825209951,Simpang Samsat Kiaracondong,-6.9450226,107.6428119,0,0
12806851389,STT Mandala,-6.944662,107.6438888,0,0
12806851390,SMK Medika Com,-6.9438278,107.6464874,0,0
12806851392,Unibi,-6.9425403,107.6505153,0,0
12806851396,Cidurian Utara,-6.941787,107.6528692,0,0
12806851393,SMKN 9 Bandung,-6.9405212,107.6569119,0,0
3375689664,Jasa Raharja Jabar,-6.9400924,107.6582639,0,0
12806851400,Suparma,-6.9395718,107.6601512,0,0
12806868601,Kawaluyaan,-6.9390207,107.6635594,0,0
12806868603,Sanggar Hurip,-6.938728,107.6672726,0,0
v_107.671913_-6.938391,Jalan Soekarno-Hatta,-6.9383912,107.671913,0,0
12806868618,Cisaranten Kulon,-6.9379974,107.6775339,0,0
12806868620,KPP Pratama Cicadas,-6.9378628,107.6794352,0,0
v_107.684452_-6.937515,Jalan Soekarno-Hatta,-6.937515,107.6844521,0,0
v_107.689008_-6.937172,Jalan Soekarno-Hatta,-6.9371718,107.6890078,0,0
3780800108,Pasar Induk Gedebage,-6.9364151,107.6972019,0,0
12806516344,Barat Simpang Gedebage,-6.9372117,107.6918125,0,0
v_107.687123_-6.937537,Jalan Soekarno-Hatta,-6.937537,107.6871235,0,0
12806868621,SMKN 6 Bandung,-6.9380944,107.6794141,0,0
12806868622,Cipamokolan,-6.9382789,107.6768401,0,0
12806868623,Aria Graha,-6.9385626,107.6729122,0,0
3375689668,RS Al Islam,-6.9388175,107.6692698,0,0
12806868625,Metro,-6.93901,107.6665574,0,0
12806868626,Rancabolang,-6.9392635,107.6633094,0,0
12806868627,SMKN 7 Bandung,-6.939893,107.6598099,0,0
12806868632,Gagak Rimang,-6.9400797,107.6590642,0,0
3272226033,Metro Indah Mall,-6.9403972,107.6580268,0,0
12806868633,BPN Kanwil Jabar,-6.9406892,107.6570876,0,0
12806851397,Cidurian Selatan,-6.9420012,107.6529256,0,0
12806868637,Kantor Pos Sekejati,-6.9427159,107.6506763,0,0
12806868639,Disnaker Jabar,-6.944058,107.646481,0,0
12806868640,UNINUS,-6.9448492,107.6441008,0,0
12808948218,Guntursari Wetan,-6.9465686,107.6318869,0,0
1980677053,ISBI Bandung,-6.942597,107.6280578,0,0
12806868635,Golkar Jawa Barat,-6.9337673,107.6269745,0,0
12809462424,Kangkung Kaler,-6.9308456,107.6260901,0,0
v_107.623503_-6.926979,Jalan Palasari,-6.9269791,107.6235032,0,0
11735248683,Kantor Pos Kosambi,-6.9192144,107.6235031,0,0
3277420346,Seberang Pasar Kosambi,-6.9199617,107.6220644,0,0
11735248705,Ketapang,-6.921143,107.619848,0,0
12806120209,Taman Musik,-6.9122853,107.6165113,0,0
11739021629,SMAN 6 Bandung,-6.9114098,107.5979188,0,0
12806120202,SDN 013 Pajajaran,-6.9081059,107.5976849,0,0
5825369226,Unknown,-6.9058209,107.59755,0,0
12809082539,Djunjunan Paskal,-6.9003956,107.5968191,0,0
v_107.592927_-6.897844,Jalan Dr. Djunjunan,-6.8978439,107.5929268,0,0
12628813994,Griya Pasteur 1,-6.8950796,107.5884432,0,0
12628813991,Warung Cepot,-6.8923414,107.5832389,0,0
3384993309,Maranatha,-6.8859263,107.5813607,0,0
306334264,Cibogo Atas,-6.8818614,107.5777479,0,0
1585594342,Rusun Sarijadi,-6.8827073,107.5749699,0,0
12628813986,Sarijadi,-6.8816653,107.578425,0,0
12628813987,Lemahneundeut,-6.8813034,107.5787258,0,0
12628813990,Setrasari,-6.8821984,107.5814944,0,0
v_107.581414_-6.886743,Jalan Surya Sumantri,-6.8867428,107.5814137,0,0
1658426541,BPJS Pasteur,-6.8922539,107.5829072,0,0
12013144935,Mall d'Botanica,-6.8925604,107.5849478,0,0
2958261155,Djundjunan 3,-6.8929291,107.5856805,0,0
12628813992,Griya Pasteur 2,-6.8948914,107.5883918,0,0
v_107.592406_-6.897313,Jalan Dr. Djunjunan,-6.8973127,107.5924064,0,0
1700556149,Taman Westhoff,-6.9010192,107.5982442,0,0
12809283847,SDN Sukaraja,-6.8914927,107.5786575,0,0
1396428138,Simpang Dakota,-6.8935189,107.5726156,0,0
12809283844,Borma Dakota,-6.8908761,107.572217,0,0
12809283842,Mentor,-6.889704,107.5698999,0,0
3250402136,Gunung Batu,-6.8875315,107.5672467,0,0
2317306703,Seberang Gateway Pasteur,-6.8893002,107.566898,0,0
v_107.571799_-6.890106,Jalan Gunung Batu,-6.8901058,107.571799,0,0
v_107.576343_-6.891143,Jalan Sukaraja,-6.8911426,107.5763426,0,0
v_107.596011_-6.900057,Jalan Dr. Djunjunan,-6.9000567,107.5960113,0,0
12809237524,GKI Pasteur,-6.9002045,107.6027269,0,0
12809237527,Pajajaran Timur,-6.9071527,107.6047535,0,0
3874166202,Terminal Margahayu Raya,-6.9465292,107.6626652,0,0
v_107.644027_-6.929358,Jalan Layang Kiaracondong,-6.9293584,107.6440269,0,0
v_107.644461_-6.924803,Jalan Layang Kiaracondong,-6.9248034,107.6444607,0,0
3376430783,Tugu Tunas Taman Pramuka,-6.9105422,107.6265596,0,0
12947493616,Riau Aceh,-6.9097089,107.6256861,0,0
12809507149,bjb Riau,-6.9092859,107.6252606,0,0
12947493614,HKBP Riau,-6.9086974,107.624592,0,0
12809507147,Riau Cihapit,-6.9081445,107.623898,0,0
12809507143,Pengadilan Negeri Bandung,-6.9063102,107.6220332,0,0
12947493613,De Pavilijoen,-6.9058792,107.6207244,0,0
12947493612,Sekolah Taruna Bakti,-6.9060981,107.6183784,0,0
12947493611,Graha Pos,-6.9061429,107.6173359,0,0
v_107.600512_-6.882585,Jalan Dokter Danudirja Setiabudhi,-6.8825853,107.600512,0,0
29379224,Jl. Jurang,-6.8873092,107.6005875,0,0
11739021634,Riau XL,-6.9068537,107.6096165,0,0
12947493608,Rumah Sakit Sariningsih,-6.9070444,107.6114489,0,0
12819940053,Riau Junction,-6.9070609,107.6116695,0,0
12947493609,RSGM Kota Bandung,-6.9064746,107.6144094,0,0
12947493610,Heritage,-6.9061407,107.6173687,0,0
2670043322,TK Taruna Bakti,-6.905928,107.6195027,0,0
12809507145,Seberang Pengadilan Negeri Bandung,-6.9062923,107.6220004,0,0
3375793684,Pusdiklat PU,-6.9069596,107.6228683,0,0
12947493615,Riau Serayu,-6.9090547,107.6250154,0,0
v_107.644269_-6.919053,Jalan H. Ibrahim Adjie,-6.9190528,107.6442687,0,0
v_107.644450_-6.924568,Jalan Layang Kiaracondong,-6.9245676,107.64445,0,0
1664514926,Terminal Riung Bandung,-6.9493701,107.6832703,0,0
v_107.682771_-6.944369,Jalan Riung Subur,-6.9443687,107.6827714,0,0
3375794694,DPRD Kota Bandung,-6.916856,107.6342682,0,0
3476292190,Dishub Jabar,-6.9181019,107.6324739,0,0
11707030859,Bandung Creative Hub B,-6.9184177,107.6312506,0,0
12947493617,Seberang Hotel Grand Tebu,-6.9133503,107.6290686,0,0
v_107.623940_-6.912510,Jalan Patra Komala,-6.9125098,107.6239395,0,0
v_107.618607_-6.911561,Jalan Belitung,-6.9115608,107.6186071,0,0
v_107.616920_-6.902617,Jalan Cilamaya,-6.9026169,107.6169204,0,0
v_107.615385_-6.882261,Jalan Ir. H. Djuanda,-6.8822612,107.6153854,0,0
3373712063,Dago Pojok,-6.8745002,107.6190216,0,0
12819940048,Taman Budaya,-6.8682321,107.6205719,0,0
11707030826,Panatayudha A,-6.8979225,107.6161542,0,0
1660289593,Gasibu,-6.8992842,107.6179657,0,0
3375793685,Taman Pramuka,-6.9105798,107.6265967,0,0
3375793687,Hotel Grand Tebu,-6.9130163,107.6288644,0,0
5391666887,Jalan Mangga,-6.9151724,107.6310524,0,0
11735248691,Sekolah Agustinus,-6.9140574,107.6332108,0,0
v_107.678889_-6.942602,Jalan Riung Hegar Raya,-6.9426017,107.6788887,0,0
12633822769,Pasar Caringin,-6.9419021,107.5829792,0,0
v_107.580013_-6.938138,Jalan Soekarno-Hatta,-6.9381376,107.5800131,0,0
12808867766,Griya Sumbersari,-6.9325102,107.5766013,0,0
v_107.579596_-6.929013,Jalan Pasir Koja,-6.9290134,107.5795965,0,0
v_107.584067_-6.927273,Jalan Pasir Koja,-6.9272726,107.5840665,0,0
11711275757,Toko Ambon,-6.9186067,107.5855198,0,0
1911635044,Yayasan LPPN,-6.9157549,107.5853751,0,0
11735239268,SMA Trinitas,-6.9165436,107.5917121,0,0
11735248671,Rumah Sakit Kebon Jati,-6.9163694,107.5966005,0,0
3640664489,Paskal Hypersquare,-6.9155623,107.5981241,0,0
5825246687,Unknown,-6.906026,107.6093278,0,0
v_107.630761_-6.894020,Jalan Rereng Adumanis,-6.8940198,107.6307614,0,0
v_107.630164_-6.889545,Jalan Cigadung Raya Timur,-6.8895453,107.6301639,0,0
v_107.629299_-6.884988,Jalan Cigadung Raya Tengah,-6.8849878,107.6292989,0,0
312523735,Cigadung/Rancakendal,-6.8780245,107.6236902,0,0
v_107.622507_-6.873576,Jalan Cigadung Raya Barat,-6.8735757,107.6225067,0,0
5825396969,Unknown,-6.8651084,107.6262405,0,0
v_107.622603_-6.871492,Jalan Cigadung Raya Barat,-6.8714915,107.6226033,0,0
v_107.625961_-6.882270,Jalan Cigadung Raya Barat,-6.8822696,107.6259609,0,0
v_107.629584_-6.885323,Jalan Cigadung Raya Tengah,-6.8853227,107.6295837,0,0
v_107.630263_-6.889788,Jalan Cigadung Raya Timur,-6.8897876,107.6302631,0,0
12628813996,Cikapayang Dago 1,-6.8990335,107.6120546,0,0
v_107.609037_-6.902614,Jalan Rangga Gadang,-6.9026143,107.6090375,0,0
2012970403,Arjuna/Bima,-6.9087296,107.5917888,0,0
v_107.587475_-6.910776,Jalan Komodor Udara Supadio,-6.9107757,107.5874751,0,0
v_107.582959_-6.908966,Jalan Komodor Udara Supadio,-6.9089659,107.5829594,0,0
v_107.590073_-6.916471,Jalan Rajawali Timur,-6.9164713,107.5900726,0,0
v_107.586214_-6.920918,Jalan Jamika,-6.9209176,107.5862144,0,0
12626357387,Simpang Pasir Koja,-6.9270511,107.5849563,0,0
12626357388,SPBU Pasir Koja,-6.9292122,107.5793217,0,0
12808867765,Sumbersari 1,-6.9313117,107.5763049,0,0
12626357398,Sumber Sari Junction,-6.9323901,107.576671,0,0
v_107.579576_-6.937339,Jalan Soekarno-Hatta,-6.937339,107.5795763,0,0
12626357399,Pasar Induk Caringin,-6.9419015,107.5831212,0,0
12808867764,Simpang Caringin,-6.9434372,107.5850407,0,0
3272542985,Puskesmas Kopo,-6.9462748,107.5892183,0,0
7484309659,Barat Simpang Kopo Caringin,-6.9467105,107.5879339,0,0
3251007192,Pangkalan Angkot Panghegar,-6.9237417,107.6835707,0,0
12814754637,SMK YPF,-6.9206777,107.6842783,0,0
v_107.685067_-6.916227,Jalan terdekat,-6.916227,107.6850672,0,0
12814754622,Silver Kris,-6.909138,107.6844034,0,0
v_107.681866_-6.905397,Jalan Abdul Haris Nasution,-6.905397,107.6818657,0,0
12806309250,Seberang Borma Pasirimpun,-6.9047223,107.6758598,0,0
35135540,Lapas Sukamiskin,-6.9046182,107.6750064,0,0
12806309247,Komplek Sarimas,-6.9046989,107.672335,0,0
v_107.667497_-6.904197,Jalan Abdul Haris Nasution,-6.904197,107.6674966,0,0
v_107.662949_-6.903758,Jalan Abdul Haris Nasution,-6.9037576,107.6629487,0,0
5832221936,Depan Terminal Cicaheum,-6.9022123,107.6568007,0,0
11735248707,BCA Cimuncang,-6.9060351,107.6483165,0,0
11735248706,Gateway Cicadas,-6.9072816,107.6459395,0,0
v_107.617916_-6.903794,Jalan Cilamaya,-6.9037939,107.6179156,0,0
12813237928,Lapangan Sipil,-6.8933731,107.6094774,0,0
2035856554,Gerbang Depan ITB,-6.8932466,107.6109077,0,0
12813237913,Ganesha Ciungwanara,-6.8936144,107.6121446,0,0
11104669204,Rumah Sakit Santo Borromeus A,-6.8944643,107.6129302,0,0
12813237923,Masjid Salman,-6.8933595,107.611316,0,0
12813237926,Klinik Pratama ITB,-6.8933482,107.6095668,0,0
11735248679,Pasar Kosambi,-6.9199012,107.6221779,0,0
11735248685,Segitiga Mas,-6.9179222,107.6258605,0,0
11735248686,Jaya Plaza,-6.9174142,107.6268373,0,0
11735248689,Dinas Pendidikan Kota Bandung,-6.9164526,107.6287225,0,0
v_107.643780_-6.908380,Jalan Jenderal Ahmad Yani,-6.9083798,107.6437801,0,0
11735248708,Cimuncang,-6.9050722,107.650154,0,0
12806309242,SDN Cikadut,-6.9040466,107.6656526,0,0
12806309246,Gang H.M. Syarief,-6.9044513,107.6718533,0,0
12806309248,Borma Pasirimpun,-6.904729,107.6759315,0,0
v_107.680997_-6.905210,Jalan Abdul Haris Nasution,-6.9052105,107.6809974,0,0
12814754624,Yuntex Raya,-6.9099636,107.6840757,0,0
v_107.684377_-6.914513,Jalan Cicukang,-6.9145134,107.6843774,0,0
12814754639,K.H. Djunaedi,-6.922592,107.6839378,0,0
v_107.596283_-6.878750,Jalan Sukajadi,-6.8787501,107.5962832,0,0
v_107.591649_-6.877912,Jalan Sindang Sirna,-6.8779119,107.5916487,0,0
v_107.590601_-6.873375,Jalan Cipedes Atas,-6.8733749,107.5906013,0,0
29357243,KPAD,-6.8685096,107.5860838,0,0
v_107.581782_-6.869961,Jalan Sari Endah Baru,-6.8699609,107.5817817,0,0
v_107.580182_-6.874316,Jalan Sarijadi Raya,-6.8743162,107.5801822,0,0
v_107.577344_-6.878288,Jalan Sarimanah,-6.8782876,107.5773438,0,0
v_107.577159_-6.878719,Jalan Sarimanah,-6.8787194,107.5771594,0,0
v_107.579875_-6.875047,Jalan Sarijadi Raya,-6.8750471,107.579875,0,0
v_107.580898_-6.870661,Jalan Sarijadi Raya,-6.8706613,107.5808975,0,0
v_107.590498_-6.869916,Jalan Geger Kalong Hilir,-6.8699157,107.590498,0,0
v_107.590600_-6.875530,Jalan Cipedes Atas,-6.8755303,107.5906,0,0
12634504453,Karangsetra Waterland,-6.8790317,107.5951798,0,0
v_107.599223_-6.881242,Jalan Karang Sari,-6.8812425,107.5992232,0,0
v_107.601694_-6.885053,Jalan Raden Adipati Aria Wiranatakusumah,-6.8850534,107.6016942,0,0
3383508275,Komodor Supadio,-6.9094444,107.5841152,0,0
v_107.580003_-6.907485,Jalan terdekat,-6.9074851,107.580003,0,0
v_107.578021_-6.911755,Jalan Garuda,-6.9117553,107.5780214,0,0
v_107.577027_-6.916166,Jalan Garuda,-6.9161661,107.5770267,0,0
v_107.574453_-6.919879,Jalan Soekarno-Hatta,-6.9198794,107.5744531,0,0
29380518,Holis/Bojong,-6.9279358,107.5740641,0,0
3252892639,Cijerah,-6.9266742,107.5657238,0,0
v_107.564540_-6.931610,Jalan Raya Cijerah,-6.9316096,107.5645396,0,0
3110267088,Gempol Sari,-6.9299747,107.5580796,0,0
v_107.553952_-6.927500,Jalan Gempol,-6.9274998,107.5539518,0,0
3385219353,Terminal Bumi Asri,-6.9324632,107.5508272,0,0
v_107.574866_-6.923303,Jalan Soekarno-Hatta,-6.9233028,107.5748665,0,0
v_107.574303_-6.918267,Jalan Soekarno-Hatta,-6.9182666,107.5743029,0,0
11711326973,Terminal Elang,-6.9133498,107.575723,0,0
11735239264,Rajawali 1,-6.9137773,107.5781901,0,0
11735239266,Dunguscariang,-6.9149105,107.5828928,0,0
v_107.551759_-6.927996,Jalan Dirgantara,-6.9279959,107.5517589,0,0
v_107.562406_-6.932109,Jalan Gempol,-6.9321088,107.5624059,0,0
11711326972,Plaza Telkom Rajawali,-6.9129722,107.5753653,0,0
v_107.598412_-6.920861,Jalan Astana Anyar,-6.9208607,107.5984122,0,0
v_107.599520_-6.925808,Jalan Astana Anyar,-6.9258084,107.5995204,0,0
v_107.600610_-6.930206,Jalan Panjunan,-6.9302062,107.6006099,0,0
12806717333,RS Imanuel Pintu Kopo,-6.9351264,107.5957871,0,0
11739021652,Rumah Sakit Immanuel A,-6.9372267,107.5956524,0,0
12628930762,Muara A,-6.9371534,107.6020331,0,0
12806765746,Taman Tegalega/Sri Baduga,-6.9373001,107.6037009,0,0
11707031601,PT INTI B (BKR 5),-6.9375463,107.6067624,0,0
3445680780,Samsudin,-6.9375959,107.6083051,0,0
v_107.612368_-6.935165,Jalan Mochammad Ramdhan,-6.9351648,107.6123682,0,0
12806717340,Aneka Jeans,-6.924329,107.6268157,0,0
12806717344,SPBU Laswi,-6.9236669,107.6279241,0,0
11735248690,Stadion Persib Sidolig,-6.9161976,107.6292904,0,0
12637510528,Stasiun Cikudapateuh,-6.9189956,107.6258024,0,0
12806717338,SMK Pariwisata Telkom,-6.9255559,107.623843,0,0
9189908949,Yayasan Muslimah,-6.9272967,107.6234197,0,0
2607816747,Unknown,-6.9309756,107.622434,0,0
v_107.617994_-6.931953,Jalan Sadakeling,-6.9319531,107.6179937,0,0
v_107.613828_-6.933741,Jalan Mochammad Ramdhan,-6.9337409,107.6138283,0,0
10815723012,Simpang Mohamad Toha Biddokkes,-6.9375586,107.6055097,0,0
12806765747,Muara,-6.9374746,107.5999005,0,0
11739021653,Rumah Sakit Immanuel B,-6.9372977,107.5955421,0,0
v_107.596454_-6.932812,Jalan Kyai Haji Wahid Hasyim,-6.9328118,107.5964545,0,0
12806765750,Karanganyar,-6.9226401,107.598583,0,0
11711275755,Mayapada Tower,-6.9193345,107.591747,0,0
11735248716,Simpang Jamika,-6.9188238,107.5874451,0,0
11954573588,SDN Raya Barat,-6.9181852,107.5819763,0,0
11711275763,Kemenag Kanwil Jabar,-6.9176018,107.5771136,0,0
2604179157,Optik Krida,-6.9155598,107.5720549,0,0
11954573590,Batas Kota,-6.9109035,107.569361,0,0
11711326971,Rajawali Barat,-6.9109306,107.5701462,0,0
11898859975,Grand Yogya Kepatihan,-6.9238597,107.606261,0,0
11707031579,Hotel Horison B,-6.9343038,107.6251981,0,0
7702036194,Hotel Horison A,-6.9343354,107.6252887,0,0
12808948214,Selontongan,-6.9402599,107.625925,0,0
12626499695,Taman Buah Batu,-6.9484693,107.6339239,0,0
12626499694,Swadarma BNI,-6.9503784,107.6357751,0,0
12626499692,Pasar Kordon B,-6.9534876,107.6387006,0,0
12626499689,Bluebird B,-6.9584038,107.6394982,0,0
12626499688,Puskesmas Kujangsari B,-6.9649573,107.6381038,0,0
6609327003,Cipagalo,-6.9657129,107.6378871,0,0
12808943892,Puskesmas Kujangsari A,-6.9647853,107.6380282,0,0
12626499690,Bluebird A,-6.9576866,107.639482,0,0
35138340,Pasar Kordon A,-6.9541863,107.638933,0,0
12626499693,JAPNAS,-6.9512022,107.6364761,0,0
1980592202,Seberang Selontongan,-6.9400594,107.6256577,0,0
v_107.622539_-6.936746,Jalan Buah Batu,-6.9367463,107.6225387,0,0
12626529706,Banceuy,-6.9187122,107.6066404,0,0
29357939,Junction 8 Sukajadi,-6.8840134,107.596703,0,0
v_107.601580_-6.884516,Jalan Cemara,-6.8845161,107.60158,0,0
v_107.602431_-6.889762,Jalan Raden Adipati Aria Wiranatakusumah,-6.8897621,107.6024306,0,0
3376669085,Masjid Besar Cipaganti,-6.894782,107.602517,0,0
v_107.597397_-6.898625,Jalan Pasir Kaliki,-6.8986245,107.5973974,0,0
v_107.578941_-6.908360,Jalan Garuda,-6.9083597,107.5789413,0,0
v_107.577624_-6.913560,Jalan Garuda,-6.9135596,107.5776241,0,0
v_107.570070_-6.919636,Jalan Raya Cijerah,-6.9196362,107.5700698,0,0
3115995953,Cijerah,-6.927117,107.5648451,0,0
1387999370,Puskesmas Melong Asih,-6.9239311,107.5628736,0,0
v_107.568025_-6.923628,Jalan Raya Cijerah,-6.9236278,107.5680252,0,0
v_107.570106_-6.919504,Jalan Raya Cijerah,-6.9195043,107.5701063,0,0
v_107.578684_-6.908936,Jalan Garuda,-6.9089362,107.5786837,0,0
v_107.583012_-6.907607,Jalan Abdul Rahman Saleh,-6.907607,107.5830117,0,0
v_107.597384_-6.900901,Jalan HOS. Cokroaminoto,-6.9009013,107.5973841,0,0
v_107.597854_-6.896295,Jalan Sederhana,-6.8962946,107.597854,0,0
v_107.594649_-6.892376,Jalan Sukagalih,-6.8923756,107.5946486,0,0
v_107.567449_-6.889406,Jalan Gunung Batu,-6.8894061,107.5674492,0,0
v_107.563137_-6.891222,Jalan Gunung Batu,-6.8912219,107.5631369,0,0
1666231924,Pangkalan Angkot Cimindi,-6.8953145,107.5602213,0,0
v_107.590399_-6.893250,Jalan Sukagalih,-6.8932499,107.5903993,0,0
v_107.670937_-6.961894,Jalan Marga Cinta,-6.9618945,107.6709374,0,0
v_107.675165_-6.963943,Jalan Derwati,-6.9639429,107.6751648,0,0
v_107.677138_-6.959842,Jalan terdekat,-6.9598424,107.6771384,0,0
v_107.677630_-6.955342,Jalan terdekat,-6.9553422,107.6776296,0,0
v_107.676513_-6.950739,Jalan terdekat,-6.9507386,107.6765127,0,0
v_107.676131_-6.946126,Jalan Cipamokolan,-6.9461257,107.6761311,0,0
v_107.679260_-6.934348,Jalan Cisaranten Kulon,-6.9343481,107.6792604,0,0
v_107.679779_-6.929759,Jalan Cisaranten Kulon,-6.9297585,107.6797787,0,0
v_107.682927_-6.926320,Jalan terdekat,-6.9263197,107.6829274,0,0
v_107.684062_-6.921631,Jalan terdekat,-6.9216309,107.6840618,0,0
v_107.684354_-6.917052,Jalan terdekat,-6.9170521,107.6843535,0,0
v_107.683202_-6.912217,Jalan Cicukang,-6.9122167,107.6832025,0,0
11047579524,UPTD Laboratorium Lingkungan Hidup,-6.9074116,107.6864696,0,0
v_107.689760_-6.910638,Jalan Abdul Haris Nasution,-6.910638,107.6897602,0,0
v_107.693727_-6.913070,Jalan Abdul Haris Nasution,-6.9130705,107.6937275,0,0
11079993716,Ujungberung,-6.9140461,107.7028132,0,0
2477149675,SDN Andir Kidul,-6.9136497,107.6955657,0,0
v_107.691000_-6.912048,Jalan Abdul Haris Nasution,-6.9120482,107.6910003,0,0
12806309257,Seberang SMAN 24 Bandung,-6.9084047,107.6881997,0,0
11047579523,Pusjatan,-6.907525,107.6867495,0,0
3251007173,Gerbang Pusjatan,-6.907087,107.6856912,0,0
v_107.683468_-6.911597,Jalan Cicukang,-6.9115966,107.6834678,0,0
v_107.684943_-6.915883,Jalan terdekat,-6.9158827,107.6849427,0,0
v_107.684381_-6.920404,Jalan terdekat,-6.9204036,107.6843809,0,0
v_107.683378_-6.924864,Jalan Cinambo,-6.9248645,107.6833778,0,0
v_107.680852_-6.929152,Jalan terdekat,-6.9291518,107.6808518,0,0
v_107.679149_-6.933353,Jalan Cisaranten Kulon,-6.933353,107.6791492,0,0
v_107.684504_-6.937583,Jalan Soekarno-Hatta,-6.9375833,107.6845037,0,0
v_107.677155_-6.942478,Jalan Cipamokolan,-6.9424783,107.6771548,0,0
v_107.676157_-6.946916,Jalan Cipamokolan,-6.9469155,107.6761572,0,0
v_107.676503_-6.951562,Jalan terdekat,-6.9515615,107.6765027,0,0
v_107.677604_-6.956032,Jalan terdekat,-6.9560319,107.6776036,0,0
v_107.676811_-6.961247,Jalan terdekat,-6.9612474,107.676811,0,0
11313188130,Pusdiklat Geologi Cisitu,-6.8796599,107.6120393,0,0
11711275750,KEB Hana Bank,-6.9205571,107.6020569,0,0
3246190447,Terminal Tegallega,-6.9338128,107.6027695,0,0
6443280171,Astana Anyar RSIA Kota Bandung,-6.9293977,107.600717,0,0
12806765752,Cibadak Astanaanyar,-6.9209178,107.5984181,0,0
12809269114,Seberang SMAN 4 Bandung,-6.9194582,107.5983096,0,0
29392595,UNISBA,-6.903986,107.6082182,0,0
12813184472,Sangkuriang,-6.8843045,107.6116232,0,0
3115112896,Mesjid Jami Al Hamidah Cibolerang,-6.9487566,107.565655,0,0
v_107.570164_-6.949803,Jalan Cibolerang,-6.9498029,107.5701642,0,0
v_107.574656_-6.950755,Jalan Cibolerang,-6.9507547,107.5746555,0,0
v_107.579247_-6.952224,Jalan Cibolerang,-6.9522244,107.5792473,0,0
v_107.583960_-6.953390,Jalan Cibolerang,-6.95339,107.5839602,0,0
v_107.591090_-6.943446,Jalan Kyai Haji Wahid Hasyim,-6.9434463,107.5910903,0,0
12628901396,SDN Babakan Tarogong,-6.9384872,107.594148,0,0
12808948210,Patung Ikan,-6.937657,107.610179,0,0
v_107.616214_-6.937900,Jalan BKR,-6.9379,107.6162137,0,0
3272575985,BKR Buah Batu,-6.9365872,107.6231054,0,0
v_107.643119_-6.954680,Jalan Marga Cinta,-6.9546799,107.6431186,0,0
12808948211,Simpang Buah Batu BKR,-6.9373473,107.6222364,0,0
v_107.617120_-6.938080,Jalan BKR,-6.9380799,107.6171204,0,0
v_107.596583_-6.941097,Jalan Leuwi Panjang,-6.9410971,107.5965833,0,0
v_107.586664_-6.950111,Jalan Kyai Haji Wahid Hasyim,-6.9501105,107.5866637,0,0
v_107.583347_-6.953209,Jalan Cibolerang,-6.9532093,107.5833466,0,0
v_107.578877_-6.952203,Jalan Cibolerang,-6.952203,107.5788774,0,0
v_107.574348_-6.950716,Jalan Cibolerang,-6.9507155,107.5743484,0,0
12013198354,Terminal Elang,-6.9144895,107.5753136,0,0
v_107.578752_-6.917704,Jalan Jendral Sudirman,-6.917704,107.5787521,0,0
v_107.583283_-6.918265,Jalan Jendral Sudirman,-6.9182648,107.5832831,0,0
v_107.586041_-6.921992,Jalan Jamika,-6.9219918,107.5860408,0,0
v_107.585675_-6.926535,Jalan terdekat,-6.9265347,107.5856754,0,0
v_107.590187_-6.925856,Jalan Pasir Koja,-6.9258559,107.590187,0,0
v_107.594702_-6.926339,Jalan Pasir Koja,-6.9263393,107.5947017,0,0
11739021644,Taman Tegallega,-6.9339734,107.603223,0,0
v_107.612813_-6.938190,Jalan Sriwijaya,-6.9381902,107.6128126,0,0
v_107.612819_-6.943173,Jalan Sriwijaya,-6.9431725,107.6128194,0,0
v_107.617338_-6.943602,Jalan Pasir Salam,-6.9436018,107.6173375,0,0
12806516343,Seberang Jalan Pasar Induk,-6.9308368,107.6935374,0,0
v_107.695495_-6.925558,Jalan Rumah Sakit,-6.9255578,107.6954953,0,0
v_107.697466_-6.921431,Jalan Rumah Sakit,-6.9214314,107.6974662,0,0
12638331186,RSUD Ujungberung,-6.9158662,107.6992861,0,0
v_107.697663_-6.920837,Jalan Rumah Sakit,-6.9208368,107.6976627,0,0
v_107.695695_-6.925036,Jalan Rumah Sakit,-6.925036,107.6956949,0,0
v_107.694107_-6.929278,Jalan Rumah Sakit,-6.9292778,107.6941072,0,0
v_107.621107_-6.944731,Jalan Pasir Salam,-6.9447309,107.6211069,0,0
v_107.616629_-6.943500,Jalan Pasir Salam,-6.9435002,107.6166291,0,0
v_107.616057_-6.939013,Jalan Pasirluyu Barat,-6.9390126,107.6160568,0,0
11739021646,Taman Tegallega,-6.9365059,107.6030596,0,0
11739021654,Pintu Masuk Terminal Tegallega,-6.9338521,107.6024577,0,0
v_107.597976_-6.927591,Jalan Kopo,-6.9275908,107.5979756,0,0
v_107.593358_-6.926191,Jalan Pasir Koja,-6.9261911,107.5933578,0,0
v_107.588776_-6.925812,Jalan Pasir Koja,-6.9258124,107.5887765,0,0
12629197818,Overpass Mengger,-6.9619679,107.6229457,0,0
v_107.622389_-6.955950,Jalan terdekat,-6.9559496,107.6223888,0,0
v_107.625992_-6.949569,Jalan Soekarno-Hatta,-6.9495692,107.6259917,0,0
v_107.639313_-6.929956,Jalan Jenderal Gatot Subroto,-6.9299564,107.6393128,0,0
12813438858,Asrama Pussenkav,-6.9258471,107.6326164,0,0
12806717342,Sumber Rasa,-6.924387,107.6270579,0,0
v_107.622671_-6.923108,Jalan Jenderal Gatot Subroto,-6.9231079,107.6226711,0,0
v_107.619515_-6.926592,Jalan Burangrang,-6.926592,107.6195149,0,0
v_107.616463_-6.928716,Jalan Cikawao,-6.9287163,107.6164635,0,0
5853120078,Sekolah BPI,-6.9234243,107.6199018,0,0
v_107.631358_-6.925403,Jalan Jenderal Gatot Subroto,-6.9254032,107.6313583,0,0
29354702,Pasar Baru,-6.9164303,107.6044519,0,0
11739021639,Toko Mas ABC,-6.9230192,107.6039434,0,0
11739021642,Jalan Ibu Inggit Garnasih,-6.9314959,107.6039218,0,0
3270445565,Terminal Antapani,-6.915304,107.6659285,0,0
v_107.661673_-6.917179,Jalan Purwakarta,-6.9171787,107.6616731,0,0
v_107.657018_-6.917307,Jalan Purwakarta,-6.9173067,107.6570184,0,0
v_107.655135_-6.912935,Jalan Subang,-6.912935,107.6551351,0,0
3378630365,Seberang Borma Antapani,-6.9130091,107.6492727,0,0
v_107.624445_-6.916451,Jalan Gudang Utara,-6.9164512,107.6244453,0,0
v_107.619692_-6.915302,Jalan Gudang Utara,-6.9153016,107.6196923,0,0
v_107.614315_-6.911763,Jalan Kalimantan,-6.9117628,107.6143153,0,0
v_107.618734_-6.912777,Jalan Bangka,-6.9127767,107.6187336,0,0
v_107.622171_-6.915901,Jalan Gudang Utara,-6.9159011,107.6221708,0,0
12809462429,RSIA Grha Bunda,-6.9134024,107.6455398,0,0
2493372403,Borma Antapani,-6.9129025,107.6495005,0,0
12809462431,Stikes Dharma Husada,-6.9127456,107.6507427,0,0
302241143,bjb Antapani,-6.9123839,107.6538136,0,0
v_107.655520_-6.916962,Jalan Purwakarta,-6.9169619,107.6555204,0,0
v_107.660359_-6.917452,Jalan Purwakarta,-6.9174516,107.6603586,0,0
12814754658,Depan Pasar Gedebage,-6.9365674,107.6973063,0,0
v_107.702019_-6.936207,Jalan Soekarno-Hatta,-6.9362066,107.702019,0,0
12806516348,Universitas Bhakti Kencana,-6.9356286,107.7099558,0,0
35131593,Bundaran Cibiru,-6.9352673,107.7175908,0,0
v_107.713648_-6.938625,Jalan Raya Bumi Panyileukan,-6.9386251,107.7136482,0,0
10991362712,Pangkalan Angkot Bumi Panyileukan,-6.9466584,107.712912,0,0
v_107.715203_-6.939245,Jalan Raya Bumi Panyileukan,-6.9392452,107.7152034,0,0
12806516349,Panyileukan,-6.9357289,107.7121547,0,0
12806516346,Cimincrang,-6.9361475,107.7064226,0,0
v_107.701753_-6.936490,Jalan Soekarno-Hatta,-6.93649,107.7017533,0,0
12806516345,Shakti,-6.936831,107.6970872,0,0
v_107.671659_-6.938645,Jalan Soekarno-Hatta,-6.9386448,107.6716586,0,0
3380490528,Pasar Cimol Gedebage,-6.9324741,107.6970712,0,0
v_107.681352_-6.905266,Jalan Abdul Haris Nasution,-6.9052663,107.6813524,0,0
12637472327,Surya Kencana,-6.8948409,107.6144033,0,0
v_107.698527_-6.914073,Jalan Abdul Haris Nasution,-6.9140727,107.6985267,0,0
v_107.698369_-6.918677,Jalan Rumah Sakit,-6.9186772,107.6983691,0,0
v_107.696726_-6.922974,Jalan Rumah Sakit,-6.9229736,107.6967262,0,0
v_107.694575_-6.928010,Jalan Rumah Sakit,-6.9280103,107.6945747,0,0
v_107.583283_-6.945488,Jalan Caringin,-6.9454884,107.5832827,0,0
v_107.579021_-6.943964,Jalan Caringin,-6.9439642,107.579021,0,0
v_107.574443_-6.944017,Jalan Caringin,-6.9440168,107.5744428,0,0
v_107.570863_-6.941136,Jalan Caringin,-6.9411363,107.5708629,0,0
v_107.570367_-6.936515,Jalan Holis,-6.936515,107.5703669,0,0
v_107.572134_-6.932342,Jalan Holis,-6.9323418,107.5721343,0,0
v_107.573991_-6.928146,Jalan Holis,-6.9281462,107.5739914,0,0
v_107.568675_-6.927557,Jalan Bojong Raya,-6.927557,107.5686754,0,0
12809314930,SDN 061 Cijerah,-6.9218246,107.5690228,0,0
v_107.570781_-6.917537,Jalan Raya Cijerah,-6.9175368,107.5707809,0,0
v_107.596247_-6.904472,Jalan Astina,-6.9044716,107.5962473,0,0
v_107.600786_-6.903917,Jalan Dokter Radjiman Wedyodiningrat,-6.9039172,107.600786,0,0
v_107.618564_-6.885067,Jalan Tubagus Ismail,-6.8850667,107.6185643,0,0
v_107.623301_-6.886513,Jalan Tubagus Ismail,-6.8865131,107.6233011,0,0
v_107.617262_-6.885056,Jalan Tubagus Ismail,-6.885056,107.6172617,0,0
v_107.621939_-6.885169,Jalan Tubagus Ismail,-6.8851689,107.6219389,0,0
v_107.611164_-6.898622,Jalan Cikapayang,-6.8986221,107.6111644,0,0
12813251525,GKBI Andir,-6.9118487,107.578003,0,0
v_107.576871_-6.916820,Jalan Garuda,-6.91682,107.5768707,0,0
12809314925,Seberang Gang Pelita,-6.9156749,107.5711502,0,0
6442582357,Sunson Cijerah,-6.9178384,107.5707288,0,0
12809314928,Seberang SDN 093 Tunas Harapan Cijerah,-6.9214054,107.5694988,0,0
12809314932,Masjid Jami Al Istiqomah,-6.9225142,107.5683678,0,0
12809314934,Simpang Bojong Raya,-6.9268211,107.5661172,0,0
v_107.570606_-6.927752,Jalan Bojong Raya,-6.927752,107.5706062,0,0
v_107.572542_-6.931827,Jalan Holis,-6.9318266,107.572542,0,0
12809314936,Holis Regency,-6.9375575,107.570011,0,0
v_107.571427_-6.942027,Jalan Caringin,-6.9420269,107.5714275,0,0
v_107.575573_-6.944333,Jalan Caringin,-6.9443327,107.5755729,0,0
v_107.580117_-6.944356,Jalan Caringin,-6.9443561,107.5801167,0,0
v_107.594007_-6.949458,Jalan Raya Cibaduyut,-6.9494581,107.594007,0,0
v_107.593295_-6.953984,Jalan Raya Cibaduyut,-6.9539843,107.5932949,0,0
11338633720,Terminal Cibaduyut,-6.9617658,107.5937757,0,0
3115012017,Terminal Leuwipanjang,-6.9449801,107.5930651,0,0
12809314941,Barat Simpang Imanuel,-6.9366433,107.5943039,0,0
12626357384,Hotel Grand Pasundan,-6.9360768,107.5934112,0,0
12626357385,Bumi Kopo Kencana,-6.933574,107.5905268,0,0
12626357386,Festival Citylink,-6.9291184,107.5872624,0,0
v_107.595433_-6.945459,Jalan Leuwi Panjang,-6.945459,107.5954333,0,0
v_107.593903_-6.949807,Jalan Raya Cibaduyut,-6.9498072,107.5939029,0,0
v_107.593337_-6.954390,Jalan Raya Cibaduyut,-6.9543897,107.5933365,0,0
5348748788,TVRI Bandung,-6.9590537,107.5935544,0,0
v_107.598778_-6.923684,Jalan Astana Anyar,-6.9236837,107.5987785,0,0
