stop_id,stop_name,stop_lat,stop_lon,location_type,wheelchair_boarding
10314211362,Padalarang,-6.8434759,107.4978557,0,0
7835804492,Gadobangkong,-6.8653045,107.5154562,0,0
3370786092,Cimahi,-6.8865383,107.5366775,0,0
3370786794,Cimindi,-6.8965475,107.5617886,0,0
3370786798,Ciroyom,-6.9140765,107.5913716,0,0
10312881283,Bandung,-6.9145291,107.6031495,0,0
1228645053,Cikudapateuh,-6.9190287,107.6268971,0,0
11549081619,Kiaracondong,-6.9254604,107.6474712,0,0
11549081662,Gedebage,-6.9411554,107.6905412,0,0
10694286157,Cimekar,-6.9492676,107.7129671,0,0
10693253652,Rancaekek,-6.9651313,107.7564447,0,0
10693478235,Haurpugur,-6.9808307,107.7998788,0,0
11407574339,Cicalengka,-6.9821908,107.8330738,0,0
11407574341,Cicalengka,-6.981035,107.8320912,0,0
6872615131,Haurpugur,-6.9802356,107.7983447,0,0
10693253653,Rancaekek,-6.9646056,107.7553737,0,0
10694286156,Cimekar,-6.9486453,107.7113976,0,0
11549081663,Gedebage,-6.940438,107.6888097,0,0
11549081621,Kiaracondong,-6.9247723,107.6456051,0,0
7835805289,Cikudapateuh,-6.9185947,107.625378,0,0
10694245344,Bandung,-6.9144562,107.6013653,0,0
10693460291,Ciroyom,-6.9139018,107.5896798,0,0
291546102,Cimindi,-6.8956811,107.5606244,0,0
11546259370,Cimahi,-6.8849429,107.5353528,0,0
3468494606,Gadobangkong,-6.8637207,107.514805,0,0
10693460257,Padalarang,-6.8424481,107.4968441,0,0
10693460258,Padalarang,-6.8424956,107.4968046,0,0
11755899803,Cicalengka,-6.980985,107.8321466,0,0
1227216840,Padalarang,-6.8423863,107.4969052,0,0
11432455980,Cilame,-6.8032048,107.4629178,0,0
10694595318,Sasaksaat,-6.7790843,107.4314942,0,0
3352316735,Maswati,-6.7608275,107.4080713,0,0
10694595366,Rendeh,-6.7359973,107.3978666,0,0
10314211393,Cikadongdong,-6.7151762,107.3903795,0,0
10314211390,Plered,-6.6402782,107.3913512,0,0
10698993414,Sukatani,-6.6105348,107.4086071,0,0
10698966829,Ciganea,-6.5737471,107.4309483,0,0
10698921283,Purwakarta,-6.5525636,107.4464512,0,0
12063631330,Purwakarta,-6.553856,107.447082,0,0
10698966828,Ciganea,-6.5729485,107.4301051,0,0
10694595400,Sukatani,-6.6111493,107.4083066,0,0
10314211391,Plered,-6.6416537,107.3912649,0,0
10314211392,Cikadongdong,-6.715896,107.3913369,0,0
3448590009,Rendeh,-6.7365152,107.3993095,0,0
10694595345,Maswati,-6.760778,107.4093454,0,0
10694595317,Sasaksaat,-6.78052,107.4321188,0,0
11432455981,Cilame,-6.8036184,107.4645349,0,0
10314211366,Padalarang,-6.8435633,107.4980668,0,0
11874360196,Cicalengka,-6.9821038,107.8331166,0,0
9961298138,Nagreg,-7.0187312,107.8872319,0,0
535300018,Leles,-7.0849971,107.8998538,0,0
7206399183,Karangsari,-7.0988099,107.931297,0,0
10694286200,Leuwigoong,-7.1028395,107.9587146,0,0
10314211373,Cibatu,-7.0997162,107.9803328,0,0
9961235587,Pasirjengkol,-7.1291772,107.9922967,0,0
9961258726,Wanaraja,-7.1658406,107.9762771,0,0
10694286203,Garut,-7.2134006,107.9023164,0,0
11871903351,Garut,-7.2134704,107.905318,0,0
9961258724,Wanaraja,-7.1640756,107.9770777,0,0
10694286202,Pasirjengkol,-7.1273374,107.9925883,0,0
7205156020,Cibatu,-7.1002693,107.9787295,0,0
10694286201,Leuwigoong,-7.1038719,107.9575344,0,0
7206401686,Karangsari,-7.0974245,107.9308109,0,0
9961298076,Leles,-7.0838873,107.8997164,0,0
11874360195,Nagreg,-7.0178472,107.8854353,0,0
3277886379,Terminal Leuwipanjang,-6.9458452,107.5932425,0,0
12626357384,Hotel Grand Pasundan,-6.9360768,107.5934112,0,0
12626357385,Bumi Kopo Kencana,-6.933574,107.5905268,0,0
12626357386,Festival Citylink,-6.9291184,107.5872624,0,0
12626357387,Simpang Pasir Koja,-6.9270511,107.5849563,0,0
12626357388,SPBU Pasir Koja,-6.9292122,107.5793217,0,0
12626357389,Hotel Soreang A,-7.0141236,107.5309483,0,0
12626357390,Mall Pelayanan Publik,-7.0206847,107.5292319,0,0
12626357392,Plaza Pemkab Bandung,-7.0234041,107.5303409,0,0
12626357393,Simpang Desa Soreang,-7.0287904,107.5287745,0,0
12626357394,Pasar Ikan Modern,-7.0305108,107.5412986,0,0
12626357395,RSUD Otto Iskandar Dinata,-7.0273253,107.5425246,0,0
12626357396,Samsat Soreang,-7.0218422,107.5416105,0,0
12626357397,Geo Dipa Energi,-7.0154748,107.5363125,0,0
12626357383,Hotel Soreang B,-7.0141857,107.530779,0,0
12626357398,Sumber Sari Junction,-6.9323901,107.576671,0,0
12626357399,Pasar Induk Caringin,-6.9419015,107.5831212,0,0
11295303565,Leuwipanjang Soekarno Hatta,-6.9468277,107.5934341,0,0
11955383183,IKEA Kota Baru Parahyangan,-6.8663512,107.4668097,0,0
12143596539,Wahoo Waterworld,-6.8655811,107.4654195,0,0
11955383184,Parahyangan Timur,-6.8663744,107.4712124,0,0
11955383185,Rumah Sakit Cahaya Kawaluyaan,-6.8665328,107.4734039,0,0
11955383187,Masjid Al Irsyad,-6.8648529,107.4783521,0,0
11955383188,Tatar Wangsakerta A,-6.8619949,107.4805786,0,0
11955383190,Bale Pare A,-6.8568342,107.4897438,0,0
11536873492,Stasiun Kereta Cepat Padalarang,-6.8428228,107.4966418,0,0
11953710372,STEI LPPM A,-6.8573652,107.4986651,0,0
5287090695,RS Karisma Cimareme A,-6.8629469,107.5028237,0,0
5348536065,RS IMC A,-6.8633262,107.5098225,0,0
9908476904,Masjid Ar Ridwan A,-6.8675906,107.5190095,0,0
11954137035,Padasuka Indah A,-6.8685422,107.5263898,0,0
11954137037,Ranca Belut A,-6.8688013,107.5319386,0,0
11954137039,PLN Cisangkan A,-6.8704221,107.5363908,0,0
10680256969,BRI Cimahi,-6.8748788,107.5442734,0,0
11954552709,RSUD Cibabat A,-6.8797123,107.5503819,0,0
11954552711,Dinas Sosial,-6.8859958,107.5542851,0,0
11954552713,Jalan Budi,-6.8921818,107.5580359,0,0
11954552722,SMAN 13 Bandung A,-6.9033346,107.5648032,0,0
11954552728,Paledang,-6.905851,107.5663258,0,0
11711326971,Rajawali Barat,-6.9109306,107.5701462,0,0
11711326972,Plaza Telkom Rajawali,-6.9129722,107.5753653,0,0
11735239264,Rajawali 1,-6.9137773,107.5781901,0,0
11735239266,Dunguscariang,-6.9149105,107.5828928,0,0
11735239268,SMA Trinitas,-6.9165436,107.5917121,0,0
11735248671,Rumah Sakit Kebon Jati,-6.9163694,107.5966005,0,0
11735248674,SMA Pasundan,-6.9162422,107.599627,0,0
11711326974,Perintis Kemerdekaan,-6.9140241,107.607935,0,0
1849525838,Lembong,-6.916445,107.609811,0,0
11711275743,Alun-Alun Bandung,-6.9211653,107.6071455,0,0
11711275750,KEB Hana Bank,-6.9205571,107.6020569,0,0
11711275748,GKI Anugerah,-6.9200243,107.597515,0,0
11711275755,Mayapada Tower,-6.9193345,107.591747,0,0
11711275757,Toko Ambon,-6.9186067,107.5855198,0,0
11711275763,Kemenag Kanwil Jabar,-6.9176018,107.5771136,0,0
2604179157,Optik Krida,-6.9155598,107.5720549,0,0
11711326969,Sudirman 3,-6.9115004,107.5696333,0,0
11954552729,Kebon Kopi,-6.9063062,107.5664877,0,0
11954552723,SMAN 13 Bandung B,-6.9033981,107.5647281,0,0
11954552712,Cilembar,-6.8923353,107.5579997,0,0
11954552710,RS Mitra Kasih,-6.8837408,107.5528472,0,0
10680256973,RSUD Cibabat B,-6.8796404,107.5503366,0,0
10680256972,SMPN 6 Cimahi,-6.8772766,107.5452289,0,0
10680256971,Gedung 4,-6.8799337,107.5417036,0,0
11954552707,Buana,-6.8759934,107.5406762,0,0
10680256963,PLN Cisangkan B,-6.8704594,107.5364884,0,0
10680256961,Ranca Belut B,-6.8687794,107.531878,0,0
10680256959,Padasuka Indah B,-6.8684195,107.5260715,0,0
11953710374,Masjid Ar Ridwan B,-6.8676288,107.5191264,0,0
10680256956,RS IMC B,-6.8634203,107.5100491,0,0
10680256954,RS Karisma Cimareme B,-6.8630015,107.502934,0,0
11953710371,STEI LPPM B,-6.8574856,107.4986734,0,0
10680256950,Bale Pare B,-6.8567205,107.4901266,0,0
11955383189,Tatar Wangsakerta B,-6.8612441,107.4815775,0,0
12143596541,Parahyangan Utara B,-6.865168,107.4782844,0,0
11955383186,Tatar Pitaloka (Parahyangan Selatan),-6.8665457,107.4738005,0,0
11871901023,Baleendah,-7.0067058,107.6261375,0,0
2477247661,Masjid Al-Amanah,-7.0059605,107.6287137,0,0
12626499677,Matahari Land,-7.0040341,107.6312603,0,0
12626499678,Masjid Jami' Baitul Huda A,-7.0002118,107.6318753,0,0
12626499680,Bubur Ayam H. Amid,-6.9946948,107.6308112,0,0
12626499683,Borma Bojongsoang,-6.984586,107.6330944,0,0
12626499685,SD Negeri Lengkong,-6.9763963,107.6352127,0,0
12626499686,Puskesmas Bojongsoang,-6.9676213,107.6374709,0,0
12626499690,Bluebird A,-6.9576866,107.639482,0,0
35138340,Pasar Kordon A,-6.9541863,107.638933,0,0
12626499693,JAPNAS,-6.9512022,107.6364761,0,0
2614138793,Medal Sekarwangi,-6.9484371,107.6323136,0,0
12626499697,Bangunan Mart A,-6.9494451,107.6281496,0,0
12626499700,LPKIA A,-6.9495008,107.6242225,0,0
3384018111,PT LEN Industri A,-6.9490929,107.6190348,0,0
12626529703,PLN UP3 Bandung A,-6.9485877,107.612094,0,0
11739021648,TK Kemala Bhayangkari,-6.9453744,107.608407,0,0
11707031622,Sekolah Ganesha,-6.9390693,107.6063015,0,0
5355897678,Taman Tegalega 3,-6.9365596,107.6062815,0,0
11883812981,SDN Moh. Toha,-6.9301452,107.6067877,0,0
12626529705,ITC Kebon Kalapa,-6.926739,107.6059915,0,0
11898859975,Grand Yogya Kepatihan,-6.9238597,107.606261,0,0
12626529706,Banceuy,-6.9187122,107.6066404,0,0
11262097619,Stasiun Timur,-6.9153572,107.604546,0,0
293384756,Stasiun Bandung,-6.9125954,107.6029303,0,0
11739021629,SMAN 6 Bandung,-6.9114098,107.5979188,0,0
11138593915,SDN Pajajaran,-6.906861,107.599992,0,0
11739021630,STHB (Sekolah Tinggi Hukum Bandung),-6.9064803,107.6044125,0,0
5825243776,Bandung Electronic Center,-6.9081456,107.6093744,0,0
3376669066,Museum Kota Bandung,-6.9101076,107.6097021,0,0
11739021637,Merdeka,-6.9125343,107.6104548,0,0
11739021639,Toko Mas ABC,-6.9230192,107.6039434,0,0
11739021641,Simpang Ijan,-6.9280445,107.6036329,0,0
11739021644,Taman Tegallega,-6.9339734,107.603223,0,0
11707031623,Muhammad Toha 1 (PT INTI A),-6.939027,107.6062885,0,0
11739021649,Madurasa Tengah,-6.945205,107.6083491,0,0
3272360374,PLN UP3 Bandung B,-6.9484924,107.6121553,0,0
3384018110,PT LEN Industri B,-6.9489877,107.619152,0,0
12626499699,LPKIA B,-6.9494301,107.6248137,0,0
12626499698,Bangunan Mart B,-6.9493306,107.6280918,0,0
12626499695,Taman Buah Batu,-6.9484693,107.6339239,0,0
12626499694,Swadarma BNI,-6.9503784,107.6357751,0,0
12626499692,Pasar Kordon B,-6.9534876,107.6387006,0,0
12626499689,Bluebird B,-6.9584038,107.6394982,0,0
12626499688,Puskesmas Kujangsari B,-6.9649573,107.6381038,0,0
12626499687,Transmart Buahbatu,-6.9671846,107.6375686,0,0
549740249,Permata Buah Batu,-6.9729226,107.6361478,0,0
11950910945,Podomoro,-6.9749692,107.6355974,0,0
12626499684,AHASS,-6.981957,107.6339127,0,0
12626499682,Griya Bandung Asri,-6.9857289,107.6328659,0,0
12626499681,Alfamart SPBU Bojongsoang,-6.9914167,107.6316525,0,0
12626499679,Masjid Jami' Baitul Huda B,-7.0002949,107.6318593,0,0
2477247659,Apotek K24,-7.0054785,107.6309071,0,0
12626499675,KEJARI Bale Bandung,-7.0059629,107.6235977,0,0
12626499676,RS Al-Ihsan,-7.0074774,107.6243131,0,0
3277886365,Terminal Leuwipanjang,-6.9458124,107.5932469,0,0
11739021652,Rumah Sakit Immanuel A,-6.9372267,107.5956524,0,0
11739021646,Taman Tegallega,-6.9365059,107.6030596,0,0
11739021654,Pintu Masuk Terminal Tegallega,-6.9338521,107.6024577,0,0
6443280171,Astana Anyar RSIA Kota Bandung,-6.9293977,107.600717,0,0
1013407725,Stasiun Hall,-6.9161558,107.6024135,0,0
11739064594,SMK Negeri 1 Bandung,-6.9130013,107.609039,0,0
11739021634,Riau XL,-6.9068537,107.6096165,0,0
10653503633,Hotel The-One-O-One A,-6.9065022,107.6105556,0,0
10778322183,Taman Radio A,-6.9024821,107.6115213,0,0
11104718108,Kartikasari A,-6.8975185,107.6127613,0,0
11104669204,Rumah Sakit Santo Borromeus A,-6.8944564,107.6129072,0,0
11739021656,UNIKOM,-6.8869095,107.6150582,0,0
11707030824,UNPAD Dipatiukur (4D),-6.8923055,107.6177764,0,0
11104718106,Rumah Sakit Santo Borromeus B,-6.8948051,107.6134343,0,0
10778322181,Kartikasari B,-6.897514,107.6128497,0,0
10778322182,Taman Radio B,-6.902518,107.6116031,0,0
10653503634,The-One-O-One B,-6.9065922,107.6106299,0,0
11739021633,Bandung Indah Plaza,-6.9088887,107.610623,0,0
11735248675,Bank Indonesia,-6.9145426,107.608993,0,0
29354702,Pasar Baru,-6.9164303,107.6044519,0,0
10778322188,Dalem Kaum,-6.9219758,107.6040142,0,0
11739021642,Jalan Ibu Inggit Garnasih,-6.9314959,107.6039218,0,0
11739021647,Pasar Tegalega,-6.9368241,107.6062604,0,0
10815723012,Simpang Mohamad Toha Biddokkes,-6.9375586,107.6055097,0,0
11739021653,Rumah Sakit Immanuel B,-6.9372977,107.5955421,0,0
3375793673,UNPAD Dipatiukur,-6.8934568,107.6180361,0,0
11707030826,Panatayudha A,-6.8979225,107.6161542,0,0
1666155324,Lapangan Gasibu A,-6.9011743,107.6199195,0,0
11707030829,PUSDAI A,-6.9010661,107.6241876,0,0
11707030832,SMPN 14 Bandung (Lapangan Supratman A),-6.9080655,107.6301163,0,0
1107694939,Taman Pramuka,-6.9106475,107.6274766,0,0
3375793687,Hotel Grand Tebu,-6.9130163,107.6288644,0,0
11707030860,Bandung Creative Hub A,-6.9183624,107.6313457,0,0
7702036194,Hotel Horison A,-6.9343354,107.6252887,0,0
5487616737,Simpang By Pass Soekarno Hatta A,-6.9473728,107.6090862,0,0
11711185184,SPBU Moh. Toha,-6.954618,107.6115168,0,0
11711185187,Cileunyi A,-6.9410603,107.7541846,0,0
1966499313,IPDN A,-6.9356267,107.7652049,0,0
10697346845,UNPAD Jatinangor,-6.932299,107.7732376,0,0
11711185243,Jatinangor Town Square,-6.933968,107.7712431,0,0
5867026762,IPDN B,-6.9357446,107.7651014,0,0
11711185188,Cileunyi B,-6.9426257,107.7557736,0,0
11711185185,Jalan Haji Tatang Sumantri,-6.9547392,107.6115567,0,0
11707031627,Simpang By Pass Soekarno Hatta B,-6.9483342,107.6087518,0,0
11707031601,PT INTI B (BKR 5),-6.9375463,107.6067624,0,0
11707031579,Hotel Horison B,-6.9343038,107.6251981,0,0
11707030859,Bandung Creative Hub B,-6.9184177,107.6312506,0,0
11955476811,SPBU Ahmad Yani,-6.9129263,107.6339654,0,0
11707030833,SDN 062 Ciujung Bandung (Lapangan Supratman B),-6.907261,107.6297079,0,0
11707030828,PUSDAI B,-6.9011517,107.6241682,0,0
11707030827,Lapangan Gasibu B,-6.9012501,107.6201283,0,0
11707030825,Panatayudha B,-6.8979434,107.6161572,0,0
12628901396,SDN Babakan Tarogong,-6.9384872,107.594148,0,0
12628930762,Muara A,-6.9371534,107.6020331,0,0
12628930746,Palasari Radio,-6.9742063,107.6181453,0,0
12628930749,Zipur Dayeuhkolot,-6.9861797,107.624845,0,0
12628930752,Pasar Baleendah A,-6.9989678,107.6316216,0,0
12628930755,Bumi Siliwangi,-7.0100016,107.6397222,0,0
2459057875,Terminal Ciparay,-7.0357328,107.713347,0,0
12628930760,Terminal Majalaya,-7.0477372,107.7601852,0,0
12628930757,Giriharja Jelekong,-7.020725,107.6563884,0,0
12628930753,Pasar Baleendah B,-6.9990175,107.6316458,0,0
305891851,Palasari Ceres,-6.9719753,107.6173961,0,0
35131593,Bundaran Cibiru,-6.9352673,107.7175908,0,0
12806516349,Panyileukan,-6.9357289,107.7121547,0,0
12806516346,Cimincrang,-6.9361475,107.7064226,0,0
12806516345,Shakti,-6.936831,107.6970872,0,0
12806516344,Barat Simpang Gedebage,-6.9372117,107.6918125,0,0
12806868621,SMKN 6 Bandung,-6.9380944,107.6794141,0,0
12806868622,Cipamokolan,-6.9382789,107.6768401,0,0
12806868623,Aria Graha,-6.9385626,107.6729122,0,0
3375689668,RS Al Islam,-6.9388175,107.6692698,0,0
12806868625,Metro,-6.93901,107.6665574,0,0
12806868626,Rancabolang,-6.9392635,107.6633094,0,0
12806868627,SMKN 7 Bandung,-6.939893,107.6598099,0,0
12806868632,Gagak Rimang,-6.9400797,107.6590642,0,0
3272226033,Metro Indah Mall,-6.9403972,107.6580268,0,0
12806868633,BPN Kanwil Jabar,-6.9406892,107.6570876,0,0
12806851397,Cidurian Selatan,-6.9420012,107.6529256,0,0
12806868637,Kantor Pos Sekejati,-6.9427159,107.6506763,0,0
12806868639,Disnaker Jabar,-6.944058,107.646481,0,0
12806868640,UNINUS,-6.9448492,107.6441008,0,0
12806868670,Tenth Avenue,-6.9458361,107.6408496,0,0
12806868674,Sekelimus Tengah,-6.9466415,107.6381159,0,0
12806868677,Sekelimus Barat,-6.9475072,107.6353065,0,0
12808867752,STIE Inaba,-6.9493807,107.6227995,0,0
12808867754,Mengger Girang,-6.9490185,107.6180229,0,0
12808867758,Ampera Soekarno Hatta,-6.9480749,107.6050974,0,0
12808867763,Karasak Lama,-6.9478683,107.6021954,0,0
3277891129,Seberang Terminal Leuwipanjang,-6.9469193,107.592997,0,0
12633822769,Pasar Caringin,-6.9419021,107.5829792,0,0
12808867766,Griya Sumbersari,-6.9325102,107.5766013,0,0
12808867768,Holis 2,-6.9248687,107.5750983,0,0
11954573590,Batas Kota,-6.9109035,107.569361,0,0
12627968405,Terminal Elang,-6.9135373,107.5755571,0,0
12808867767,Holis 1,-6.9252035,107.575247,0,0
12808867765,Sumbersari 1,-6.9313117,107.5763049,0,0
12808867764,Simpang Caringin,-6.9434372,107.5850407,0,0
12808867762,Inhoftank,-6.9478017,107.6022466,0,0
12808867760,Seberang Ampera Soekarno Hatta,-6.9479853,107.6051379,0,0
12808867756,Karasak Utara,-6.9480912,107.6067107,0,0
12806868676,Griya Hemat,-6.9474943,107.6348946,0,0
12806868672,Sekelimus Utara,-6.9464022,107.638444,0,0
5825209951,Simpang Samsat Kiaracondong,-6.9450226,107.6428119,0,0
12806851389,STT Mandala,-6.944662,107.6438888,0,0
12806851390,SMK Medika Com,-6.9438278,107.6464874,0,0
12806851392,Unibi,-6.9425403,107.6505153,0,0
12806851396,Cidurian Utara,-6.941787,107.6528692,0,0
12806851393,SMKN 9 Bandung,-6.9405212,107.6569119,0,0
3375689664,Jasa Raharja Jabar,-6.9400924,107.6582639,0,0
12806851400,Suparma,-6.9395718,107.6601512,0,0
12806868601,Kawaluyaan,-6.9390207,107.6635594,0,0
12806868603,Sanggar Hurip,-6.938728,107.6672726,0,0
12806868618,Cisaranten Kulon,-6.9379974,107.6775339,0,0
12806868620,KPP Pratama Cicadas,-6.9378628,107.6794352,0,0
12814754658,Depan Pasar Gedebage,-6.9365674,107.6973063,0,0
12806516348,Universitas Bhakti Kencana,-6.9356286,107.7099558,0,0
6460801785,Terminal Cicaheum,-6.902329,107.6565637,0,0
11735248707,BCA Cimuncang,-6.9060351,107.6483165,0,0
11735248706,Gateway Cicadas,-6.9072816,107.6459395,0,0
3248969440,BTM,-6.911388,107.6434825,0,0
11735248700,Flyover Antapani,-6.9138756,107.6429791,0,0
3375793691,WUJ Jalan Banten,-6.9142036,107.6399016,0,0
11735248701,STMIK,-6.9144188,107.6381956,0,0
11735248702,GOR KONI,-6.9146627,107.6362469,0,0
11735248692,IBCC,-6.9142791,107.6327884,0,0
11735248690,Stadion Persib Sidolig,-6.9161976,107.6292904,0,0
5391666905,Cikudapateuh,-6.9186929,107.6245415,0,0
11735248683,Kantor Pos Kosambi,-6.9192144,107.6235031,0,0
3277420346,Seberang Pasar Kosambi,-6.9199617,107.6220644,0,0
11735248705,Ketapang,-6.921143,107.619848,0,0
11735248710,Asia Afrika,-6.9222132,107.61585,0,0
11735248711,Gedung Keuangan Negara/KM 0,-6.921618,107.6110406,0,0
11735248713,Simpang Sudirman,-6.9207677,107.6038238,0,0
11735248714,Sukamanah,-6.9195734,107.5937417,0,0
11735248716,Simpang Jamika,-6.9188238,107.5874451,0,0
11954573588,SDN Raya Barat,-6.9181852,107.5819763,0,0
11711326973,Terminal Elang,-6.9133498,107.575723,0,0
1911635044,Yayasan LPPN,-6.9157549,107.5853751,0,0
25434237,GKI Kebonjati,-6.916282,107.5988546,0,0
10801865379,Telkom Lembong,-6.9170839,107.6111029,0,0
11735248678,RSU Bungsu,-6.9182518,107.6132908,0,0
11735248679,Pasar Kosambi,-6.9199012,107.6221779,0,0
11735248685,Segitiga Mas,-6.9179222,107.6258605,0,0
11735248686,Jaya Plaza,-6.9174142,107.6268373,0,0
11735248689,Dinas Pendidikan Kota Bandung,-6.9164526,107.6287225,0,0
5391666887,Jalan Mangga,-6.9151724,107.6310524,0,0
11735248691,Sekolah Agustinus,-6.9140574,107.6332108,0,0
3375793690,A.Yani Supratman,-6.9133253,107.6345966,0,0
11735248693,Cikaso,-6.9119025,107.637255,0,0
11735248694,Awi Bitung,-6.9106533,107.6396001,0,0
11735248708,Cimuncang,-6.9050722,107.650154,0,0
5832221935,Seberang Terminal Cicaheum,-6.9021302,107.6567969,0,0
5832221930,Cimuncang,-6.9016812,107.6490533,0,0
12628835706,Cikutra,-6.8997726,107.6426735,0,0
12628835704,Sukasenang Raya 1,-6.8984698,107.6371799,0,0
12628835703,BKKBN,-6.8982473,107.6324886,0,0
5832220641,SMPN 63 Kota Bandung,-6.8998537,107.6293496,0,0
12628813999,Wisma BKN,-6.89924,107.6222912,0,0
12628813996,Cikapayang Dago 1,-6.8990335,107.6120546,0,0
12628813994,Griya Pasteur 1,-6.8950796,107.5884432,0,0
12628813991,Warung Cepot,-6.8923414,107.5832389,0,0
3384993309,Maranatha,-6.8859263,107.5813607,0,0
12628813987,Lemahneundeut,-6.8813034,107.5787258,0,0
12628813989,Sarimanah,-6.8814266,107.5764264,0,0
12628813986,Sarijadi,-6.8816653,107.578425,0,0
12628813990,Setrasari,-6.8821984,107.5814944,0,0
12013144935,Mall d'Botanica,-6.8925604,107.5849478,0,0
12628813992,Griya Pasteur 2,-6.8948914,107.5883918,0,0
12628813995,Tamansari Cikapayang,-6.8982089,107.610121,0,0
5832170587,Cikapayang Dago 2,-6.898852,107.6135004,0,0
1660289593,Gasibu,-6.8992842,107.6179657,0,0
12628813998,Distan Jabar,-6.8992307,107.6227599,0,0
12628814000,Dapen Telkom,-6.8998503,107.6285873,0,0
12628835702,Jalaprang,-6.8983546,107.6321413,0,0
12013144934,ITENAS,-6.8982483,107.6362093,0,0
5832220656,Sukasenang Raya 2,-6.8984458,107.6370787,0,0
12628835705,Sekolah Pribadi,-6.8992417,107.6404383,0,0
5832221887,Sukapada,-6.9000256,107.6439328,0,0
12628835709,Surapati Core,-6.9018908,107.6525276,0,0
10693001605,Terminal Leuwipanjang,-6.9459075,107.5932351,0,0
12806765746,Taman Tegalega/Sri Baduga,-6.9373001,107.6037009,0,0
3445680780,Samsudin,-6.9375959,107.6083051,0,0
12808948210,Patung Ikan,-6.937657,107.610179,0,0
3272575985,BKR Buah Batu,-6.9365872,107.6231054,0,0
12809462424,Kangkung Kaler,-6.9308456,107.6260901,0,0
3375794694,DPRD Kota Bandung,-6.916856,107.6342682,0,0
3476292190,Dishub Jabar,-6.9181019,107.6324739,0,0
12809462425,Seberang Kangkung Kaler,-6.9308642,107.6261794,0,0
12808948211,Simpang Buah Batu BKR,-6.9373473,107.6222364,0,0
3376171471,Masjid An Nur PT INTI,-6.9376849,107.6084233,0,0
12806765747,Muara,-6.9374746,107.5999005,0,0
12809603991,RSUD Bandung Kiwari,-6.9430856,107.5913003,0,0
12809462429,RSIA Grha Bunda,-6.9134024,107.6455398,0,0
2493372403,Borma Antapani,-6.9129025,107.6495005,0,0
12809462431,Stikes Dharma Husada,-6.9127456,107.6507427,0,0
302241143,bjb Antapani,-6.9123839,107.6538136,0,0
11735248698,Depan Terminal Antapani,-6.9149741,107.6658807,0,0
3378630365,Seberang Borma Antapani,-6.9130091,107.6492727,0,0
3376430783,Tugu Tunas Taman Pramuka,-6.9105422,107.6265596,0,0
12809507149,bjb Riau,-6.9092859,107.6252606,0,0
12809507147,Riau Cihapit,-6.9081445,107.623898,0,0
12809507143,Pengadilan Negeri Bandung,-6.9063102,107.6220332,0,0
3375794699,Simpang Banda Riau,-6.9063138,107.6159699,0,0
12825997245,Hotel Santika,-6.9070669,107.6119393,0,0
3376669065,Taman Sejarah Balai Kota Bandung,-6.9103764,107.6106101,0,0
12806120224,SDN Merdeka 5,-6.915607,107.610154,0,0
3374033500,Tamblong,-6.9189576,107.6123364,0,0
12809269114,Seberang SMAN 4 Bandung,-6.9194322,107.5983081,0,0
12809274346,Masjid Al-Ukhuwwah,-6.9111612,107.6090912,0,0
12809274348,Wastukencana Purnawarman,-6.9088722,107.6079826,0,0
3269294966,Abdul Rivai,-6.904381,107.6038123,0,0
12809082539,Djunjunan Paskal,-6.9003956,107.5968191,0,0
12809283847,SDN Sukaraja,-6.8914927,107.5786575,0,0
1396428138,Simpang Dakota,-6.8935189,107.5726156,0,0
12809283844,Borma Dakota,-6.8908761,107.572217,0,0
12809283842,Mentor,-6.889704,107.5698999,0,0
3250402136,Gunung Batu,-6.8875315,107.5672467,0,0
2317306703,Seberang Gateway Pasteur,-6.8893002,107.566898,0,0
1658426541,BPJS Pasteur,-6.8922539,107.5829072,0,0
2958261155,Djundjunan 3,-6.8929291,107.5856805,0,0
12809237524,GKI Pasteur,-6.9002045,107.6027269,0,0
12809237525,Linggawastu,-6.9039986,107.605369,0,0
3376669071,Pasar Kembang Wastukencana,-6.9048943,107.607265,0,0
12809237527,Pajajaran Timur,-6.9071527,107.6047535,0,0
3376669069,Kimia Farma,-6.9075468,107.6044529,0,0
12806120204,Haji Mesri,-6.9124771,107.6007223,0,0
3272722527,Simpang Gedebage Selatan,-6.9377585,107.6925095,0,0
11730486996,Summarecon Mall Bandung,-6.955658,107.6992029,0,0
4608003593,Terminal Leuwipanjang,-6.9458755,107.5932396,0,0
12806765749,Simpang Astanaanyar Pasirkoja,-6.9263959,107.5997325,0,0
12809227879,Jalan Haji Safari,-6.9247939,107.5991575,0,0
12806765750,Karanganyar,-6.9226401,107.598583,0,0
12806765752,Cibadak Astanaanyar,-6.9209186,107.5984295,0,0
3640664489,Paskal Hypersquare,-6.9155623,107.5981241,0,0
12806120202,SDN 013 Pajajaran,-6.9081074,107.5976895,0,0
5639376088,Garunggang Kulon,-6.8989275,107.5973503,0,0
12825997250,SPBU Paskal,-6.8979069,107.5973197,0,0
29357744,Cibarengkok,-6.8960662,107.5972487,0,0
29357741,Sukagalih PVJ,-6.8913554,107.596972,0,0
1746711065,Polsek Sukajadi,-6.8878738,107.596791,0,0
3380200149,Mandiri Sukajadi,-6.8836426,107.5965236,0,0
3376673098,Sukawangi,-6.8780655,107.596246,0,0
12825997252,Gereja Santo Laurentius,-6.8756034,107.5960887,0,0
12809082550,SMPN 15 Bandung,-6.8739356,107.5957592,0,0
12809046293,Gegerkalong Girang,-6.8653206,107.594077,0,0
3376673106,Museum Pendidikan Nasional UPI,-6.8600369,107.594757,0,0
11711070002,Terminal Ledeng,-6.85933,107.5951942,0,0
12809046289,Poltekpar NHI,-6.8682279,107.5936817,0,0
3376673102,Simpang Gegerkalong Hilir,-6.8693537,107.5935629,0,0
3376673100,Borma Setiabudhi,-6.8746244,107.5962411,0,0
3376669085,Masjid Besar Cipaganti,-6.894782,107.602517,0,0
12809082541,Paskal RSHS,-6.8982584,107.5973907,0,0
12013198354,Terminal Elang,-6.9144895,107.5753136,0,0
6473170574,Pasar Cileunyi,-6.9404081,107.7537453,0,0
10771913963,Gerbang IPDN Jatinangor,-6.9358995,107.7642048,0,0
12013198353,UNPAD Jatinangor,-6.9323545,107.7732585,0,0
3476277701,Damri Unpad Jatinangor,-6.9316463,107.7758563,0,0
10771913964,Seberang Gerbang IPDN Jatinangor,-6.9361566,107.7636862,0,0
1935454988,Terminal Tanjungsari,-6.9079951,107.7959097,0,0
2744242982,Pasirluyu Selatan/Sukaati,-6.9492577,107.6214461,0,0
12808912264,Pos Banceuy,-6.9205454,107.6065186,0,0
1956195997,Jalan Jati,-6.9262285,107.6125973,0,0
3376282080,Banteng Sadakeling,-6.9316133,107.6183599,0,0
1982390333,SMK Medina,-6.931384,107.619075,0,0
2250581874,GOR Lodaya,-6.9317067,107.6203316,0,0
12808948214,Selontongan,-6.9402599,107.625925,0,0
12808948215,Kliningan Buahbatu,-6.9426596,107.6282283,0,0
12806516353,SDN 050 Cibiru,-6.9342906,107.7215528,0,0
12823636734,Rumah Sakit Murni Teguh,-6.9208368,107.6159966,0,0
12806309242,SDN Cikadut,-6.9040466,107.6656526,0,0
12806309246,Gang H.M. Syarief,-6.9044513,107.6718533,0,0
12806309248,Borma Pasirimpun,-6.904729,107.6759315,0,0
11047579524,UPTD Laboratorium Lingkungan Hidup,-6.9074116,107.6864696,0,0
12806516361,SDN Ciporeat,-6.9173978,107.7061287,0,0
12806516359,Seberang Borma Cipadung,-6.9261531,107.7108057,0,0
12806516356,SDN Cipadung,-6.9316908,107.7137735,0,0
35131607,UIN SGD/Cipadung,-6.9323756,107.7157532,0,0
12014389702,Pangkalan DAMRI Cibiru,-6.9335177,107.7163132,0,0
12806516354,Seberang UIN Sunan Gunung Djati,-6.9324655,107.7158334,0,0
12806516357,Borma Cipadung,-6.9265281,107.7108912,0,0
2477149675,SDN Andir Kidul,-6.9136497,107.6955657,0,0
12806309257,Seberang SMAN 24 Bandung,-6.9084047,107.6881997,0,0
11047579523,Pusjatan,-6.907525,107.6867495,0,0
3251007173,Gerbang Pusjatan,-6.907087,107.6856912,0,0
12806309250,Seberang Borma Pasirimpun,-6.9047223,107.6758598,0,0
35135540,Lapas Sukamiskin,-6.9046182,107.6750064,0,0
12806309247,Komplek Sarimas,-6.9046989,107.672335,0,0
12888147067,Flyover KBP,-6.8529876,107.4941137,0,0
12390565460,Ratnasasih,-6.8689266,107.4688418,0,0
12888177149,BTD,-6.8724813,107.4678358,0,0
5509730969,Tatar Subanglarang,-6.8818457,107.4554476,0,0
11489094686,Kamandaka,-6.8716903,107.4660366,0,0
11489094682,Jingganagara,-6.8724249,107.4692856,0,0
11489094684,CBCS/BAIS,-6.8686557,107.4687526,0,0
12881302236,Timur IKEA Kota Baru Parahyangan,-6.8673805,107.4687013,0,0
12825997248,Taman Vanda,-6.9139284,107.6099856,0,0
virtual_3415464_0,Jalan Dewi Sartika,-6.9276265,107.6058121,0,0
virtual_3415464_1,Jalan Dewi Sartika,-6.92756,107.605817,0,0
virtual_3415464_2,Jalan Dewi Sartika,-6.9274995,107.6058222,0,0
virtual_3415464_3,Jalan Dewi Sartika,-6.927479,107.6058291,0,0
virtual_3415464_4,Jalan Dewi Sartika,-6.9274581,107.6058504,0,0
virtual_3415464_5,Jalan Dewi Sartika,-6.9274381,107.6058814,0,0
virtual_3415464_6,Jalan Dewi Sartika,-6.9274217,107.6059038,0,0
virtual_3415464_7,Jalan Dewi Sartika,-6.927408,107.6059122,0,0
virtual_3415464_8,Jalan Dewi Sartika,-6.9273911,107.6059177,0,0
virtual_3415464_9,Jalan Dewi Sartika,-6.926739,107.6059915,0,0
virtual_3415464_10,Jalan Dewi Sartika,-6.9265391,107.6060152,0,0
virtual_3415464_11,Jalan Dewi Sartika,-6.9263876,107.6060307,0,0
virtual_3415464_12,Jalan Dewi Sartika,-6.925705,107.6060915,0,0
virtual_3415464_13,Jalan Kautamaan Istri,-6.9257695,107.6065589,0,0
virtual_3415464_14,Jalan Kautamaan Istri,-6.9257801,107.6066649,0,0
virtual_3415464_15,Jalan Kautamaan Istri,-6.9258274,107.6071391,0,0
virtual_3415464_16,Jalan Balong Gede,-6.9274996,107.607029,0,0
virtual_3415464_17,Jalan Pungkur,-6.9313355,107.6124017,0,0
virtual_3415464_18,Jalan Pungkur,-6.9308162,107.61187,0,0
virtual_3415464_19,Jalan Pungkur,-6.9305815,107.6116302,0,0
virtual_3415464_20,Jalan Pungkur,-6.9305702,107.6116186,0,0
virtual_3415464_21,Jalan Pungkur,-6.929646,107.6106762,0,0
virtual_3415464_22,Jalan Pungkur,-6.9295269,107.6105504,0,0
virtual_3415464_23,Jalan Pungkur,-6.929424,107.6104487,0,0
virtual_3415464_24,Jalan Pungkur,-6.9290167,107.6100312,0,0
virtual_3415464_25,Jalan Pungkur,-6.928383,107.6094207,0,0
virtual_3415464_26,Jalan Pungkur,-6.9283054,107.6093404,0,0
virtual_3415464_27,Jalan Pungkur,-6.9278672,107.608899,0,0
virtual_3415464_28,Jalan Pungkur,-6.9278033,107.6088347,0,0
virtual_3415464_29,Jalan Pungkur,-6.927694,107.6087019,0,0
virtual_3415464_30,Jalan Pungkur,-6.9276437,107.6085694,0,0
virtual_3415464_31,Jalan Pungkur,-6.9276268,107.608453,0,0
virtual_3415464_32,Jalan Pungkur,-6.9275733,107.6079082,0,0
virtual_3415464_33,Jalan Pungkur,-6.9275639,107.6078124,0,0
virtual_3415464_34,Jalan Pungkur,-6.927539,107.6075592,0,0
virtual_3415464_35,Jalan Pungkur,-6.9325064,107.6149201,0,0
virtual_3415464_36,Jalan Pungkur,-6.9323443,107.6143118,0,0
virtual_3415464_37,Jalan Pungkur,-6.9321929,107.6137396,0,0
virtual_3415464_38,Jalan Pungkur,-6.9321058,107.6134671,0,0
virtual_3415464_39,Jalan Pungkur,-6.9320339,107.6133184,0,0
virtual_3415464_40,Jalan Pungkur,-6.9319686,107.6131833,0,0
virtual_3415464_41,Jalan Pungkur,-6.9318895,107.613062,0,0
virtual_3415464_42,Jalan Pungkur,-6.9318313,107.6129795,0,0
virtual_3415464_43,Jalan Mochammad Ramdhan,-6.9323211,107.6150464,0,0
virtual_3415464_44,Jalan Mochammad Ramdhan,-6.9320956,107.6152226,0,0
virtual_3415464_45,Jalan Mochammad Ramdhan,-6.9318779,107.6153893,0,0
virtual_3415464_46,Jalan Mochammad Ramdhan,-6.9316906,107.6155386,0,0
virtual_3415464_47,Jalan Mochammad Ramdhan,-6.9315684,107.6156276,0,0
virtual_3415464_48,Jalan Mochammad Ramdhan,-6.9314613,107.6157026,0,0
virtual_3415464_49,Jalan Mochammad Ramdhan,-6.9313657,107.6157571,0,0
virtual_3415464_50,Jalan Karapitan,-6.9311439,107.6158192,0,0
virtual_3415464_51,Jalan Karapitan,-6.9310078,107.6158573,0,0
virtual_3415464_52,Jalan Karapitan,-6.9304668,107.6159987,0,0
virtual_3415464_53,Jalan Karapitan,-6.9302053,107.6160678,0,0
virtual_3415464_54,Jalan Karapitan,-6.9300966,107.6160965,0,0
virtual_3415464_55,Jalan Lauk Emas,-6.9301757,107.6163175,0,0
virtual_3415464_56,Jalan Lauk Emas,-6.9302033,107.6164624,0,0
virtual_3415464_57,Jalan Lauk Emas,-6.9302196,107.6165483,0,0
virtual_3415464_58,Jalan Lauk Emas,-6.9302256,107.6168106,0,0
virtual_3415464_59,Jalan Lauk Emas,-6.9301863,107.61707,0,0
virtual_3415464_60,Jalan Sadakeling,-6.9303882,107.6171074,0,0
virtual_3415464_61,Jalan Sadakeling,-6.9305861,107.6171605,0,0
virtual_3415464_62,Jalan Sadakeling,-6.9307792,107.6172291,0,0
virtual_3415464_63,Jalan Sadakeling,-6.9309664,107.6173128,0,0
virtual_3415464_64,Jalan Sadakeling,-6.9311464,107.617411,0,0
virtual_3415464_65,Jalan Sadakeling,-6.9312843,107.6174984,0,0
virtual_3415464_66,Jalan Sadakeling,-6.9314894,107.617656,0,0
virtual_3415464_67,Jalan Sadakeling,-6.9317935,107.617959,0,0
virtual_3415464_68,Jalan Sadakeling,-6.9318213,107.617994,0,0
virtual_3415464_69,Jalan Sadakeling,-6.9318293,107.6180396,0,0
virtual_3415464_70,Jalan Sadakeling,-6.9318132,107.6181273,0,0
virtual_3415464_71,Jalan Kyai Haji Ahmad Dahlan,-6.9316927,107.6182444,0,0
virtual_3415464_72,Jalan Kyai Haji Ahmad Dahlan,-6.9316133,107.6183599,0,0
virtual_3415464_73,Jalan Kyai Haji Ahmad Dahlan,-6.9315221,107.6185305,0,0
virtual_3415464_74,Jalan Kyai Haji Ahmad Dahlan,-6.9314272,107.6187946,0,0
virtual_3415464_75,Jalan Kyai Haji Ahmad Dahlan,-6.931384,107.619075,0,0
virtual_3415464_76,Jalan Kyai Haji Ahmad Dahlan,-6.9313802,107.6192569,0,0
virtual_3415464_77,Jalan Kyai Haji Ahmad Dahlan,-6.9314027,107.6195403,0,0
virtual_3415464_78,Jalan Kyai Haji Ahmad Dahlan,-6.9314581,107.6198275,0,0
virtual_3415464_79,Jalan Kyai Haji Ahmad Dahlan,-6.9315397,107.6200483,0,0
virtual_3415464_80,Jalan Kyai Haji Ahmad Dahlan,-6.9316471,107.6202525,0,0
virtual_3415464_81,Jalan Kyai Haji Ahmad Dahlan,-6.9317067,107.6203316,0,0
virtual_3415464_82,Jalan Kyai Haji Ahmad Dahlan,-6.9317785,107.6204269,0,0
virtual_3415464_83,Jalan Kyai Haji Ahmad Dahlan,-6.9319958,107.6207279,0,0
virtual_3415464_84,Jalan Kyai Haji Ahmad Dahlan,-6.9328188,107.6219116,0,0
virtual_3415464_85,Jalan Palasari,-6.9309756,107.622434,0,0
virtual_3415464_86,Jalan Palasari,-6.9311705,107.6223798,0,0
virtual_3415464_87,Jalan Palasari,-6.9314875,107.6222917,0,0
virtual_3415464_88,Jalan Palasari,-6.9318636,107.6221815,0,0
virtual_3415464_89,Jalan Palasari,-6.9323308,107.6220445,0,0
virtual_3415464_90,Jalan Lodaya,-6.931064,107.6226407,0,0
virtual_3415464_91,Jalan Lodaya,-6.9311066,107.6227405,0,0
virtual_3415464_92,Jalan Lodaya,-6.9311882,107.6229314,0,0
virtual_3415464_93,Jalan Lodaya,-6.9313797,107.6233795,0,0
virtual_3415464_94,Jalan Lodaya,-6.9314076,107.6234448,0,0
virtual_3415464_95,Jalan Lodaya,-6.9316887,107.6241025,0,0
virtual_3415464_96,Jalan Lodaya,-6.9318062,107.6243775,0,0
virtual_3415464_97,Jalan Lodaya,-6.9318518,107.6244842,0,0
virtual_3415464_98,Jalan Lodaya,-6.9320775,107.6249815,0,0
virtual_3415464_99,Jalan Lodaya,-6.9320993,107.625024,0,0
virtual_3415464_100,Jalan Lodaya,-6.9321877,107.6252034,0,0
virtual_3415464_101,Jalan Lodaya,-6.9322109,107.6252506,0,0
virtual_3415464_102,Jalan Lodaya,-6.9322173,107.6253502,0,0
virtual_3415464_103,Jalan Lodaya,-6.9322425,107.6254228,0,0
virtual_3415464_104,Jalan Lodaya,-6.9323168,107.6255951,0,0
virtual_3415464_105,Jalan Lodaya,-6.932323,107.6256023,0,0
virtual_3415464_106,Jalan Lodaya,-6.9323691,107.6256558,0,0
virtual_3415464_107,Jalan Lodaya,-6.9324168,107.6256947,0,0
virtual_3415464_108,Jalan Raden Adipati Aria Martanegara,-6.932523,107.6257675,0,0
virtual_3415464_109,Jalan Raden Adipati Aria Martanegara,-6.9325851,107.6258197,0,0
virtual_3415464_110,Jalan Raden Adipati Aria Martanegara,-6.9326144,107.6258765,0,0
virtual_3415464_111,Jalan Raden Adipati Aria Martanegara,-6.9326675,107.626038,0,0
virtual_3415464_112,Jalan Raden Adipati Aria Martanegara,-6.9327009,107.6261109,0,0
virtual_3415464_113,Jalan Raden Adipati Aria Martanegara,-6.9327672,107.6262119,0,0
virtual_3415464_114,Jalan Raden Adipati Aria Martanegara,-6.9328065,107.6263377,0,0
virtual_3415464_115,Jalan Raden Adipati Aria Martanegara,-6.9328264,107.6264074,0,0
virtual_3415464_116,Jalan Raden Adipati Aria Martanegara,-6.9329183,107.6267581,0,0
virtual_3415464_117,Jalan Raden Adipati Aria Martanegara,-6.9330478,107.6272027,0,0
virtual_3415464_118,Jalan Raden Adipati Aria Martanegara,-6.9331834,107.6277229,0,0
virtual_3415464_119,Jalan Raden Adipati Aria Martanegara,-6.9332148,107.6278437,0,0
virtual_3415464_120,Jalan Raden Adipati Aria Martanegara,-6.9333101,107.6282092,0,0
virtual_3415464_121,Jalan Raden Adipati Aria Martanegara,-6.9335308,107.6290522,0,0
virtual_3415464_122,Jalan Raden Adipati Aria Martanegara,-6.9335803,107.6292681,0,0
virtual_3415464_123,Jalan Raden Adipati Aria Martanegara,-6.9336931,107.6297626,0,0
virtual_3415464_124,Jalan Raden Adipati Aria Martanegara,-6.9338832,107.6306127,0,0
virtual_3415464_125,Jalan Raden Adipati Aria Martanegara,-6.9339821,107.6310515,0,0
virtual_3415464_126,Jalan Raden Adipati Aria Martanegara,-6.9340498,107.6313521,0,0
virtual_3415464_127,Jalan Raden Adipati Aria Martanegara,-6.9340689,107.6314371,0,0
virtual_3415464_128,Jalan Raden Adipati Aria Martanegara,-6.9342353,107.6321764,0,0
virtual_3415464_129,Jalan Raden Adipati Aria Martanegara,-6.9343049,107.632568,0,0
virtual_3415464_130,Jalan Raden Adipati Aria Martanegara,-6.9342443,107.6326798,0,0
virtual_3415464_131,Jalan Raden Adipati Aria Martanegara,-6.934385,107.6337971,0,0
virtual_3415464_132,Jalan Raden Adipati Aria Martanegara,-6.9343972,107.6338825,0,0
virtual_3415464_133,Jalan Turangga,-6.9342955,107.6339321,0,0
virtual_3415464_134,Jalan Turangga,-6.9342632,107.6339467,0,0
virtual_3415464_135,Jalan Turangga,-6.9339893,107.6340607,0,0
virtual_3415464_136,Jalan Turangga,-6.9338668,107.6341116,0,0
virtual_3415464_137,Jalan Turangga,-6.9335453,107.6342951,0,0
virtual_3415464_138,Jalan Turangga,-6.9331037,107.6345471,0,0
virtual_3415464_139,Jalan Turangga,-6.9330405,107.6345832,0,0
virtual_3415464_140,Jalan Turangga,-6.9328452,107.6346599,0,0
virtual_3415464_141,Jalan Turangga,-6.9326057,107.6347185,0,0
virtual_3415464_142,Jalan Turangga,-6.9321273,107.6348375,0,0
virtual_3415464_143,Jalan Turangga,-6.9317815,107.6349255,0,0
virtual_3415464_144,Jalan Turangga,-6.9316172,107.6349674,0,0
virtual_3415464_145,Jalan Turangga,-6.931512,107.6349942,0,0
virtual_3415464_146,Jalan Turangga,-6.9311451,107.6350876,0,0
virtual_3415464_147,Jalan Turangga,-6.9310901,107.6351016,0,0
virtual_3415464_148,Jalan Turangga,-6.9308231,107.6351695,0,0
virtual_3415464_149,Jalan Turangga,-6.9305963,107.6352272,0,0
virtual_3415464_150,Jalan Turangga,-6.9305698,107.635234,0,0
virtual_3415464_151,Jalan Turangga,-6.9305405,107.6352415,0,0
virtual_3415464_152,Jalan Turangga,-6.9302325,107.6353197,0,0
virtual_3415464_153,Jalan Turangga,-6.9301577,107.6353388,0,0
virtual_3415464_154,Jalan Turangga,-6.9300184,107.6353744,0,0
virtual_3415464_155,Jalan Turangga,-6.929689,107.6354593,0,0
virtual_3415464_156,Jalan Turangga,-6.9296253,107.6354745,0,0
virtual_3415464_157,Jalan Turangga,-6.9294539,107.635519,0,0
virtual_3415464_158,Jalan Turangga,-6.9294019,107.6355325,0,0
virtual_3415464_159,Jalan Turangga,-6.929246,107.6355731,0,0
virtual_3415464_160,Jalan Turangga,-6.9291606,107.6355928,0,0
virtual_3415464_161,Jalan Turangga,-6.9290697,107.6356173,0,0
virtual_3415464_162,Jalan Turangga,-6.928504,107.6357445,0,0
virtual_3415464_163,Jalan Turangga,-6.928187,107.6358171,0,0
virtual_3415464_164,Jalan Turangga,-6.927677,107.6359386,0,0
virtual_3415464_165,Jalan Jenderal Gatot Subroto,-6.9267411,107.634256,0,0
virtual_3415464_166,Jalan Jenderal Gatot Subroto,-6.9263466,107.633548,0,0
virtual_3415464_167,Jalan Jenderal Gatot Subroto,-6.9262659,107.6334031,0,0
virtual_3415464_168,Jalan Cikuray,-6.926207,107.633424,0,0
virtual_3415464_169,Jalan Jenderal Gatot Subroto,-6.9262906,107.6335757,0,0
virtual_3415464_170,Jalan Jenderal Gatot Subroto,-6.9265293,107.6340089,0,0
virtual_3415464_171,Jalan Jenderal Gatot Subroto,-6.9266405,107.6342187,0,0
virtual_3415464_172,Jalan Jenderal Gatot Subroto,-6.9269243,107.6347544,0,0
virtual_3415464_173,Jalan Jenderal Gatot Subroto,-6.9270488,107.634993,0,0
virtual_3415464_174,Jalan Jenderal Gatot Subroto,-6.927178,107.6352307,0,0
virtual_3415464_175,Jalan Jenderal Gatot Subroto,-6.9272867,107.6354306,0,0
virtual_3415464_176,Jalan Jenderal Gatot Subroto,-6.9273813,107.6356046,0,0
virtual_3415464_177,Jalan Jenderal Gatot Subroto,-6.927472,107.6357715,0,0
virtual_3415464_178,Jalan Jenderal Gatot Subroto,-6.9276932,107.6361784,0,0
virtual_3415464_179,Jalan Jenderal Gatot Subroto,-6.9278471,107.6364315,0,0
virtual_3415464_180,Jalan Jenderal Gatot Subroto,-6.9279605,107.6365849,0,0
virtual_3415464_181,Jalan Jenderal Gatot Subroto,-6.9279995,107.6366627,0,0
virtual_3415464_182,Jalan Jenderal Gatot Subroto,-6.9280117,107.6366893,0,0
virtual_3415464_183,Jalan Jenderal Gatot Subroto,-6.9280668,107.6367954,0,0
virtual_3415464_184,Jalan Jenderal Gatot Subroto,-6.9281952,107.6370469,0,0
virtual_3415464_185,Jalan Jenderal Gatot Subroto,-6.9283272,107.6373057,0,0
virtual_3415464_186,Jalan Jenderal Gatot Subroto,-6.9283966,107.6374286,0,0
virtual_3415464_187,Jalan Jenderal Gatot Subroto,-6.928582,107.6377538,0,0
virtual_3415464_188,Jalan Jenderal Gatot Subroto,-6.92873,107.6380006,0,0
virtual_3415464_189,Jalan Jenderal Gatot Subroto,-6.9289281,107.6382687,0,0
virtual_3415464_190,Jalan Jenderal Gatot Subroto,-6.9290817,107.6384491,0,0
virtual_3415464_191,Jalan Jenderal Gatot Subroto,-6.9293013,107.6386831,0,0
virtual_3415464_192,Jalan Jenderal Gatot Subroto,-6.9295348,107.6389116,0,0
virtual_3415464_193,Jalan Jenderal Gatot Subroto,-6.9297496,107.6391119,0,0
virtual_3415464_194,Jalan Jenderal Gatot Subroto,-6.9298549,107.6392101,0,0
virtual_3415464_195,Jalan Jenderal Gatot Subroto,-6.9299564,107.6393128,0,0
virtual_3415464_196,Jalan Jenderal Gatot Subroto,-6.9302614,107.6396736,0,0
virtual_3415464_197,Jalan Jenderal Gatot Subroto,-6.9303695,107.6398164,0,0
virtual_3415464_198,Jalan Jenderal Gatot Subroto,-6.9304643,107.6399577,0,0
virtual_3415464_199,Jalan Jenderal Gatot Subroto,-6.9306103,107.6402197,0,0
virtual_3415464_200,Jalan Jenderal Gatot Subroto,-6.9307025,107.6403778,0,0
virtual_3415464_201,Jalan Jenderal Gatot Subroto,-6.9307319,107.6404257,0,0
virtual_3415464_202,Jalan Jenderal Gatot Subroto,-6.9307832,107.6405374,0,0
virtual_3415464_203,Jalan Jenderal Gatot Subroto,-6.9307935,107.6405609,0,0
virtual_3415464_204,Jalan Jenderal Gatot Subroto,-6.9309989,107.6410724,0,0
virtual_3415464_205,Jalan Jenderal Gatot Subroto,-6.9309977,107.6410984,0,0
virtual_3415464_206,Jalan Jenderal Gatot Subroto,-6.9310615,107.6412733,0,0
virtual_3415464_207,Jalan Jenderal Gatot Subroto,-6.9311195,107.6414123,0,0
virtual_3415464_208,Jalan Jenderal Gatot Subroto,-6.9311304,107.6414267,0,0
virtual_3415464_209,Jalan Jenderal Gatot Subroto,-6.9313006,107.6418972,0,0
virtual_3415464_210,Jalan Jenderal Gatot Subroto,-6.9313798,107.6421162,0,0
virtual_3415464_211,Jalan Jenderal Gatot Subroto,-6.9313862,107.6421546,0,0
virtual_3415464_212,Jalan Jenderal Gatot Subroto,-6.9314861,107.6424299,0,0
virtual_3415464_213,Jalan Jenderal Gatot Subroto,-6.9316362,107.6428242,0,0
virtual_3415464_214,Jalan Jenderal Gatot Subroto,-6.9316588,107.6428873,0,0
virtual_3415464_215,Jalan Jenderal Gatot Subroto,-6.9317573,107.6431304,0,0
virtual_3415464_216,Jalan H. Ibrahim Adjie,-6.9317203,107.6431586,0,0
virtual_3415464_217,Jalan H. Ibrahim Adjie,-6.9312959,107.6435367,0,0
virtual_3415464_218,Jalan H. Ibrahim Adjie,-6.9310014,107.6437923,0,0
virtual_3415464_219,Jalan H. Ibrahim Adjie,-6.9308789,107.6438483,0,0
virtual_3415464_220,Jalan H. Ibrahim Adjie,-6.930719,107.643874,0,0
virtual_3415464_221,Jalan H. Ibrahim Adjie,-6.9299218,107.6439463,0,0
virtual_3415464_222,Jalan H. Ibrahim Adjie,-6.9298097,107.6439317,0,0
virtual_3415464_223,Jalan H. Ibrahim Adjie,-6.9296613,107.6439354,0,0
virtual_3415464_224,Jalan H. Ibrahim Adjie,-6.9294702,107.6439464,0,0
virtual_3415464_225,Jalan H. Ibrahim Adjie,-6.9293251,107.6439665,0,0
virtual_3415464_226,Jalan H. Ibrahim Adjie,-6.9291998,107.6439922,0,0
virtual_3415464_227,Jalan H. Ibrahim Adjie,-6.9289532,107.6440965,0,0
virtual_3415464_228,Jalan H. Ibrahim Adjie,-6.9288288,107.6441455,0,0
virtual_3415464_229,Jalan H. Ibrahim Adjie,-6.9287415,107.64417,0,0
virtual_3415464_230,Jalan H. Ibrahim Adjie,-6.9286091,107.6442064,0,0
virtual_3415464_231,Jalan H. Ibrahim Adjie,-6.9284438,107.6442254,0,0
virtual_3415464_232,Jalan H. Ibrahim Adjie,-6.9283107,107.6442374,0,0
virtual_3415464_233,Jalan H. Ibrahim Adjie,-6.9279591,107.6442459,0,0
virtual_3415464_234,Jalan H. Ibrahim Adjie,-6.9277157,107.6442567,0,0
virtual_3415464_235,Jalan H. Ibrahim Adjie,-6.9275461,107.6442828,0,0
virtual_3415464_236,Jalan H. Ibrahim Adjie,-6.9273645,107.6443294,0,0
virtual_3415464_237,Jalan H. Ibrahim Adjie,-6.9272085,107.644384,0,0
virtual_3415464_238,Jalan H. Ibrahim Adjie,-6.9271102,107.6444091,0,0
virtual_3415464_239,Jalan H. Ibrahim Adjie,-6.9270482,107.6444251,0,0
virtual_3415464_240,Jalan H. Ibrahim Adjie,-6.9270343,107.6444287,0,0
virtual_3415464_241,Jalan H. Ibrahim Adjie,-6.9269855,107.6444385,0,0
virtual_3415464_242,Jalan H. Ibrahim Adjie,-6.9269381,107.6444491,0,0
virtual_3415464_243,Jalan H. Ibrahim Adjie,-6.9268515,107.6444587,0,0
virtual_3415464_244,Jalan H. Ibrahim Adjie,-6.9267038,107.6444641,0,0
virtual_3415464_245,Jalan H. Ibrahim Adjie,-6.9265517,107.6444657,0,0
virtual_3415464_246,Jalan H. Ibrahim Adjie,-6.9252812,107.6444244,0,0
virtual_3415464_247,Jalan H. Ibrahim Adjie,-6.9246399,107.6444061,0,0
virtual_3415464_248,Jalan H. Ibrahim Adjie,-6.9245298,107.6443982,0,0
virtual_3415464_249,Jalan H. Ibrahim Adjie,-6.9244413,107.6443956,0,0
virtual_3415464_250,Jalan H. Ibrahim Adjie,-6.9243799,107.6443928,0,0
virtual_3415464_251,Jalan H. Ibrahim Adjie,-6.9243224,107.6443899,0,0
virtual_3415464_252,Jalan H. Ibrahim Adjie,-6.9242785,107.6443872,0,0
virtual_3415464_253,Jalan H. Ibrahim Adjie,-6.9242349,107.6443849,0,0
virtual_3415464_254,Jalan H. Ibrahim Adjie,-6.9241844,107.6443821,0,0
virtual_3415464_255,Jalan H. Ibrahim Adjie,-6.9238694,107.6443679,0,0
virtual_3415464_256,Jalan H. Ibrahim Adjie,-6.9237462,107.6443617,0,0
virtual_3415464_257,Jalan H. Ibrahim Adjie,-6.9232255,107.6443436,0,0
virtual_3415464_258,Jalan H. Ibrahim Adjie,-6.9228161,107.6443266,0,0
virtual_3415464_259,Jalan H. Ibrahim Adjie,-6.9225944,107.6443166,0,0
virtual_3415464_260,Jalan H. Ibrahim Adjie,-6.9222722,107.6442979,0,0
virtual_3415464_261,Jalan H. Ibrahim Adjie,-6.9220961,107.6442877,0,0
virtual_3415464_262,Jalan H. Ibrahim Adjie,-6.9217938,107.6442701,0,0
virtual_3415464_263,Jalan H. Ibrahim Adjie,-6.9206082,107.6442126,0,0
virtual_3415464_264,Jalan H. Ibrahim Adjie,-6.9195253,107.6441491,0,0
virtual_3415464_265,Jalan H. Ibrahim Adjie,-6.9194414,107.6441456,0,0
virtual_3415464_266,Jalan H. Ibrahim Adjie,-6.9193272,107.6441408,0,0
virtual_3415464_267,Jalan H. Ibrahim Adjie,-6.9192711,107.6441381,0,0
virtual_3415464_268,Jalan H. Ibrahim Adjie,-6.9190672,107.644128,0,0
virtual_3415464_269,Jalan H. Ibrahim Adjie,-6.9185996,107.6440855,0,0
virtual_3415464_270,Jalan H. Ibrahim Adjie,-6.9184616,107.6440727,0,0
virtual_3415464_271,Jalan H. Ibrahim Adjie,-6.9178882,107.6440177,0,0
virtual_3415464_272,Jalan H. Ibrahim Adjie,-6.916833,107.6438994,0,0
virtual_3415464_273,Jalan H. Ibrahim Adjie,-6.9165842,107.6438819,0,0
virtual_3415464_274,Jalan H. Ibrahim Adjie,-6.9161586,107.6438444,0,0
virtual_3415464_275,Jalan H. Ibrahim Adjie,-6.9159687,107.6438277,0,0
virtual_3415464_276,Jalan H. Ibrahim Adjie,-6.9158898,107.6438209,0,0
virtual_3415464_277,Jalan H. Ibrahim Adjie,-6.9148349,107.6437224,0,0
virtual_3415464_278,Jalan H. Ibrahim Adjie,-6.9147964,107.6437294,0,0
virtual_3415464_279,Jalan H. Ibrahim Adjie,-6.9147194,107.6437472,0,0
virtual_3415464_280,Jalan H. Ibrahim Adjie,-6.9146763,107.643757,0,0
virtual_3415464_281,Jalan H. Ibrahim Adjie,-6.9141291,107.6437064,0,0
virtual_3415464_282,Jalan terdekat,-6.9139376,107.64364,0,0
virtual_3415464_283,Jalan terdekat,-6.9139023,107.6436192,0,0
virtual_3415464_284,Jalan terdekat,-6.9138803,107.6436004,0,0
virtual_3415464_285,Jalan terdekat,-6.9138673,107.6435804,0,0
virtual_3415464_286,Jalan terdekat,-6.9138537,107.6435595,0,0
virtual_3415464_287,Jalan terdekat,-6.9138202,107.6434317,0,0
virtual_3415464_288,Jalan Jakarta,-6.9138756,107.6429791,0,0
virtual_3415464_289,Jalan Jakarta,-6.9139602,107.6422888,0,0
virtual_3415464_290,Jalan Jakarta,-6.9139589,107.6421252,0,0
virtual_3415464_291,Jalan Jakarta,-6.9139622,107.6417884,0,0
virtual_3415464_292,Jalan Jakarta,-6.9139738,107.641697,0,0
virtual_3415464_293,Jalan Jakarta,-6.91402,107.641333,0,0
virtual_3415464_294,Jalan Jakarta,-6.9140332,107.6412294,0,0
virtual_3415464_295,Jalan Jakarta,-6.9140514,107.6410867,0,0
virtual_3415464_296,Jalan Jakarta,-6.9140626,107.6409986,0,0
virtual_3415464_297,Jalan Jakarta,-6.9141216,107.6405342,0,0
virtual_3415464_298,Jalan Jakarta,-6.914133,107.6404441,0,0
virtual_3415464_299,Jalan Jakarta,-6.9141506,107.6403058,0,0
virtual_3415464_300,Jalan Jakarta,-6.9141611,107.6402235,0,0
virtual_3415464_301,Jalan Jakarta,-6.9141974,107.6399572,0,0
virtual_3415464_302,Jalan Jakarta,-6.9142036,107.6399016,0,0
virtual_3415464_303,Jalan Jakarta,-6.914221,107.639752,0,0
virtual_3415464_304,Jalan Jakarta,-6.9142545,107.6394886,0,0
virtual_3415464_305,Jalan Jakarta,-6.9142777,107.6393055,0,0
virtual_3415464_306,Jalan Jakarta,-6.9143026,107.6391098,0,0
virtual_3415464_307,Jalan Jakarta,-6.9143205,107.6389687,0,0
virtual_3415464_308,Jalan Jakarta,-6.914336,107.6388474,0,0
virtual_3415464_309,Jalan Jakarta,-6.9143613,107.6386476,0,0
virtual_3415464_310,Jalan Jakarta,-6.9143693,107.6385849,0,0
virtual_3415464_311,Jalan Jakarta,-6.9143838,107.6384709,0,0
virtual_3415464_312,Jalan Jakarta,-6.9144188,107.6381956,0,0
virtual_3415464_313,Jalan Jakarta,-6.9144499,107.6379503,0,0
virtual_3415464_314,Jalan Jakarta,-6.9144641,107.6378321,0,0
virtual_3415464_315,Jalan Jakarta,-6.9144786,107.6377113,0,0
virtual_3415464_316,Jalan Jakarta,-6.9144902,107.6376149,0,0
virtual_3415464_317,Jalan Jakarta,-6.9144961,107.6375655,0,0
virtual_3415464_318,Jalan Jakarta,-6.9144979,107.6375505,0,0
virtual_3415464_319,Jalan Jakarta,-6.9145133,107.6374221,0,0
virtual_3415464_320,Jalan Jakarta,-6.9145151,107.6374071,0,0
virtual_3415464_321,Jalan Jakarta,-6.9145209,107.6373588,0,0
virtual_3415464_322,Jalan Jakarta,-6.9145467,107.6371438,0,0
virtual_3415464_323,Jalan Jakarta,-6.9145755,107.6369043,0,0
virtual_3415464_324,Jalan Jakarta,-6.914633,107.636513,0,0
virtual_3415464_325,Jalan Jakarta,-6.9146627,107.6362469,0,0
virtual_3415464_326,Jalan Jakarta,-6.9146671,107.6362076,0,0
virtual_3415464_327,Jalan Jakarta,-6.9146647,107.6361335,0,0
virtual_3415464_328,Jalan Jakarta,-6.9146453,107.6360082,0,0
virtual_3415464_329,Jalan Jakarta,-6.9145626,107.6356952,0,0
virtual_3415464_330,Jalan Jakarta,-6.9145514,107.6356516,0,0
virtual_3415464_331,Jalan Jakarta,-6.9144668,107.6353848,0,0
virtual_3415464_332,Jalan Layang Ahmad Yani - Supratman,-6.9144435,107.635303,0,0
virtual_3415464_333,Jalan Layang Ahmad Yani - Supratman,-6.9143377,107.6350006,0,0
virtual_3415464_334,Jalan Layang Ahmad Yani - Supratman,-6.9142738,107.6348698,0,0
virtual_3415464_335,Jalan Layang Ahmad Yani - Supratman,-6.9141918,107.6347632,0,0
virtual_3415464_336,Jalan Layang Ahmad Yani - Supratman,-6.9140834,107.6346801,0,0
virtual_3415464_337,Jalan Layang Ahmad Yani - Supratman,-6.9129877,107.6340779,0,0
virtual_3415464_338,Jalan Layang Ahmad Yani - Supratman,-6.9127467,107.6339237,0,0
virtual_3415464_339,Jalan Layang Ahmad Yani - Supratman,-6.9119971,107.6334328,0,0
virtual_3415464_340,Jalan Jakarta,-6.9117162,107.6331914,0,0
virtual_3415464_341,Jalan Supratman,-6.9116686,107.6331611,0,0
virtual_3415464_342,Jalan Supratman,-6.9112379,107.63286,0,0
virtual_3415464_343,Jalan Supratman,-6.9101794,107.6321776,0,0
virtual_3415464_344,Jalan Supratman,-6.9097735,107.6319159,0,0
virtual_3415464_345,Jalan Supratman,-6.9094522,107.6317052,0,0
virtual_3415464_346,Jalan Supratman,-6.9092038,107.6315424,0,0
virtual_3415464_347,Jalan Supratman,-6.9090707,107.6314551,0,0
virtual_3415464_348,Jalan Supratman,-6.9086918,107.6312067,0,0
virtual_3415464_349,Jalan Supratman,-6.9085001,107.6310811,0,0
virtual_3415464_350,Jalan Supratman,-6.90836,107.6309892,0,0
virtual_3415464_351,Jalan Supratman,-6.9081948,107.6308809,0,0
virtual_3415464_352,Jalan Supratman,-6.9078314,107.6306426,0,0
virtual_3415464_353,Jalan Supratman,-6.9077531,107.6305913,0,0
virtual_3415464_354,Jalan Lapang Supratman,-6.9079553,107.6302838,0,0
virtual_3415464_355,Jalan Lapang Supratman,-6.9080655,107.6301163,0,0
virtual_3415464_356,Jalan Lapang Supratman,-6.9081756,107.6299488,0,0
virtual_3415464_357,Jalan Lapang Supratman,-6.9082432,107.6297436,0,0
virtual_3415464_358,Jalan Lapang Supratman,-6.9082512,107.629633,0,0
virtual_3415464_359,Jalan Lapang Supratman,-6.9082404,107.6295506,0,0
virtual_3415464_360,Jalan Lapang Supratman,-6.9082151,107.6294925,0,0
virtual_3415464_361,Jalan Lapang Supratman,-6.9081795,107.629441,0,0
virtual_3415464_362,Jalan Lapang Supratman,-6.9081299,107.6293885,0,0
virtual_3415464_363,Jalan Lapang Supratman,-6.9080334,107.6293159,0,0
virtual_3415464_364,Jalan Lapang Supratman,-6.9079205,107.6292485,0,0
virtual_3415464_365,Jalan Lapang Supratman,-6.9078642,107.62923,0,0
virtual_3415464_366,Jalan Lapang Supratman,-6.9077795,107.6292272,0,0
virtual_3415464_367,Jalan Lapang Supratman,-6.9077178,107.6292391,0,0
virtual_3415464_368,Jalan Lapang Supratman,-6.9076039,107.6292929,0,0
virtual_3415464_369,Jalan Lapang Supratman,-6.9074925,107.6293847,0,0
virtual_3415464_370,Jalan Lapang Supratman,-6.9073986,107.629504,0,0
virtual_3415464_371,Jalan Lapang Supratman,-6.9073236,107.6296151,0,0
virtual_3415464_372,Jalan Lapang Supratman,-6.907261,107.6297079,0,0
virtual_3415464_373,Jalan Lapang Supratman,-6.907208,107.6297865,0,0
virtual_3415464_374,Jalan Lapang Supratman,-6.9069879,107.6301128,0,0
virtual_3415464_375,Jalan Supratman,-6.9068943,107.6300535,0,0
virtual_3415464_376,Jalan Supratman,-6.9065566,107.629843,0,0
virtual_3415464_377,Jalan Brigjend. Katamso,-6.9065072,107.629935,0,0
virtual_3415464_378,Jalan Brigjend. Katamso,-6.9063283,107.6303214,0,0
virtual_3415464_379,Jalan Brigjend. Katamso,-6.9062732,107.6303549,0,0
virtual_3415464_380,Jalan Brigjend. Katamso,-6.9060357,107.6305171,0,0
virtual_3415464_381,Jalan Brigjend. Katamso,-6.9059132,107.6306164,0,0
virtual_3415464_382,Jalan Brigjend. Katamso,-6.905028,107.6312587,0,0
virtual_3415464_383,Jalan Brigjend. Katamso,-6.9044669,107.6316451,0,0
virtual_3415464_384,Jalan Brigjend. Katamso,-6.9042688,107.6317894,0,0
virtual_3415464_385,Jalan Brigjend. Katamso,-6.9039297,107.6320385,0,0
virtual_3415464_386,Jalan Brigjend. Katamso,-6.903793,107.6321582,0,0
virtual_3415464_387,Jalan Brigjend. Katamso,-6.9034531,107.6324558,0,0
virtual_3415464_388,Jalan Brigjend. Katamso,-6.9030314,107.6329526,0,0
virtual_3415464_389,Jalan Brigjend. Katamso,-6.9029229,107.6331455,0,0
virtual_3415464_390,Jalan Brigjend. Katamso,-6.9028646,107.6332551,0,0
virtual_3415464_391,Jalan Brigjend. Katamso,-6.9027941,107.6333952,0,0
virtual_3415464_392,Jalan Brigjend. Katamso,-6.902753,107.6334718,0,0
virtual_3415464_393,Jalan Brigjend. Katamso,-6.9026114,107.6337467,0,0
virtual_3415464_394,Jalan Brigjend. Katamso,-6.9025511,107.6338639,0,0
virtual_3415464_395,Jalan Brigjend. Katamso,-6.9023515,107.6342515,0,0
virtual_3415464_396,Jalan Brigjend. Katamso,-6.9021409,107.6346604,0,0
virtual_3415464_397,Jalan Brigjend. Katamso,-6.9020656,107.6348067,0,0
virtual_3415464_398,Jalan Brigjend. Katamso,-6.9019378,107.6350549,0,0
virtual_3415464_399,Jalan Pahlawan,-6.9016374,107.6348987,0,0
virtual_3415464_400,Jalan Pahlawan,-6.9014729,107.6348128,0,0
virtual_3415464_401,Jalan Pahlawan,-6.9008227,107.634484,0,0
virtual_3415464_402,Jalan Pahlawan,-6.9005363,107.6343436,0,0
virtual_3415464_403,Jalan Pahlawan,-6.9003045,107.634244,0,0
virtual_3415464_404,Jalan Pahlawan,-6.9002535,107.634226,0,0
virtual_3415464_405,Jalan Pahlawan,-6.9000823,107.634169,0,0
virtual_3415464_406,Jalan Pahlawan,-6.8999094,107.6341191,0,0
virtual_3415464_407,Jalan Pahlawan,-6.8997079,107.6340678,0,0
virtual_3415464_408,Jalan Pahlawan,-6.8996181,107.6340457,0,0
virtual_3415464_409,Jalan Pahlawan,-6.8994968,107.6340202,0,0
virtual_3415464_410,Jalan Pahlawan,-6.8993522,107.6339954,0,0
virtual_3415464_411,Jalan Pahlawan,-6.8991547,107.6339847,0,0
virtual_3415464_412,Jalan Pahlawan,-6.8991154,107.6339826,0,0
virtual_3415464_413,Jalan Pahlawan,-6.8989889,107.6339837,0,0
virtual_3415464_414,Jalan Pahlawan,-6.8989336,107.6339842,0,0
virtual_3415464_415,Jalan Pahlawan,-6.8988729,107.6339847,0,0
virtual_3415464_416,Jalan Pahlawan,-6.8985508,107.6340079,0,0
virtual_3415464_417,Jalan Pahlawan,-6.8982024,107.6340622,0,0
virtual_3415464_418,Jalan Pahlawan,-6.8979661,107.634127,0,0
virtual_3415464_419,Jalan Pahlawan,-6.8977908,107.6341816,0,0
virtual_3415464_420,Jalan PH. H. Mustofa,-6.8978054,107.6343318,0,0
virtual_3415464_421,Jalan PH. H. Mustofa,-6.8978256,107.6344445,0,0
virtual_3415464_422,Jalan PH. H. Mustofa,-6.8979512,107.6349905,0,0
virtual_3415464_423,Jalan PH. H. Mustofa,-6.8980235,107.6353023,0,0
virtual_3415464_424,Jalan PH. H. Mustofa,-6.8981263,107.6357319,0,0
virtual_3415464_425,Jalan PH. H. Mustofa,-6.8981511,107.6358307,0,0
virtual_3415464_426,Jalan PH. H. Mustofa,-6.8982085,107.6360412,0,0
virtual_3415464_427,Jalan PH. H. Mustofa,-6.8982198,107.6360827,0,0
virtual_3415464_428,Jalan PH. H. Mustofa,-6.8982307,107.6361323,0,0
virtual_3415464_429,Jalan PH. H. Mustofa,-6.8982483,107.6362093,0,0
virtual_3415464_430,Jalan PH. H. Mustofa,-6.8982807,107.6363508,0,0
virtual_3415464_431,Jalan PH. H. Mustofa,-6.8983213,107.6365297,0,0
virtual_3415464_432,Jalan PH. H. Mustofa,-6.8983675,107.6367332,0,0
virtual_3415464_433,Jalan PH. H. Mustofa,-6.8984093,107.6369176,0,0
virtual_3415464_434,Jalan PH. H. Mustofa,-6.8984148,107.6369418,0,0
virtual_3415464_435,Jalan PH. H. Mustofa,-6.8984458,107.6370787,0,0
virtual_3415464_436,Jalan PH. H. Mustofa,-6.8984698,107.6371799,0,0
virtual_3415464_437,Jalan PH. H. Mustofa,-6.8985077,107.63734,0,0
virtual_3415464_438,Jalan PH. H. Mustofa,-6.8985235,107.6374067,0,0
virtual_3415464_439,Jalan PH. H. Mustofa,-6.8985515,107.6375247,0,0
virtual_3415464_440,Jalan PH. H. Mustofa,-6.8985829,107.6376569,0,0
virtual_3415464_441,Jalan PH. H. Mustofa,-6.8986302,107.6378565,0,0
virtual_3415464_442,Jalan PH. H. Mustofa,-6.898642,107.6379062,0,0
virtual_3415464_443,Jalan PH. H. Mustofa,-6.8986596,107.6379805,0,0
virtual_3415464_444,Jalan PH. H. Mustofa,-6.8986788,107.6380614,0,0
virtual_3415464_445,Jalan PH. H. Mustofa,-6.8987117,107.6382004,0,0
virtual_3415464_446,Jalan PH. H. Mustofa,-6.8987357,107.6383016,0,0
virtual_3415464_447,Jalan PH. H. Mustofa,-6.8988043,107.6385967,0,0
virtual_3415464_448,Jalan PH. H. Mustofa,-6.8988893,107.6389496,0,0
virtual_3415464_449,Jalan PH. H. Mustofa,-6.8989624,107.6392578,0,0
virtual_3415464_450,Jalan PH. H. Mustofa,-6.8990042,107.6394338,0,0
virtual_3415464_451,Jalan PH. H. Mustofa,-6.8990264,107.639528,0,0
virtual_3415464_452,Jalan PH. H. Mustofa,-6.8990635,107.639689,0,0
virtual_3415464_453,Jalan PH. H. Mustofa,-6.8990899,107.6397992,0,0
virtual_3415464_454,Jalan PH. H. Mustofa,-6.8991138,107.6398962,0,0
virtual_3415464_455,Jalan PH. H. Mustofa,-6.8991322,107.6399762,0,0
virtual_3415464_456,Jalan PH. H. Mustofa,-6.8991472,107.640051,0,0
virtual_3415464_457,Jalan PH. H. Mustofa,-6.8992417,107.6404383,0,0
virtual_3415464_458,Jalan PH. H. Mustofa,-6.8992646,107.6405323,0,0
virtual_3415464_459,Jalan PH. H. Mustofa,-6.8993075,107.6407134,0,0
virtual_3415464_460,Jalan PH. H. Mustofa,-6.89932,107.6407662,0,0
virtual_3415464_461,Jalan PH. H. Mustofa,-6.8993384,107.6408435,0,0
virtual_3415464_462,Jalan PH. H. Mustofa,-6.899441,107.6412764,0,0
virtual_3415464_463,Jalan PH. H. Mustofa,-6.8994578,107.641347,0,0
virtual_3415464_464,Jalan PH. H. Mustofa,-6.8995076,107.6415516,0,0
virtual_3415464_465,Jalan PH. H. Mustofa,-6.8995205,107.6416085,0,0
virtual_3415464_466,Jalan PH. H. Mustofa,-6.8995366,107.6416794,0,0
virtual_3415464_467,Jalan PH. H. Mustofa,-6.8995403,107.6416949,0,0
virtual_3415464_468,Jalan PH. H. Mustofa,-6.8995506,107.6417385,0,0
virtual_3415464_469,Jalan PH. H. Mustofa,-6.8995613,107.6417839,0,0
virtual_3415464_470,Jalan PH. H. Mustofa,-6.8996132,107.6420026,0,0
virtual_3415464_471,Jalan PH. H. Mustofa,-6.8996335,107.6420884,0,0
virtual_3415464_472,Jalan PH. H. Mustofa,-6.8996594,107.6421976,0,0
virtual_3415464_473,Jalan PH. H. Mustofa,-6.8996824,107.6422944,0,0
virtual_3415464_474,Jalan PH. H. Mustofa,-6.8997229,107.6424647,0,0
virtual_3415464_475,Jalan PH. H. Mustofa,-6.8997726,107.6426735,0,0
virtual_3415464_476,Jalan PH. H. Mustofa,-6.8998003,107.64279,0,0
virtual_3415464_477,Jalan PH. H. Mustofa,-6.8998339,107.642932,0,0
virtual_3415464_478,Jalan PH. H. Mustofa,-6.8998436,107.6429728,0,0
virtual_3415464_479,Jalan PH. H. Mustofa,-6.8998716,107.6431044,0,0
virtual_3415464_480,Jalan PH. H. Mustofa,-6.8999482,107.6434139,0,0
virtual_3415464_481,Jalan PH. H. Mustofa,-6.8999663,107.6435297,0,0
virtual_3415464_482,Jalan PH. H. Mustofa,-6.8999796,107.6436124,0,0
virtual_3415464_483,Jalan PH. H. Mustofa,-6.8999883,107.643667,0,0
virtual_3415464_484,Jalan PH. H. Mustofa,-6.9000026,107.6437562,0,0
virtual_3415464_485,Jalan PH. H. Mustofa,-6.9000071,107.6437845,0,0
virtual_3415464_486,Jalan PH. H. Mustofa,-6.9000127,107.6438196,0,0
virtual_3415464_487,Jalan PH. H. Mustofa,-6.9000256,107.6439328,0,0
virtual_3415464_488,Jalan PH. H. Mustofa,-6.9000314,107.643984,0,0
virtual_3415464_489,Jalan PH. H. Mustofa,-6.9000581,107.6442214,0,0
virtual_3415464_490,Jalan PH. H. Mustofa,-6.9001485,107.6446479,0,0
virtual_3415464_491,Jalan PH. H. Mustofa,-6.9001599,107.6446782,0,0
virtual_3415464_492,Jalan PH. H. Mustofa,-6.9002413,107.6448952,0,0
virtual_3415464_493,Jalan PH. H. Mustofa,-6.9002743,107.6449808,0,0
virtual_3415464_494,Jalan PH. H. Mustofa,-6.9003719,107.6452068,0,0
virtual_3415464_495,Jalan PH. H. Mustofa,-6.900388,107.6452442,0,0
virtual_3415464_496,Jalan PH. H. Mustofa,-6.9004052,107.6452841,0,0
virtual_3415464_497,Jalan PH. H. Mustofa,-6.9004547,107.6453987,0,0
virtual_3415464_498,Jalan PH. H. Mustofa,-6.9005103,107.6455117,0,0
virtual_3415464_499,Jalan PH. H. Mustofa,-6.9005537,107.6455998,0,0
virtual_3415464_500,Jalan PH. H. Mustofa,-6.9006362,107.6457674,0,0
virtual_3415464_501,Jalan PH. H. Mustofa,-6.900673,107.6458421,0,0
virtual_3415464_502,Jalan PH. H. Mustofa,-6.9008033,107.6461092,0,0
virtual_3415464_503,Jalan PH. H. Mustofa,-6.9008434,107.6461914,0,0
virtual_3415464_504,Jalan PH. H. Mustofa,-6.9009168,107.6463329,0,0
virtual_3415464_505,Jalan PH. H. Mustofa,-6.900967,107.6464296,0,0
virtual_3415464_506,Jalan PH. H. Mustofa,-6.9012136,107.6469046,0,0
virtual_3415464_507,Jalan PH. H. Mustofa,-6.9012264,107.6469293,0,0
virtual_3415464_508,Jalan PH. H. Mustofa,-6.9014584,107.6474504,0,0
virtual_3415464_509,Jalan PH. H. Mustofa,-6.901552,107.6477192,0,0
virtual_3415464_510,Jalan PH. H. Mustofa,-6.9015852,107.6478569,0,0
virtual_3415464_511,Jalan PH. H. Mustofa,-6.9016027,107.6480152,0,0
virtual_3415464_512,Jalan PH. H. Mustofa,-6.9016115,107.6481316,0,0
virtual_3415464_513,Jalan PH. H. Mustofa,-6.9016362,107.6484583,0,0
virtual_3415464_514,Jalan PH. H. Mustofa,-6.9016441,107.6485627,0,0
virtual_3415464_515,Jalan PH. H. Mustofa,-6.9016812,107.6490533,0,0
virtual_3415464_516,Jalan PH. H. Mustofa,-6.901691,107.6491826,0,0
virtual_3415464_517,Jalan PH. H. Mustofa,-6.9017359,107.6497732,0,0
virtual_3415464_518,Jalan PH. H. Mustofa,-6.9017541,107.6500375,0,0
virtual_3415464_519,Jalan PH. H. Mustofa,-6.90177,107.6503187,0,0
virtual_3415464_520,Jalan PH. H. Mustofa,-6.9017916,107.6506002,0,0
virtual_3415464_521,Jalan PH. H. Mustofa,-6.9018006,107.65075,0,0
virtual_3415464_522,Jalan PH. H. Mustofa,-6.9018087,107.6508611,0,0
virtual_3415464_523,Jalan PH. H. Mustofa,-6.9018211,107.6511076,0,0
virtual_3415464_524,Jalan PH. H. Mustofa,-6.9018282,107.6512496,0,0
virtual_3415464_525,Jalan PH. H. Mustofa,-6.9018387,107.6514575,0,0
virtual_3415464_526,Jalan PH. H. Mustofa,-6.9018733,107.6521986,0,0
virtual_3415464_527,Jalan PH. H. Mustofa,-6.9018742,107.6522919,0,0
virtual_3415464_528,Jalan PH. H. Mustofa,-6.9018908,107.6525276,0,0
virtual_3415464_529,Jalan PH. H. Mustofa,-6.9018971,107.6526167,0,0
virtual_3415464_530,Jalan PH. H. Mustofa,-6.9019067,107.6528084,0,0
virtual_3415464_531,Jalan PH. H. Mustofa,-6.9018754,107.6529821,0,0
virtual_3415464_532,Jalan PH. H. Mustofa,-6.9019038,107.6534283,0,0
virtual_3415464_533,Jalan PH. H. Mustofa,-6.9019129,107.6535715,0,0
virtual_3415464_534,Jalan PH. H. Mustofa,-6.9019188,107.6536634,0,0
virtual_3415464_535,Jalan PH. H. Mustofa,-6.901949,107.6540692,0,0
virtual_3415464_536,Jalan PH. H. Mustofa,-6.9019873,107.6545235,0,0
virtual_3415464_537,Jalan PH. H. Mustofa,-6.9020103,107.6548916,0,0
virtual_3415464_538,Jalan PH. H. Mustofa,-6.9020246,107.6551205,0,0
virtual_3415464_539,Jalan PH. H. Mustofa,-6.9020243,107.6551401,0,0
virtual_3415464_540,Jalan PH. H. Mustofa,-6.9020294,107.6552301,0,0
virtual_3415464_541,Jalan PH. H. Mustofa,-6.9020357,107.6553398,0,0
virtual_3415464_542,Jalan PH. H. Mustofa,-6.9020453,107.6555577,0,0
virtual_3415464_543,Jalan PH. H. Mustofa,-6.9020533,107.6557405,0,0
virtual_3415464_544,Jalan Abdul Haris Nasution,-6.9020684,107.6561365,0,0
virtual_3415464_545,Jalan Abdul Haris Nasution,-6.9020693,107.6561617,0,0
virtual_3415464_546,Jalan Abdul Haris Nasution,-6.9021108,107.6564574,0,0
virtual_3415464_547,Jalan Abdul Haris Nasution,-6.9021236,107.6566343,0,0
virtual_3415464_548,Jalan Abdul Haris Nasution,-6.9021302,107.6567969,0,0
virtual_3415464_549,Jalan Abdul Haris Nasution,-6.9021368,107.6571681,0,0
virtual_3415464_550,Jalan terdekat,-6.9022149,107.6572534,0,0
virtual_3415464_551,Jalan terdekat,-6.9022844,107.657269,0,0
virtual_3415464_552,Jalan terdekat,-6.9023547,107.6572735,0,0
virtual_3415464_553,Jalan terdekat,-6.9023809,107.6572781,0,0
virtual_3415464_554,Jalan terdekat,-6.9024322,107.6572814,0,0
virtual_3415464_555,Jalan terdekat,-6.9027453,107.6572943,0,0
virtual_3415464_556,Jalan terdekat,-6.9027776,107.6572785,0,0
virtual_3415464_557,Jalan terdekat,-6.9027902,107.6572637,0,0
virtual_3415464_558,Jalan terdekat,-6.9027953,107.6572377,0,0
virtual_3415464_559,Jalan terdekat,-6.9028353,107.6562671,0,0
virtual_3415464_560,Jalan terdekat,-6.9024172,107.6562486,0,0
virtual_4635390_0,Jalan terdekat,-6.9024172,107.6562486,0,0
virtual_4635390_1,Jalan terdekat,-6.9023005,107.6562434,0,0
virtual_4635390_2,Jalan terdekat,-6.9021633,107.6562379,0,0
virtual_4635390_3,Jalan Abdul Haris Nasution,-6.9021519,107.6561678,0,0
virtual_4635390_4,Jalan Abdul Haris Nasution,-6.9021454,107.6560981,0,0
virtual_4635390_5,Jalan Abdul Haris Nasution,-6.902134,107.6557174,0,0
virtual_4635390_6,Jalan PH. H. Mustofa,-6.9021168,107.6553391,0,0
virtual_4635390_7,Jalan PH. H. Mustofa,-6.9021121,107.6552235,0,0
virtual_4635390_8,Jalan PH. H. Mustofa,-6.9021051,107.6550496,0,0
virtual_4635390_9,Jalan PH. H. Mustofa,-6.9020918,107.6548848,0,0
virtual_4635390_10,Jalan PH. H. Mustofa,-6.902058,107.6544663,0,0
virtual_4635390_11,Jalan PH. H. Mustofa,-6.9020547,107.6544249,0,0
virtual_4635390_12,Jalan PH. H. Mustofa,-6.9020071,107.6539164,0,0
virtual_4635390_13,Jalan PH. H. Mustofa,-6.9019865,107.6536878,0,0
virtual_4635390_14,Jalan PH. H. Mustofa,-6.901985,107.6536574,0,0
virtual_4635390_15,Jalan PH. H. Mustofa,-6.9019799,107.6535575,0,0
virtual_4635390_16,Jalan PH. H. Mustofa,-6.9019707,107.653422,0,0
virtual_4635390_17,Jalan PH. H. Mustofa,-6.9019616,107.6532778,0,0
virtual_4635390_18,Jalan PH. H. Mustofa,-6.9019541,107.6531598,0,0
virtual_4635390_19,Jalan PH. H. Mustofa,-6.901952,107.6531268,0,0
virtual_4635390_20,Jalan PH. H. Mustofa,-6.9019446,107.6529794,0,0
virtual_4635390_21,Jalan PH. H. Mustofa,-6.9019067,107.6528084,0,0
virtual_4635390_22,Jalan PH. H. Mustofa,-6.9018087,107.6508611,0,0
virtual_4635390_23,Jalan PH. H. Mustofa,-6.9018211,107.6511076,0,0
virtual_4635390_24,Jalan PH. H. Mustofa,-6.9018282,107.6512496,0,0
virtual_4635390_25,Jalan PH. H. Mustofa,-6.9018387,107.6514575,0,0
virtual_4635390_26,Jalan PH. H. Mustofa,-6.9018733,107.6521986,0,0
virtual_4635390_27,Jalan PH. H. Mustofa,-6.9018742,107.6522919,0,0
virtual_4635390_28,Jalan PH. H. Mustofa,-6.9018908,107.6525276,0,0
virtual_4635390_29,Jalan PH. H. Mustofa,-6.9018971,107.6526167,0,0
virtual_4635390_30,Jalan PH. H. Mustofa,-6.9018006,107.65075,0,0
virtual_4635390_31,Jalan PH. H. Mustofa,-6.9000127,107.6438196,0,0
virtual_4635390_32,Jalan PH. H. Mustofa,-6.9000256,107.6439328,0,0
virtual_4635390_33,Jalan PH. H. Mustofa,-6.9000314,107.643984,0,0
virtual_4635390_34,Jalan PH. H. Mustofa,-6.9000581,107.6442214,0,0
virtual_4635390_35,Jalan PH. H. Mustofa,-6.9001485,107.6446479,0,0
virtual_4635390_36,Jalan PH. H. Mustofa,-6.9001599,107.6446782,0,0
virtual_4635390_37,Jalan PH. H. Mustofa,-6.9002413,107.6448952,0,0
virtual_4635390_38,Jalan PH. H. Mustofa,-6.9002743,107.6449808,0,0
virtual_4635390_39,Jalan PH. H. Mustofa,-6.9003719,107.6452068,0,0
virtual_4635390_40,Jalan PH. H. Mustofa,-6.900388,107.6452442,0,0
virtual_4635390_41,Jalan PH. H. Mustofa,-6.9004052,107.6452841,0,0
virtual_4635390_42,Jalan PH. H. Mustofa,-6.9004547,107.6453987,0,0
virtual_4635390_43,Jalan PH. H. Mustofa,-6.9005103,107.6455117,0,0
virtual_4635390_44,Jalan PH. H. Mustofa,-6.9005537,107.6455998,0,0
virtual_4635390_45,Jalan PH. H. Mustofa,-6.9006362,107.6457674,0,0
virtual_4635390_46,Jalan PH. H. Mustofa,-6.900673,107.6458421,0,0
virtual_4635390_47,Jalan PH. H. Mustofa,-6.9008033,107.6461092,0,0
virtual_4635390_48,Jalan PH. H. Mustofa,-6.9008434,107.6461914,0,0
virtual_4635390_49,Jalan PH. H. Mustofa,-6.9009168,107.6463329,0,0
virtual_4635390_50,Jalan PH. H. Mustofa,-6.900967,107.6464296,0,0
virtual_4635390_51,Jalan PH. H. Mustofa,-6.9012136,107.6469046,0,0
virtual_4635390_52,Jalan PH. H. Mustofa,-6.9012264,107.6469293,0,0
virtual_4635390_53,Jalan PH. H. Mustofa,-6.9014584,107.6474504,0,0
virtual_4635390_54,Jalan PH. H. Mustofa,-6.901552,107.6477192,0,0
virtual_4635390_55,Jalan PH. H. Mustofa,-6.9015852,107.6478569,0,0
virtual_4635390_56,Jalan PH. H. Mustofa,-6.9016027,107.6480152,0,0
virtual_4635390_57,Jalan PH. H. Mustofa,-6.9016115,107.6481316,0,0
virtual_4635390_58,Jalan PH. H. Mustofa,-6.9016362,107.6484583,0,0
virtual_4635390_59,Jalan PH. H. Mustofa,-6.9016441,107.6485627,0,0
virtual_4635390_60,Jalan PH. H. Mustofa,-6.9016812,107.6490533,0,0
virtual_4635390_61,Jalan PH. H. Mustofa,-6.901691,107.6491826,0,0
virtual_4635390_62,Jalan PH. H. Mustofa,-6.9017359,107.6497732,0,0
virtual_4635390_63,Jalan PH. H. Mustofa,-6.9017541,107.6500375,0,0
virtual_4635390_64,Jalan PH. H. Mustofa,-6.90177,107.6503187,0,0
virtual_4635390_65,Jalan PH. H. Mustofa,-6.9017916,107.6506002,0,0
virtual_4635390_66,Jalan PH. H. Mustofa,-6.9000026,107.6437562,0,0
virtual_4635390_67,Jalan PH. H. Mustofa,-6.9000071,107.6437845,0,0
virtual_4635390_68,Jalan PH. H. Mustofa,-6.8999883,107.643667,0,0
virtual_4635390_69,Jalan PH. H. Mustofa,-6.8999482,107.6434139,0,0
virtual_4635390_70,Jalan PH. H. Mustofa,-6.8999663,107.6435297,0,0
virtual_4635390_71,Jalan PH. H. Mustofa,-6.8999796,107.6436124,0,0
virtual_4635390_72,Jalan Cikutra,-6.8997196,107.6434217,0,0
virtual_4635390_73,Jalan Cikutra,-6.8991739,107.6434549,0,0
virtual_4635390_74,Jalan Cikutra,-6.898935,107.6434681,0,0
virtual_4635390_75,Jalan Cikutra,-6.898742,107.6435097,0,0
virtual_4635390_76,Jalan Cikutra,-6.8985615,107.6435525,0,0
virtual_4635390_77,Jalan Cikutra,-6.8981766,107.6436372,0,0
virtual_4635390_78,Jalan Cikutra,-6.8978073,107.6437015,0,0
virtual_4635390_79,Jalan Cikutra,-6.897601,107.6437076,0,0
virtual_4635390_80,Jalan Cikutra,-6.897312,107.6437058,0,0
virtual_4635390_81,Jalan Cikutra,-6.897111,107.6437035,0,0
virtual_4635390_82,Jalan Cikutra,-6.8970495,107.6437025,0,0
virtual_4635390_83,Jalan Cikutra,-6.8969435,107.6436943,0,0
virtual_4635390_84,Jalan Cikutra,-6.8969266,107.6436921,0,0
virtual_4635390_85,Jalan Cikutra,-6.8965534,107.6436524,0,0
virtual_4635390_86,Jalan Cikutra,-6.896441,107.6436342,0,0
virtual_4635390_87,Jalan Cikutra,-6.8961026,107.6435679,0,0
virtual_4635390_88,Jalan Cikutra,-6.8960192,107.6435506,0,0
virtual_4635390_89,Jalan Cikutra,-6.8959381,107.6435276,0,0
virtual_4635390_90,Jalan Cikutra,-6.8958715,107.643499,0,0
virtual_4635390_91,Jalan Cikutra,-6.8956408,107.6432943,0,0
virtual_4635390_92,Jalan Cikutra,-6.8954477,107.6431237,0,0
virtual_4635390_93,Jalan Cikutra,-6.8952929,107.6429808,0,0
virtual_4635390_94,Jalan Cikutra,-6.8951583,107.6428455,0,0
virtual_4635390_95,Jalan Cikutra,-6.8950706,107.6427374,0,0
virtual_4635390_96,Jalan Cikutra,-6.8950441,107.6426791,0,0
virtual_4635390_97,Jalan Cikutra,-6.8950198,107.6426248,0,0
virtual_4635390_98,Jalan Cikutra,-6.8949628,107.6424752,0,0
virtual_4635390_99,Jalan Cikutra,-6.8949233,107.6424044,0,0
virtual_4635390_100,Jalan Cikutra,-6.8947164,107.6421034,0,0
virtual_4635390_101,Jalan Cikutra,-6.8946702,107.6420237,0,0
virtual_4635390_102,Jalan Cikutra,-6.8945447,107.6418224,0,0
virtual_4635390_103,Jalan Cikutra,-6.8945076,107.6417526,0,0
virtual_4635390_104,Jalan Cikutra,-6.8944254,107.6416085,0,0
virtual_4635390_105,Jalan Cikutra,-6.8943003,107.6413356,0,0
virtual_4635390_106,Jalan Cikutra,-6.8941877,107.6410661,0,0
virtual_4635390_107,Jalan Cikutra,-6.8940762,107.6407715,0,0
virtual_4635390_108,Jalan Cikutra,-6.8940394,107.6406612,0,0
virtual_4635390_109,Jalan Cikutra,-6.8940267,107.6406201,0,0
virtual_4635390_110,Jalan Cikutra,-6.8940123,107.6405739,0,0
virtual_4635390_111,Jalan Cikutra,-6.8939836,107.6404773,0,0
virtual_4635390_112,Jalan Cikutra,-6.8939565,107.640386,0,0
virtual_4635390_113,Jalan Cikutra,-6.8939387,107.6403262,0,0
virtual_4635390_114,Jalan Cikutra,-6.8938889,107.6401385,0,0
virtual_4635390_115,Jalan Cikutra,-6.8938604,107.6400311,0,0
virtual_4635390_116,Jalan Cikutra,-6.8938086,107.6398267,0,0
virtual_4635390_117,Jalan Cikutra,-6.8937882,107.6397463,0,0
virtual_4635390_118,Jalan Cikutra,-6.8936636,107.6388995,0,0
virtual_4635390_119,Jalan Cikutra,-6.8936628,107.6386049,0,0
virtual_4635390_120,Jalan Cikutra,-6.8936579,107.6383538,0,0
virtual_4635390_121,Jalan Cikutra,-6.8936616,107.638193,0,0
virtual_4635390_122,Jalan Cikutra,-6.8936719,107.6379264,0,0
virtual_4635390_123,Jalan Cikutra,-6.8936549,107.6374363,0,0
virtual_4635390_124,Jalan Cikutra,-6.8936268,107.6369595,0,0
virtual_4635390_125,Jalan Cikutra,-6.8936194,107.636805,0,0
virtual_4635390_126,Jalan Cikutra,-6.8936199,107.6366349,0,0
virtual_4635390_127,Jalan Cikutra,-6.8936129,107.6365779,0,0
virtual_4635390_128,Jalan Cikutra,-6.8936046,107.6365221,0,0
virtual_4635390_129,Jalan Cikutra,-6.893582,107.6364354,0,0
virtual_4635390_130,Jalan Cikutra,-6.8935452,107.6362947,0,0
virtual_4635390_131,Jalan Cikutra,-6.8935076,107.6362109,0,0
virtual_4635390_132,Jalan Cikutra,-6.8934628,107.6361203,0,0
virtual_4635390_133,Jalan Cikutra,-6.8933698,107.6360198,0,0
virtual_4635390_134,Jalan Cikutra,-6.8933186,107.6359833,0,0
virtual_4635390_135,Jalan Cikutra,-6.8932157,107.635927,0,0
virtual_4635390_136,Jalan Cikutra,-6.8930963,107.6358519,0,0
virtual_4635390_137,Jalan Cikutra,-6.8930311,107.6357918,0,0
virtual_4635390_138,Jalan Cikutra,-6.8929468,107.635692,0,0
virtual_4635390_139,Jalan Cikutra,-6.8928924,107.6356272,0,0
virtual_4635390_140,Jalan Cikutra,-6.8928327,107.6355463,0,0
virtual_4635390_141,Jalan Pahlawan,-6.8931739,107.6354602,0,0
virtual_4635390_142,Jalan Pahlawan,-6.8933137,107.6354258,0,0
virtual_4635390_143,Jalan Pahlawan,-6.893703,107.6353388,0,0
virtual_4635390_144,Jalan Pahlawan,-6.8937938,107.6353178,0,0
virtual_4635390_145,Jalan Pahlawan,-6.8942649,107.6352099,0,0
virtual_4635390_146,Jalan Pahlawan,-6.8945475,107.6351452,0,0
virtual_4635390_147,Jalan Pahlawan,-6.8949709,107.6350337,0,0
virtual_4635390_148,Jalan Pahlawan,-6.8953783,107.6349426,0,0
virtual_4635390_149,Jalan Pahlawan,-6.8956164,107.6348789,0,0
virtual_4635390_150,Jalan Pahlawan,-6.8961255,107.6347529,0,0
virtual_4635390_151,Jalan Pahlawan,-6.8966637,107.6345969,0,0
virtual_4635390_152,Jalan Pahlawan,-6.8967506,107.634576,0,0
virtual_4635390_153,Jalan Pahlawan,-6.8973156,107.6344418,0,0
virtual_4635390_154,Jalan Pahlawan,-6.8976003,107.6343816,0,0
virtual_4635390_155,Jalan Pahlawan,-6.8977908,107.6341816,0,0
virtual_4635390_156,Jalan Pahlawan,-6.9019378,107.6350549,0,0
virtual_4635390_157,Jalan Pahlawan,-6.9016374,107.6348987,0,0
virtual_4635390_158,Jalan Pahlawan,-6.9014729,107.6348128,0,0
virtual_4635390_159,Jalan Pahlawan,-6.9008227,107.634484,0,0
virtual_4635390_160,Jalan Pahlawan,-6.9005363,107.6343436,0,0
virtual_4635390_161,Jalan Pahlawan,-6.9003045,107.634244,0,0
virtual_4635390_162,Jalan Pahlawan,-6.9002535,107.634226,0,0
virtual_4635390_163,Jalan Pahlawan,-6.9000823,107.634169,0,0
virtual_4635390_164,Jalan Pahlawan,-6.8999094,107.6341191,0,0
virtual_4635390_165,Jalan Pahlawan,-6.8997079,107.6340678,0,0
virtual_4635390_166,Jalan Pahlawan,-6.8996181,107.6340457,0,0
virtual_4635390_167,Jalan Pahlawan,-6.8994968,107.6340202,0,0
virtual_4635390_168,Jalan Pahlawan,-6.8993522,107.6339954,0,0
virtual_4635390_169,Jalan Pahlawan,-6.8991547,107.6339847,0,0
virtual_4635390_170,Jalan Pahlawan,-6.8991154,107.6339826,0,0
virtual_4635390_171,Jalan Pahlawan,-6.8989889,107.6339837,0,0
virtual_4635390_172,Jalan Pahlawan,-6.8989336,107.6339842,0,0
virtual_4635390_173,Jalan Pahlawan,-6.8988729,107.6339847,0,0
virtual_4635390_174,Jalan Pahlawan,-6.8985508,107.6340079,0,0
virtual_4635390_175,Jalan Pahlawan,-6.8982024,107.6340622,0,0
virtual_4635390_176,Jalan Pahlawan,-6.8979661,107.634127,0,0
virtual_4635390_177,Jalan Brigjend. Katamso,-6.9028646,107.6332551,0,0
virtual_4635390_178,Jalan Brigjend. Katamso,-6.9027941,107.6333952,0,0
virtual_4635390_179,Jalan Brigjend. Katamso,-6.902753,107.6334718,0,0
virtual_4635390_180,Jalan Brigjend. Katamso,-6.9026114,107.6337467,0,0
virtual_4635390_181,Jalan Brigjend. Katamso,-6.9025511,107.6338639,0,0
virtual_4635390_182,Jalan Brigjend. Katamso,-6.9023515,107.6342515,0,0
virtual_4635390_183,Jalan Brigjend. Katamso,-6.9021409,107.6346604,0,0
virtual_4635390_184,Jalan Brigjend. Katamso,-6.9020656,107.6348067,0,0
virtual_4635390_185,Jalan Brigjend. Katamso,-6.9029229,107.6331455,0,0
virtual_4635390_186,Jalan Brigjend. Katamso,-6.9063283,107.6303214,0,0
virtual_4635390_187,Jalan Brigjend. Katamso,-6.9062732,107.6303549,0,0
virtual_4635390_188,Jalan Brigjend. Katamso,-6.9060357,107.6305171,0,0
virtual_4635390_189,Jalan Brigjend. Katamso,-6.9059132,107.6306164,0,0
virtual_4635390_190,Jalan Brigjend. Katamso,-6.905028,107.6312587,0,0
virtual_4635390_191,Jalan Brigjend. Katamso,-6.9044669,107.6316451,0,0
virtual_4635390_192,Jalan Brigjend. Katamso,-6.9042688,107.6317894,0,0
virtual_4635390_193,Jalan Brigjend. Katamso,-6.9039297,107.6320385,0,0
virtual_4635390_194,Jalan Brigjend. Katamso,-6.903793,107.6321582,0,0
virtual_4635390_195,Jalan Brigjend. Katamso,-6.9034531,107.6324558,0,0
virtual_4635390_196,Jalan Brigjend. Katamso,-6.9030314,107.6329526,0,0
virtual_4635390_197,Jalan Brigjend. Katamso,-6.9067176,107.6300729,0,0
virtual_4635390_198,Jalan Supratman,-6.9069265,107.6302047,0,0
virtual_4635390_199,Jalan Supratman,-6.90769,107.6306929,0,0
virtual_4635390_200,Jalan Supratman,-6.9080775,107.6309444,0,0
virtual_4635390_201,Jalan Supratman,-6.9082684,107.6310683,0,0
virtual_4635390_202,Jalan Supratman,-6.9101733,107.6323048,0,0
virtual_4635390_203,Jalan Supratman,-6.9103228,107.6324017,0,0
virtual_4635390_204,Jalan Supratman,-6.9115132,107.633174,0,0
virtual_4635390_205,Jalan Supratman,-6.912121,107.6335924,0,0
virtual_4635390_206,Jalan Supratman,-6.9122413,107.6336698,0,0
virtual_4635390_207,Jalan Supratman,-6.912987,107.6341496,0,0
virtual_4635390_208,Jalan Supratman,-6.9133337,107.6343465,0,0
virtual_4635390_209,Jalan Supratman,-6.9133508,107.6343563,0,0
virtual_4635390_210,Jalan Supratman,-6.9134014,107.6343866,0,0
virtual_4635390_211,Jalan Jenderal Ahmad Yani,-6.9133722,107.6344419,0,0
virtual_4635390_212,Jalan Jenderal Ahmad Yani,-6.9133543,107.6344916,0,0
virtual_4635390_213,Jalan Jenderal Ahmad Yani,-6.9133508,107.6345495,0,0
virtual_4635390_214,Jalan Jenderal Ahmad Yani,-6.9133253,107.6345966,0,0
virtual_4635390_215,Jalan Jenderal Ahmad Yani,-6.9130642,107.6350723,0,0
virtual_4635390_216,Jalan Jenderal Ahmad Yani,-6.9125623,107.6360079,0,0
virtual_4635390_217,Jalan Jenderal Ahmad Yani,-6.9124375,107.6362369,0,0
virtual_4635390_218,Jalan Jenderal Ahmad Yani,-6.9123786,107.636345,0,0
virtual_4635390_219,Jalan Jenderal Ahmad Yani,-6.9122732,107.636549,0,0
virtual_4635390_220,Jalan Jenderal Ahmad Yani,-6.9121496,107.6367884,0,0
virtual_4635390_221,Jalan Jenderal Ahmad Yani,-6.9121223,107.6368412,0,0
virtual_4635390_222,Jalan Jenderal Ahmad Yani,-6.9120078,107.6370568,0,0
virtual_4635390_223,Jalan Jenderal Ahmad Yani,-6.9119025,107.637255,0,0
virtual_4635390_224,Jalan Jenderal Ahmad Yani,-6.9118725,107.6373116,0,0
virtual_4635390_225,Jalan Jenderal Ahmad Yani,-6.9118179,107.6374113,0,0
virtual_4635390_226,Jalan Jenderal Ahmad Yani,-6.9116813,107.6376684,0,0
virtual_4635390_227,Jalan Jenderal Ahmad Yani,-6.9114875,107.6380339,0,0
virtual_4635390_228,Jalan Jenderal Ahmad Yani,-6.9114557,107.638094,0,0
virtual_4635390_229,Jalan Jenderal Ahmad Yani,-6.9112942,107.6383933,0,0
virtual_4635390_230,Jalan Jenderal Ahmad Yani,-6.911227,107.6385176,0,0
virtual_4635390_231,Jalan Jenderal Ahmad Yani,-6.9111484,107.6386638,0,0
virtual_4635390_232,Jalan Jenderal Ahmad Yani,-6.9110811,107.6387971,0,0
virtual_4635390_233,Jalan Jenderal Ahmad Yani,-6.9107928,107.6393387,0,0
virtual_4635390_234,Jalan Jenderal Ahmad Yani,-6.9107108,107.6394901,0,0
virtual_4635390_235,Jalan Jenderal Ahmad Yani,-6.9106533,107.6396001,0,0
virtual_4635390_236,Jalan Jenderal Ahmad Yani,-6.9105958,107.6397101,0,0
virtual_4635390_237,Jalan Jenderal Ahmad Yani,-6.9103096,107.6402371,0,0
virtual_4635390_238,Jalan Jenderal Ahmad Yani,-6.9101578,107.6405171,0,0
virtual_4635390_239,Jalan Jenderal Ahmad Yani,-6.9098264,107.6411552,0,0
virtual_4635390_240,Jalan Jenderal Ahmad Yani,-6.909687,107.6414299,0,0
virtual_4635390_241,Jalan Jenderal Ahmad Yani,-6.9096273,107.6415303,0,0
virtual_4635390_242,Jalan Jenderal Ahmad Yani,-6.9095608,107.6416573,0,0
virtual_4635390_243,Jalan Jenderal Ahmad Yani,-6.9094368,107.6418763,0,0
virtual_4635390_244,Jalan Jenderal Ahmad Yani,-6.9093976,107.6420289,0,0
virtual_4635390_245,Jalan Jenderal Ahmad Yani,-6.9093246,107.6421602,0,0
virtual_4635390_246,Jalan Jenderal Ahmad Yani,-6.9088519,107.6430381,0,0
virtual_4635390_247,Jalan H. Ibrahim Adjie,-6.9088371,107.6430734,0,0
virtual_4635390_248,Jalan H. Ibrahim Adjie,-6.9088341,107.6430931,0,0
virtual_4635390_249,Jalan H. Ibrahim Adjie,-6.9088392,107.6431156,0,0
virtual_4635390_250,Jalan H. Ibrahim Adjie,-6.9088714,107.6431541,0,0
virtual_4635390_251,Jalan H. Ibrahim Adjie,-6.9089517,107.643189,0,0
virtual_4635390_252,Jalan H. Ibrahim Adjie,-6.9090432,107.6432041,0,0
virtual_4635390_253,Jalan H. Ibrahim Adjie,-6.9093104,107.6432403,0,0
virtual_4635390_254,Jalan H. Ibrahim Adjie,-6.9093774,107.6432555,0,0
virtual_4635390_255,Jalan H. Ibrahim Adjie,-6.9094522,107.6432846,0,0
virtual_4635390_256,Jalan H. Ibrahim Adjie,-6.9096213,107.6432973,0,0
virtual_4635390_257,Jalan H. Ibrahim Adjie,-6.9099246,107.6433337,0,0
virtual_4635390_258,Jalan H. Ibrahim Adjie,-6.9104303,107.6433851,0,0
virtual_4635390_259,Jalan H. Ibrahim Adjie,-6.9105843,107.6434008,0,0
virtual_4635390_260,Jalan H. Ibrahim Adjie,-6.9111273,107.643456,0,0
virtual_4635390_261,Jalan H. Ibrahim Adjie,-6.9112119,107.6434646,0,0
virtual_4635390_262,Jalan H. Ibrahim Adjie,-6.911388,107.6434825,0,0
virtual_4635390_263,Jalan H. Ibrahim Adjie,-6.9115874,107.6435013,0,0
virtual_4635390_264,Jalan H. Ibrahim Adjie,-6.9119301,107.6435336,0,0
virtual_4635390_265,Jalan H. Ibrahim Adjie,-6.9125849,107.6435953,0,0
virtual_4635390_266,Jalan H. Ibrahim Adjie,-6.9128822,107.6436233,0,0
virtual_4635390_267,Jalan H. Ibrahim Adjie,-6.9130175,107.643636,0,0
virtual_4635390_268,Jalan H. Ibrahim Adjie,-6.9130915,107.6436753,0,0
virtual_4635390_269,Jalan H. Ibrahim Adjie,-6.9134736,107.643707,0,0
virtual_4635390_270,Jalan H. Ibrahim Adjie,-6.9135412,107.6437133,0,0
virtual_4635390_271,Jalan H. Ibrahim Adjie,-6.9136467,107.6437243,0,0
virtual_4635390_272,Jalan H. Ibrahim Adjie,-6.9137773,107.6437379,0,0
virtual_4635390_273,Jalan H. Ibrahim Adjie,-6.9138071,107.6437403,0,0
virtual_4635390_274,Jalan H. Ibrahim Adjie,-6.9141195,107.6437714,0,0
virtual_4635390_275,Jalan H. Ibrahim Adjie,-6.9142126,107.6437793,0,0
virtual_4635390_276,Jalan H. Ibrahim Adjie,-6.9143982,107.6437952,0,0
virtual_4635390_277,Jalan H. Ibrahim Adjie,-6.9146708,107.6438226,0,0
virtual_4635390_278,Jalan H. Ibrahim Adjie,-6.9147294,107.6438437,0,0
virtual_4635390_279,Jalan H. Ibrahim Adjie,-6.914798,107.6438723,0,0
virtual_4635390_280,Jalan H. Ibrahim Adjie,-6.9148336,107.6438831,0,0
virtual_4635390_281,Jalan H. Ibrahim Adjie,-6.9150739,107.6439045,0,0
virtual_4635390_282,Jalan H. Ibrahim Adjie,-6.916433,107.6440253,0,0
virtual_4635390_283,Jalan H. Ibrahim Adjie,-6.9165764,107.6440375,0,0
virtual_4635390_284,Jalan H. Ibrahim Adjie,-6.9166642,107.6440449,0,0
virtual_4635390_285,Jalan H. Ibrahim Adjie,-6.9172833,107.6441162,0,0
virtual_4635390_286,Jalan H. Ibrahim Adjie,-6.9175403,107.644141,0,0
virtual_4635390_287,Jalan H. Ibrahim Adjie,-6.9176854,107.6441549,0,0
virtual_4635390_288,Jalan H. Ibrahim Adjie,-6.9182934,107.644212,0,0
virtual_4635390_289,Jalan H. Ibrahim Adjie,-6.9184491,107.6442283,0,0
virtual_4635390_290,Jalan H. Ibrahim Adjie,-6.9190528,107.6442687,0,0
virtual_4635390_291,Jalan H. Ibrahim Adjie,-6.9192677,107.6442705,0,0
virtual_4635390_292,Jalan H. Ibrahim Adjie,-6.9193256,107.6442746,0,0
virtual_4635390_293,Jalan H. Ibrahim Adjie,-6.9195309,107.6442841,0,0
virtual_4635390_294,Jalan H. Ibrahim Adjie,-6.9196178,107.6442909,0,0
virtual_4635390_295,Jalan H. Ibrahim Adjie,-6.919736,107.6443002,0,0
virtual_4635390_296,Jalan H. Ibrahim Adjie,-6.9199696,107.6443116,0,0
virtual_4635390_297,Jalan H. Ibrahim Adjie,-6.9207973,107.6443516,0,0
virtual_4635390_298,Jalan H. Ibrahim Adjie,-6.9217882,107.6443896,0,0
virtual_4635390_299,Jalan H. Ibrahim Adjie,-6.9218887,107.6443919,0,0
virtual_4635390_300,Jalan H. Ibrahim Adjie,-6.9219902,107.6443943,0,0
virtual_4635390_301,Jalan H. Ibrahim Adjie,-6.9221685,107.6444041,0,0
virtual_4635390_302,Jalan H. Ibrahim Adjie,-6.9223151,107.6444121,0,0
virtual_4635390_303,Jalan H. Ibrahim Adjie,-6.9226929,107.6444283,0,0
virtual_4635390_304,Jalan H. Ibrahim Adjie,-6.9228101,107.6444333,0,0
virtual_4635390_305,Jalan H. Ibrahim Adjie,-6.9236501,107.6444692,0,0
virtual_4635390_306,Jalan H. Ibrahim Adjie,-6.9237792,107.6444747,0,0
virtual_4635390_307,Jalan H. Ibrahim Adjie,-6.9238675,107.6444796,0,0
virtual_4635390_308,Jalan H. Ibrahim Adjie,-6.9240344,107.6444856,0,0
virtual_4635390_309,Jalan H. Ibrahim Adjie,-6.9241129,107.644489,0,0
virtual_4635390_310,Jalan H. Ibrahim Adjie,-6.9242146,107.6444939,0,0
virtual_4635390_311,Jalan H. Ibrahim Adjie,-6.9242712,107.6444957,0,0
virtual_4635390_312,Jalan H. Ibrahim Adjie,-6.9243167,107.6444977,0,0
virtual_4635390_313,Jalan H. Ibrahim Adjie,-6.9243614,107.6444992,0,0
virtual_4635390_314,Jalan H. Ibrahim Adjie,-6.9245514,107.6445077,0,0
virtual_4635390_315,Jalan H. Ibrahim Adjie,-6.9258791,107.6445444,0,0
virtual_4635390_316,Jalan H. Ibrahim Adjie,-6.9264733,107.6445485,0,0
virtual_4635390_317,Jalan H. Ibrahim Adjie,-6.92655,107.6445501,0,0
virtual_4635390_318,Jalan H. Ibrahim Adjie,-6.9267027,107.6445534,0,0
virtual_4635390_319,Jalan H. Ibrahim Adjie,-6.9269338,107.6445583,0,0
virtual_4635390_320,Jalan H. Ibrahim Adjie,-6.9269546,107.6445578,0,0
virtual_4635390_321,Jalan H. Ibrahim Adjie,-6.926968,107.6445567,0,0
virtual_4635390_322,Jalan H. Ibrahim Adjie,-6.9269854,107.6445547,0,0
virtual_4635390_323,Jalan H. Ibrahim Adjie,-6.9270467,107.6445424,0,0
virtual_4635390_324,Jalan H. Ibrahim Adjie,-6.9272363,107.6444912,0,0
virtual_4635390_325,Jalan H. Ibrahim Adjie,-6.9274017,107.6444424,0,0
virtual_4635390_326,Jalan H. Ibrahim Adjie,-6.9274506,107.6444279,0,0
virtual_4635390_327,Jalan H. Ibrahim Adjie,-6.9275396,107.6444128,0,0
virtual_4635390_328,Jalan H. Ibrahim Adjie,-6.9275926,107.6444038,0,0
virtual_4635390_329,Jalan H. Ibrahim Adjie,-6.927627,107.644402,0,0
virtual_4635390_330,Jalan H. Ibrahim Adjie,-6.9280916,107.6443783,0,0
virtual_4635390_331,Jalan H. Ibrahim Adjie,-6.9282935,107.64437,0,0
virtual_4635390_332,Jalan H. Ibrahim Adjie,-6.9285036,107.6443634,0,0
virtual_4635390_333,Jalan H. Ibrahim Adjie,-6.928643,107.6443474,0,0
virtual_4635390_334,Jalan H. Ibrahim Adjie,-6.9286861,107.6443394,0,0
virtual_4635390_335,Jalan H. Ibrahim Adjie,-6.9287433,107.6443233,0,0
virtual_4635390_336,Jalan H. Ibrahim Adjie,-6.9288498,107.6442857,0,0
virtual_4635390_337,Jalan H. Ibrahim Adjie,-6.9289634,107.6442384,0,0
virtual_4635390_338,Jalan H. Ibrahim Adjie,-6.9290624,107.6441972,0,0
virtual_4635390_339,Jalan H. Ibrahim Adjie,-6.9291707,107.6441596,0,0
virtual_4635390_340,Jalan H. Ibrahim Adjie,-6.9293169,107.6441188,0,0
virtual_4635390_341,Jalan H. Ibrahim Adjie,-6.9296313,107.6440799,0,0
virtual_4635390_342,Jalan H. Ibrahim Adjie,-6.929751,107.6440629,0,0
virtual_4635390_343,Jalan H. Ibrahim Adjie,-6.9298343,107.6440564,0,0
virtual_4635390_344,Jalan H. Ibrahim Adjie,-6.9299221,107.6440268,0,0
virtual_4635390_345,Jalan H. Ibrahim Adjie,-6.9308335,107.6439351,0,0
virtual_4635390_346,Jalan H. Ibrahim Adjie,-6.930956,107.6438941,0,0
virtual_4635390_347,Jalan H. Ibrahim Adjie,-6.9310003,107.6438759,0,0
virtual_4635390_348,Jalan H. Ibrahim Adjie,-6.9310446,107.6438506,0,0
virtual_4635390_349,Jalan H. Ibrahim Adjie,-6.9317493,107.6432353,0,0
virtual_4635390_350,Jalan H. Ibrahim Adjie,-6.9317921,107.6432062,0,0
virtual_4635390_351,Jalan H. Ibrahim Adjie,-6.9318739,107.6431867,0,0
virtual_4635390_352,Jalan H. Ibrahim Adjie,-6.9319855,107.6431681,0,0
virtual_4635390_353,Jalan H. Ibrahim Adjie,-6.9323147,107.6431128,0,0
virtual_4635390_354,Jalan H. Ibrahim Adjie,-6.9328854,107.643017,0,0
virtual_4635390_355,Jalan H. Ibrahim Adjie,-6.9330022,107.6429952,0,0
virtual_4635390_356,Jalan H. Ibrahim Adjie,-6.9333619,107.642925,0,0
virtual_4635390_357,Jalan H. Ibrahim Adjie,-6.9333993,107.642917,0,0
virtual_4635390_358,Jalan H. Ibrahim Adjie,-6.9339301,107.6428038,0,0
virtual_4635390_359,Jalan H. Ibrahim Adjie,-6.9341002,107.642777,0,0
virtual_4635390_360,Jalan H. Ibrahim Adjie,-6.9344704,107.6427137,0,0
virtual_4635390_361,Jalan H. Ibrahim Adjie,-6.9345445,107.6427025,0,0
virtual_4635390_362,Jalan H. Ibrahim Adjie,-6.9347772,107.642669,0,0
virtual_4635390_363,Jalan H. Ibrahim Adjie,-6.9348787,107.6426593,0,0
virtual_4635390_364,Jalan H. Ibrahim Adjie,-6.9352851,107.6426205,0,0
virtual_4635390_365,Jalan H. Ibrahim Adjie,-6.9357551,107.6425875,0,0
virtual_4635390_366,Jalan H. Ibrahim Adjie,-6.9361925,107.6425567,0,0
virtual_4635390_367,Jalan H. Ibrahim Adjie,-6.9366887,107.6425277,0,0
virtual_4635390_368,Jalan H. Ibrahim Adjie,-6.9367591,107.6425236,0,0
virtual_4635390_369,Jalan H. Ibrahim Adjie,-6.937068,107.6425031,0,0
virtual_4635390_370,Jalan H. Ibrahim Adjie,-6.9371984,107.6424944,0,0
virtual_4635390_371,Jalan H. Ibrahim Adjie,-6.9376027,107.6424637,0,0
virtual_4635390_372,Jalan H. Ibrahim Adjie,-6.9380472,107.6424362,0,0
virtual_4635390_373,Jalan H. Ibrahim Adjie,-6.9384219,107.642413,0,0
virtual_4635390_374,Jalan terdekat,-6.9384148,107.6422737,0,0
virtual_4635390_375,Jalan H. Ibrahim Adjie,-6.9383619,107.6422771,0,0
virtual_4635390_376,Jalan H. Ibrahim Adjie,-6.938309,107.6422805,0,0
virtual_4635390_377,Jalan H. Ibrahim Adjie,-6.9378452,107.6423103,0,0
virtual_4635390_378,Jalan H. Ibrahim Adjie,-6.9375325,107.6423303,0,0
virtual_4635390_379,Jalan H. Ibrahim Adjie,-6.9371895,107.6423524,0,0
virtual_4635390_380,Jalan H. Ibrahim Adjie,-6.9370607,107.6423606,0,0
virtual_4635390_381,Jalan H. Ibrahim Adjie,-6.9366422,107.6423875,0,0
virtual_4635390_382,Jalan H. Ibrahim Adjie,-6.9362218,107.6424206,0,0
virtual_4635390_383,Jalan H. Ibrahim Adjie,-6.9354704,107.642469,0,0
virtual_4635390_384,Jalan H. Ibrahim Adjie,-6.9353265,107.6424796,0,0
virtual_4635390_385,Jalan H. Ibrahim Adjie,-6.9351047,107.6424964,0,0
virtual_4635390_386,Jalan H. Ibrahim Adjie,-6.9348226,107.6425262,0,0
virtual_4635390_387,Jalan H. Ibrahim Adjie,-6.9347467,107.6425372,0,0
virtual_4635390_388,Jalan H. Ibrahim Adjie,-6.9344518,107.6425801,0,0
virtual_4635390_389,Jalan H. Ibrahim Adjie,-6.934114,107.6426419,0,0
virtual_4635390_390,Jalan H. Ibrahim Adjie,-6.9338245,107.6427034,0,0
virtual_4635390_391,Jalan H. Ibrahim Adjie,-6.9336408,107.6427458,0,0
virtual_4635390_392,Jalan H. Ibrahim Adjie,-6.9333527,107.6428114,0,0
virtual_4635390_393,Jalan H. Ibrahim Adjie,-6.9332036,107.6428453,0,0
virtual_4635390_394,Jalan H. Ibrahim Adjie,-6.9327429,107.6429329,0,0
virtual_4635390_395,Jalan H. Ibrahim Adjie,-6.9319479,107.6430775,0,0
virtual_4635390_396,Jalan Jenderal Gatot Subroto,-6.9318688,107.6430693,0,0
virtual_4635390_397,Jalan Jenderal Gatot Subroto,-6.9317959,107.6430376,0,0
virtual_4635390_398,Jalan Jenderal Gatot Subroto,-6.9317358,107.6429853,0,0
virtual_4635390_399,Jalan Jenderal Gatot Subroto,-6.9316942,107.6429171,0,0
virtual_4635390_400,Jalan Jenderal Gatot Subroto,-6.9315043,107.6424224,0,0
virtual_4635390_401,Jalan Jenderal Gatot Subroto,-6.9314016,107.6421481,0,0
virtual_4635390_402,Jalan Jenderal Gatot Subroto,-6.9313798,107.6421162,0,0
virtual_4635390_403,Jalan Jenderal Gatot Subroto,-6.9311304,107.6414267,0,0
virtual_4635390_404,Jalan Jenderal Gatot Subroto,-6.9313006,107.6418972,0,0
virtual_4635390_405,Jalan Jenderal Gatot Subroto,-6.9311365,107.6414092,0,0
virtual_4635390_406,Jalan Jenderal Gatot Subroto,-6.9311363,107.641402,0,0
virtual_4635390_407,Jalan Jenderal Gatot Subroto,-6.931019,107.6411045,0,0
virtual_4635390_408,Jalan Jenderal Gatot Subroto,-6.9310135,107.6410919,0,0
virtual_4635390_409,Jalan Jenderal Gatot Subroto,-6.9309989,107.6410724,0,0
virtual_4635390_410,Jalan Jenderal Gatot Subroto,-6.9307832,107.6405374,0,0
virtual_4635390_411,Jalan Jenderal Gatot Subroto,-6.9307935,107.6405609,0,0
virtual_4635390_412,Jalan Jenderal Gatot Subroto,-6.9307319,107.6404257,0,0
virtual_4635390_413,Jalan Jenderal Gatot Subroto,-6.9299564,107.6393128,0,0
virtual_4635390_414,Jalan Jenderal Gatot Subroto,-6.9302614,107.6396736,0,0
virtual_4635390_415,Jalan Jenderal Gatot Subroto,-6.9303695,107.6398164,0,0
virtual_4635390_416,Jalan Jenderal Gatot Subroto,-6.9304643,107.6399577,0,0
virtual_4635390_417,Jalan Jenderal Gatot Subroto,-6.9306103,107.6402197,0,0
virtual_4635390_418,Jalan Jenderal Gatot Subroto,-6.9307025,107.6403778,0,0
virtual_4635390_419,Jalan Jenderal Gatot Subroto,-6.9298549,107.6392101,0,0
virtual_4635390_420,Jalan Jenderal Gatot Subroto,-6.9297496,107.6391119,0,0
virtual_4635390_421,Jalan Jenderal Gatot Subroto,-6.9279605,107.6365849,0,0
virtual_4635390_422,Jalan Jenderal Gatot Subroto,-6.9279995,107.6366627,0,0
virtual_4635390_423,Jalan Jenderal Gatot Subroto,-6.9280117,107.6366893,0,0
virtual_4635390_424,Jalan Jenderal Gatot Subroto,-6.9280668,107.6367954,0,0
virtual_4635390_425,Jalan Jenderal Gatot Subroto,-6.9281952,107.6370469,0,0
virtual_4635390_426,Jalan Jenderal Gatot Subroto,-6.9283272,107.6373057,0,0
virtual_4635390_427,Jalan Jenderal Gatot Subroto,-6.9283966,107.6374286,0,0
virtual_4635390_428,Jalan Jenderal Gatot Subroto,-6.928582,107.6377538,0,0
virtual_4635390_429,Jalan Jenderal Gatot Subroto,-6.92873,107.6380006,0,0
virtual_4635390_430,Jalan Jenderal Gatot Subroto,-6.9289281,107.6382687,0,0
virtual_4635390_431,Jalan Jenderal Gatot Subroto,-6.9290817,107.6384491,0,0
virtual_4635390_432,Jalan Jenderal Gatot Subroto,-6.9293013,107.6386831,0,0
virtual_4635390_433,Jalan Jenderal Gatot Subroto,-6.9295348,107.6389116,0,0
virtual_4635390_434,Jalan Jenderal Gatot Subroto,-6.927917,107.6364027,0,0
virtual_4635390_435,Jalan Jenderal Gatot Subroto,-6.927677,107.6359386,0,0
virtual_4635390_436,Jalan Turangga,-6.9321273,107.6348375,0,0
virtual_4635390_437,Jalan Turangga,-6.9317815,107.6349255,0,0
virtual_4635390_438,Jalan Turangga,-6.9316172,107.6349674,0,0
virtual_4635390_439,Jalan Turangga,-6.931512,107.6349942,0,0
virtual_4635390_440,Jalan Turangga,-6.9311451,107.6350876,0,0
virtual_4635390_441,Jalan Turangga,-6.9310901,107.6351016,0,0
virtual_4635390_442,Jalan Turangga,-6.9308231,107.6351695,0,0
virtual_4635390_443,Jalan Turangga,-6.9305963,107.6352272,0,0
virtual_4635390_444,Jalan Turangga,-6.9305698,107.635234,0,0
virtual_4635390_445,Jalan Turangga,-6.9305405,107.6352415,0,0
virtual_4635390_446,Jalan Turangga,-6.9302325,107.6353197,0,0
virtual_4635390_447,Jalan Turangga,-6.9301577,107.6353388,0,0
virtual_4635390_448,Jalan Turangga,-6.9300184,107.6353744,0,0
virtual_4635390_449,Jalan Turangga,-6.929689,107.6354593,0,0
virtual_4635390_450,Jalan Turangga,-6.9296253,107.6354745,0,0
virtual_4635390_451,Jalan Turangga,-6.9294539,107.635519,0,0
virtual_4635390_452,Jalan Turangga,-6.9294019,107.6355325,0,0
virtual_4635390_453,Jalan Turangga,-6.929246,107.6355731,0,0
virtual_4635390_454,Jalan Turangga,-6.9291606,107.6355928,0,0
virtual_4635390_455,Jalan Turangga,-6.9290697,107.6356173,0,0
virtual_4635390_456,Jalan Turangga,-6.928504,107.6357445,0,0
virtual_4635390_457,Jalan Turangga,-6.928187,107.6358171,0,0
virtual_4635390_458,Jalan Turangga,-6.9343972,107.6338825,0,0
virtual_4635390_459,Jalan Turangga,-6.9342955,107.6339321,0,0
virtual_4635390_460,Jalan Turangga,-6.9342632,107.6339467,0,0
virtual_4635390_461,Jalan Turangga,-6.9339893,107.6340607,0,0
virtual_4635390_462,Jalan Turangga,-6.9338668,107.6341116,0,0
virtual_4635390_463,Jalan Turangga,-6.9335453,107.6342951,0,0
virtual_4635390_464,Jalan Turangga,-6.9331037,107.6345471,0,0
virtual_4635390_465,Jalan Turangga,-6.9330405,107.6345832,0,0
virtual_4635390_466,Jalan Turangga,-6.9328452,107.6346599,0,0
virtual_4635390_467,Jalan Turangga,-6.9326057,107.6347185,0,0
virtual_4635390_468,Jalan Raden Adipati Aria Martanegara,-6.9343049,107.632568,0,0
virtual_4635390_469,Jalan Raden Adipati Aria Martanegara,-6.9342443,107.6326798,0,0
virtual_4635390_470,Jalan Raden Adipati Aria Martanegara,-6.934385,107.6337971,0,0
virtual_4635390_471,Jalan Raden Adipati Aria Martanegara,-6.9330478,107.6272027,0,0
virtual_4635390_472,Jalan Raden Adipati Aria Martanegara,-6.9331834,107.6277229,0,0
virtual_4635390_473,Jalan Raden Adipati Aria Martanegara,-6.9332148,107.6278437,0,0
virtual_4635390_474,Jalan Raden Adipati Aria Martanegara,-6.9333101,107.6282092,0,0
virtual_4635390_475,Jalan Raden Adipati Aria Martanegara,-6.9335308,107.6290522,0,0
virtual_4635390_476,Jalan Raden Adipati Aria Martanegara,-6.9335803,107.6292681,0,0
virtual_4635390_477,Jalan Raden Adipati Aria Martanegara,-6.9336931,107.6297626,0,0
virtual_4635390_478,Jalan Raden Adipati Aria Martanegara,-6.9338832,107.6306127,0,0
virtual_4635390_479,Jalan Raden Adipati Aria Martanegara,-6.9339821,107.6310515,0,0
virtual_4635390_480,Jalan Raden Adipati Aria Martanegara,-6.9340498,107.6313521,0,0
virtual_4635390_481,Jalan Raden Adipati Aria Martanegara,-6.9340689,107.6314371,0,0
virtual_4635390_482,Jalan Raden Adipati Aria Martanegara,-6.9342353,107.6321764,0,0
virtual_4635390_483,Jalan Raden Adipati Aria Martanegara,-6.9327672,107.6262119,0,0
virtual_4635390_484,Jalan Raden Adipati Aria Martanegara,-6.9328065,107.6263377,0,0
virtual_4635390_485,Jalan Raden Adipati Aria Martanegara,-6.9328264,107.6264074,0,0
virtual_4635390_486,Jalan Raden Adipati Aria Martanegara,-6.9329183,107.6267581,0,0
virtual_4635390_487,Jalan Raden Adipati Aria Martanegara,-6.9327273,107.6259726,0,0
virtual_4635390_488,Jalan Raden Adipati Aria Martanegara,-6.93268,107.6258219,0,0
virtual_4635390_489,Jalan Raden Adipati Aria Martanegara,-6.9326505,107.6257777,0,0
virtual_4635390_490,Jalan Raden Adipati Aria Martanegara,-6.9326113,107.625745,0,0
virtual_4635390_491,Jalan Raden Adipati Aria Martanegara,-6.9325087,107.6256715,0,0
virtual_4635390_492,Jalan Lodaya,-6.9324624,107.6256353,0,0
virtual_4635390_493,Jalan Lodaya,-6.9324167,107.6255977,0,0
virtual_4635390_494,Jalan Lodaya,-6.9323768,107.6255464,0,0
virtual_4635390_495,Jalan Lodaya,-6.932288,107.625349,0,0
virtual_4635390_496,Jalan Lodaya,-6.9322663,107.6253065,0,0
virtual_4635390_497,Jalan Lodaya,-6.9322109,107.6252506,0,0
virtual_4635390_498,Jalan Lodaya,-6.9309756,107.622434,0,0
virtual_4635390_499,Jalan Lodaya,-6.931064,107.6226407,0,0
virtual_4635390_500,Jalan Lodaya,-6.9311066,107.6227405,0,0
virtual_4635390_501,Jalan Lodaya,-6.9311882,107.6229314,0,0
virtual_4635390_502,Jalan Lodaya,-6.9313797,107.6233795,0,0
virtual_4635390_503,Jalan Lodaya,-6.9314076,107.6234448,0,0
virtual_4635390_504,Jalan Lodaya,-6.9316887,107.6241025,0,0
virtual_4635390_505,Jalan Lodaya,-6.9318062,107.6243775,0,0
virtual_4635390_506,Jalan Lodaya,-6.9318518,107.6244842,0,0
virtual_4635390_507,Jalan Lodaya,-6.9320775,107.6249815,0,0
virtual_4635390_508,Jalan Lodaya,-6.9320993,107.625024,0,0
virtual_4635390_509,Jalan Lodaya,-6.9321877,107.6252034,0,0
virtual_4635390_510,Jalan Palasari,-6.9311705,107.6223798,0,0
virtual_4635390_511,Jalan Palasari,-6.9314875,107.6222917,0,0
virtual_4635390_512,Jalan Palasari,-6.9318636,107.6221815,0,0
virtual_4635390_513,Jalan Palasari,-6.9323308,107.6220445,0,0
virtual_4635390_514,Jalan Palasari,-6.9328188,107.6219116,0,0
virtual_4635390_515,Jalan Kyai Haji Ahmad Dahlan,-6.9328922,107.6220155,0,0
virtual_4635390_516,Jalan Gajah,-6.9330399,107.621867,0,0
virtual_4635390_517,Jalan Gajah,-6.9330545,107.6218522,0,0
virtual_4635390_518,Jalan Gajah,-6.9337683,107.6211343,0,0
virtual_4635390_519,Jalan Gajah,-6.9342423,107.6206148,0,0
virtual_4635390_520,Jalan Gajah,-6.9344451,107.6203926,0,0
virtual_4635390_521,Jalan Gajah,-6.9344713,107.6203639,0,0
virtual_4635390_522,Jalan Buah Batu,-6.9335548,107.6194953,0,0
virtual_4635390_523,Jalan Buah Batu,-6.9332024,107.6191727,0,0
virtual_4635390_524,Jalan Buah Batu,-6.9327149,107.6187265,0,0
virtual_4635390_525,Jalan Buah Batu,-6.9323042,107.6183506,0,0
virtual_4635390_526,Jalan Buah Batu,-6.9320136,107.6180578,0,0
virtual_4635390_527,Jalan Sadakeling,-6.9319531,107.6179937,0,0
virtual_4635390_528,Jalan Sadakeling,-6.9318561,107.6178994,0,0
virtual_4635390_529,Jalan Sadakeling,-6.9317529,107.6177935,0,0
virtual_4635390_530,Jalan Sadakeling,-6.9315347,107.6175412,0,0
virtual_4635390_531,Jalan Gurame,-6.9315204,107.6174985,0,0
virtual_4635390_532,Jalan Gurame,-6.9314981,107.6173962,0,0
virtual_4635390_533,Jalan Gurame,-6.9315064,107.6165751,0,0
virtual_4635390_534,Jalan Gurame,-6.9315293,107.616224,0,0
virtual_4635390_535,Jalan Gurame,-6.9315603,107.6158997,0,0
virtual_4635390_536,Jalan Mochammad Ramdhan,-6.9316439,107.6156957,0,0
virtual_4635390_537,Jalan Mochammad Ramdhan,-6.9317325,107.6155918,0,0
virtual_4635390_538,Jalan Mochammad Ramdhan,-6.9319192,107.6154429,0,0
virtual_4635390_539,Jalan Mochammad Ramdhan,-6.9321366,107.6152764,0,0
virtual_4635390_540,Jalan Mochammad Ramdhan,-6.9323607,107.6151014,0,0
virtual_4635390_541,Jalan Mochammad Ramdhan,-6.9325117,107.6149436,0,0
virtual_4635390_542,Jalan Mochammad Ramdhan,-6.9325381,107.6149112,0,0
virtual_4635390_543,Jalan Mochammad Ramdhan,-6.9345354,107.613029,0,0
virtual_4635390_544,Jalan Mochammad Ramdhan,-6.9337409,107.6138283,0,0
virtual_4635390_545,Jalan Mochammad Ramdhan,-6.9334648,107.6140869,0,0
virtual_4635390_546,Jalan Mochammad Ramdhan,-6.9334348,107.6141189,0,0
virtual_4635390_547,Jalan Mochammad Ramdhan,-6.9330701,107.6144435,0,0
virtual_4635390_548,Jalan Mochammad Ramdhan,-6.933004,107.6145008,0,0
virtual_4635390_549,Jalan Mochammad Ramdhan,-6.9371008,107.6098898,0,0
virtual_4635390_550,Jalan Mochammad Ramdhan,-6.9366557,107.6105128,0,0
virtual_4635390_551,Jalan Mochammad Ramdhan,-6.9365806,107.6106178,0,0
virtual_4635390_552,Jalan Mochammad Ramdhan,-6.9365083,107.6107189,0,0
virtual_4635390_553,Jalan Mochammad Ramdhan,-6.9359826,107.611406,0,0
virtual_4635390_554,Jalan Mochammad Ramdhan,-6.9358756,107.6115373,0,0
virtual_4635390_555,Jalan Mochammad Ramdhan,-6.9355068,107.6119898,0,0
virtual_4635390_556,Jalan Mochammad Ramdhan,-6.9351648,107.6123682,0,0
virtual_4635390_557,Jalan Mochammad Ramdhan,-6.9348062,107.6127563,0,0
virtual_4635390_558,Jalan Mochammad Ramdhan,-6.9372179,107.6096949,0,0
virtual_4635390_559,Jalan Mochammad Ramdhan,-6.9371763,107.6097668,0,0
virtual_4635390_560,Jalan Mochammad Ramdhan,-6.9373029,107.6096179,0,0
virtual_4635390_561,Jalan Mochammad Ramdhan,-6.9373552,107.6095438,0,0
virtual_4635390_562,Jalan Mochammad Ramdhan,-6.9375513,107.6092721,0,0
virtual_4635390_563,Jalan Mochammad Ramdhan,-6.9375678,107.6092493,0,0
virtual_4635390_564,Jalan Mochammad Ramdhan,-6.9376215,107.6091826,0,0
virtual_4635390_565,Jalan Mochammad Ramdhan,-6.9377062,107.6091524,0,0
virtual_4635390_566,Jalan BKR,-6.9377023,107.6090371,0,0
virtual_4635390_567,Jalan BKR,-6.9377027,107.6089837,0,0
virtual_4635390_568,Jalan BKR,-6.9376992,107.6088735,0,0
virtual_4635390_569,Jalan BKR,-6.9376849,107.6084233,0,0
virtual_4635390_570,Jalan BKR,-6.937676,107.6081426,0,0
virtual_4635390_571,Jalan BKR,-6.9376551,107.6074822,0,0
virtual_4635390_572,Jalan BKR,-6.9376327,107.6067777,0,0
virtual_4635390_573,Jalan BKR,-6.9376269,107.6064422,0,0
virtual_4635390_574,Jalan BKR,-6.9376239,107.6063387,0,0
virtual_4635390_575,Jalan BKR,-6.937624,107.6063106,0,0
virtual_4635390_576,Jalan BKR,-6.9376212,107.606228,0,0
virtual_4635390_577,Jalan BKR,-6.9376173,107.6061633,0,0
virtual_4635390_578,Jalan Mohammad Toha,-6.9375296,107.6061721,0,0
virtual_4635390_579,Jalan Mohammad Toha,-6.9374395,107.6061838,0,0
virtual_4635390_580,Jalan Mohammad Toha,-6.9373823,107.6061929,0,0
virtual_4635390_581,Jalan Mohammad Toha,-6.9372527,107.6062104,0,0
virtual_4635390_582,Jalan Mohammad Toha,-6.9369656,107.6062336,0,0
virtual_4635390_583,Jalan Mohammad Toha,-6.9369386,107.6062386,0,0
virtual_4635390_584,Jalan Mohammad Toha,-6.9369183,107.6062529,0,0
virtual_4635390_585,Jalan Mohammad Toha,-6.9368241,107.6062604,0,0
virtual_4635390_586,Jalan Mohammad Toha,-6.9365596,107.6062815,0,0
virtual_4635390_587,Jalan Mohammad Toha,-6.9364942,107.6062864,0,0
virtual_4635390_588,Jalan Mohammad Toha,-6.936362,107.6062951,0,0
virtual_4635390_589,Jalan Mohammad Toha,-6.9362741,107.6063018,0,0
virtual_4635390_590,Jalan Mohammad Toha,-6.9360167,107.6063213,0,0
virtual_4635390_591,Jalan Mohammad Toha,-6.9346941,107.6064216,0,0
virtual_4635390_592,Jalan Mohammad Toha,-6.9345209,107.6064347,0,0
virtual_4635390_593,Jalan Mohammad Toha,-6.934149,107.6064644,0,0
virtual_4635390_594,Jalan Mohammad Toha,-6.9339369,107.6064804,0,0
virtual_4635390_595,Jalan Mohammad Toha,-6.9332778,107.6065192,0,0
virtual_4635390_596,Jalan Mohammad Toha,-6.9332521,107.6065207,0,0
virtual_4635390_597,Jalan Mohammad Toha,-6.9330001,107.6065399,0,0
virtual_4635390_598,Jalan Mohammad Toha,-6.9327947,107.6065556,0,0
virtual_4635390_599,Jalan Mohammad Toha,-6.9318519,107.6066275,0,0
virtual_4635390_600,Jalan Ibu Inggit Ganarsih,-6.9316877,107.6054273,0,0
virtual_4635390_601,Jalan Ibu Inggit Ganarsih,-6.9317677,107.6059933,0,0
virtual_4635390_602,Jalan Ibu Inggit Ganarsih,-6.931773,107.6060299,0,0
virtual_4635390_603,Jalan Ibu Inggit Ganarsih,-6.931835,107.6064553,0,0
virtual_4635390_604,Jalan Dewi Sartika,-6.9311384,107.6055016,0,0
virtual_4635390_605,Jalan Dewi Sartika,-6.9309578,107.6055192,0,0
virtual_4635390_606,Jalan Dewi Sartika,-6.9309078,107.6055259,0,0
virtual_4635390_607,Jalan Dewi Sartika,-6.9305299,107.605557,0,0
virtual_4635390_608,Jalan Dewi Sartika,-6.9305004,107.6055585,0,0
virtual_4635390_609,Jalan Dewi Sartika,-6.930239,107.6055781,0,0
virtual_4635390_610,Jalan Dewi Sartika,-6.9300028,107.6055888,0,0
virtual_4635390_611,Jalan Dewi Sartika,-6.9298025,107.6055993,0,0
virtual_4635390_612,Jalan Dewi Sartika,-6.9290349,107.605655,0,0
virtual_4635390_613,Jalan Dewi Sartika,-6.9286757,107.6056868,0,0
virtual_4635390_614,Jalan Dewi Sartika,-6.9281145,107.6057712,0,0
virtual_4635390_615,Jalan Dewi Sartika,-6.9280104,107.6057772,0,0
virtual_4635390_616,Jalan Dewi Sartika,-6.9278423,107.6057934,0,0
virtual_4635390_617,Jalan Dewi Sartika,-6.9276265,107.6058121,0,0
