stop_id,stop_name,stop_lat,stop_lon,location_type,wheelchair_boarding
10314211362,Padalarang,-6.8434759,107.4978557,0,0
7835804492,Gadobangkong,-6.8653045,107.5154562,0,0
3370786092,Cimahi,-6.8865383,107.5366775,0,0
3370786794,Cimindi,-6.8965475,107.5617886,0,0
3370786798,Ciroyom,-6.9140765,107.5913716,0,0
10312881283,Bandung,-6.9145291,107.6031495,0,0
1228645053,Cikudapateuh,-6.9190287,107.6268971,0,0
11549081619,Kiaracondong,-6.9254604,107.6474712,0,0
11549081662,Gedebage,-6.9411554,107.6905412,0,0
10694286157,Cimekar,-6.9492676,107.7129671,0,0
10693253652,Rancaekek,-6.9651313,107.7564447,0,0
10693478235,Haurpugur,-6.9808307,107.7998788,0,0
11407574339,Cicalengka,-6.9821908,107.8330738,0,0
11407574341,Cicalengka,-6.981035,107.8320912,0,0
6872615131,Haurpugur,-6.9802356,107.7983447,0,0
10693253653,Rancaekek,-6.9646056,107.7553737,0,0
10694286156,Cimekar,-6.9486453,107.7113976,0,0
11549081663,Gedebage,-6.940438,107.6888097,0,0
11549081621,Kiaracondong,-6.9247723,107.6456051,0,0
7835805289,Cikudapateuh,-6.9185947,107.625378,0,0
10694245344,Bandung,-6.9144562,107.6013653,0,0
10693460291,Ciroyom,-6.9139018,107.5896798,0,0
291546102,Cimindi,-6.8956811,107.5606244,0,0
11546259370,Cimahi,-6.8849429,107.5353528,0,0
3468494606,Gadobangkong,-6.8637207,107.514805,0,0
10693460257,Padalarang,-6.8424481,107.4968441,0,0
10693460258,Padalarang,-6.8424956,107.4968046,0,0
11755899803,Cicalengka,-6.980985,107.8321466,0,0
1227216840,Padalarang,-6.8423863,107.4969052,0,0
11432455980,Cilame,-6.8032048,107.4629178,0,0
10694595318,Sasaksaat,-6.7790843,107.4314942,0,0
3352316735,Maswati,-6.7608275,107.4080713,0,0
10694595366,Rendeh,-6.7359973,107.3978666,0,0
10314211393,Cikadongdong,-6.7151762,107.3903795,0,0
10314211390,Plered,-6.6402782,107.3913512,0,0
10698993414,Sukatani,-6.6105348,107.4086071,0,0
10698966829,Ciganea,-6.5737471,107.4309483,0,0
10698921283,Purwakarta,-6.5525636,107.4464512,0,0
12063631330,Purwakarta,-6.553856,107.447082,0,0
10698966828,Ciganea,-6.5729485,107.4301051,0,0
10694595400,Sukatani,-6.6111493,107.4083066,0,0
10314211391,Plered,-6.6416537,107.3912649,0,0
10314211392,Cikadongdong,-6.715896,107.3913369,0,0
3448590009,Rendeh,-6.7365152,107.3993095,0,0
10694595345,Maswati,-6.760778,107.4093454,0,0
10694595317,Sasaksaat,-6.78052,107.4321188,0,0
11432455981,Cilame,-6.8036184,107.4645349,0,0
10314211366,Padalarang,-6.8435633,107.4980668,0,0
11874360196,Cicalengka,-6.9821038,107.8331166,0,0
9961298138,Nagreg,-7.0187312,107.8872319,0,0
535300018,Leles,-7.0849971,107.8998538,0,0
7206399183,Karangsari,-7.0988099,107.931297,0,0
10694286200,Leuwigoong,-7.1028395,107.9587146,0,0
10314211373,Cibatu,-7.0997162,107.9803328,0,0
9961235587,Pasirjengkol,-7.1291772,107.9922967,0,0
9961258726,Wanaraja,-7.1658406,107.9762771,0,0
10694286203,Garut,-7.2134006,107.9023164,0,0
11871903351,Garut,-7.2134704,107.905318,0,0
9961258724,Wanaraja,-7.1640756,107.9770777,0,0
10694286202,Pasirjengkol,-7.1273374,107.9925883,0,0
7205156020,Cibatu,-7.1002693,107.9787295,0,0
10694286201,Leuwigoong,-7.1038719,107.9575344,0,0
7206401686,Karangsari,-7.0974245,107.9308109,0,0
9961298076,Leles,-7.0838873,107.8997164,0,0
11874360195,Nagreg,-7.0178472,107.8854353,0,0
3277886379,Terminal Leuwipanjang,-6.9458452,107.5932425,0,0
12626357384,Hotel Grand Pasundan,-6.9360768,107.5934112,0,0
12626357385,Bumi Kopo Kencana,-6.933574,107.5905268,0,0
12626357386,Festival Citylink,-6.9291184,107.5872624,0,0
12626357387,Simpang Pasir Koja,-6.9270511,107.5849563,0,0
12626357388,SPBU Pasir Koja,-6.9292122,107.5793217,0,0
12626357389,Hotel Soreang A,-7.0141236,107.5309483,0,0
12626357390,Mall Pelayanan Publik,-7.0206847,107.5292319,0,0
12626357392,Plaza Pemkab Bandung,-7.0234041,107.5303409,0,0
12626357393,Simpang Desa Soreang,-7.0287904,107.5287745,0,0
12626357394,Pasar Ikan Modern,-7.0305108,107.5412986,0,0
12626357395,RSUD Otto Iskandar Dinata,-7.0273253,107.5425246,0,0
12626357396,Samsat Soreang,-7.0218422,107.5416105,0,0
12626357397,Geo Dipa Energi,-7.0154748,107.5363125,0,0
12626357383,Hotel Soreang B,-7.0141857,107.530779,0,0
12626357398,Sumber Sari Junction,-6.9323901,107.576671,0,0
12626357399,Pasar Induk Caringin,-6.9419015,107.5831212,0,0
11295303565,Leuwipanjang Soekarno Hatta,-6.9468277,107.5934341,0,0
11955383183,IKEA Kota Baru Parahyangan,-6.8663512,107.4668097,0,0
12143596539,Wahoo Waterworld,-6.8655811,107.4654195,0,0
11955383184,Parahyangan Timur,-6.8663744,107.4712124,0,0
11955383185,Rumah Sakit Cahaya Kawaluyaan,-6.8665328,107.4734039,0,0
11955383187,Masjid Al Irsyad,-6.8648529,107.4783521,0,0
11955383188,Tatar Wangsakerta A,-6.8619949,107.4805786,0,0
11955383190,Bale Pare A,-6.8568342,107.4897438,0,0
11536873492,Stasiun Kereta Cepat Padalarang,-6.8428228,107.4966418,0,0
11953710372,STEI LPPM A,-6.8573652,107.4986651,0,0
5287090695,RS Karisma Cimareme A,-6.8629469,107.5028237,0,0
5348536065,RS IMC A,-6.8633262,107.5098225,0,0
9908476904,Masjid Ar Ridwan A,-6.8675906,107.5190095,0,0
11954137035,Padasuka Indah A,-6.8685422,107.5263898,0,0
11954137037,Ranca Belut A,-6.8688013,107.5319386,0,0
11954137039,PLN Cisangkan A,-6.8704221,107.5363908,0,0
10680256969,BRI Cimahi,-6.8748788,107.5442734,0,0
11954552709,RSUD Cibabat A,-6.8797123,107.5503819,0,0
11954552711,Dinas Sosial,-6.8859958,107.5542851,0,0
11954552713,Jalan Budi,-6.8921818,107.5580359,0,0
11954552722,SMAN 13 Bandung A,-6.9033346,107.5648032,0,0
11954552728,Paledang,-6.905851,107.5663258,0,0
11711326971,Rajawali Barat,-6.9109306,107.5701462,0,0
11711326972,Plaza Telkom Rajawali,-6.9129722,107.5753653,0,0
11735239264,Rajawali 1,-6.9137773,107.5781901,0,0
11735239266,Dunguscariang,-6.9149105,107.5828928,0,0
11735239268,SMA Trinitas,-6.9165436,107.5917121,0,0
11735248671,Rumah Sakit Kebon Jati,-6.9163694,107.5966005,0,0
11735248674,SMA Pasundan,-6.9162422,107.599627,0,0
11711326974,Perintis Kemerdekaan,-6.9140241,107.607935,0,0
1849525838,Lembong,-6.916445,107.609811,0,0
11711275743,Alun-Alun Bandung,-6.9211653,107.6071455,0,0
11711275750,KEB Hana Bank,-6.9205571,107.6020569,0,0
11711275748,GKI Anugerah,-6.9200243,107.597515,0,0
11711275755,Mayapada Tower,-6.9193345,107.591747,0,0
11711275757,Toko Ambon,-6.9186067,107.5855198,0,0
11711275763,Kemenag Kanwil Jabar,-6.9176018,107.5771136,0,0
2604179157,Optik Krida,-6.9155598,107.5720549,0,0
11711326969,Sudirman 3,-6.9115004,107.5696333,0,0
11954552729,Kebon Kopi,-6.9063062,107.5664877,0,0
11954552723,SMAN 13 Bandung B,-6.9033981,107.5647281,0,0
11954552712,Cilembar,-6.8923353,107.5579997,0,0
11954552710,RS Mitra Kasih,-6.8837408,107.5528472,0,0
10680256973,RSUD Cibabat B,-6.8796404,107.5503366,0,0
10680256972,SMPN 6 Cimahi,-6.8772766,107.5452289,0,0
10680256971,Gedung 4,-6.8799337,107.5417036,0,0
11954552707,Buana,-6.8759934,107.5406762,0,0
10680256963,PLN Cisangkan B,-6.8704594,107.5364884,0,0
10680256961,Ranca Belut B,-6.8687794,107.531878,0,0
10680256959,Padasuka Indah B,-6.8684195,107.5260715,0,0
11953710374,Masjid Ar Ridwan B,-6.8676288,107.5191264,0,0
10680256956,RS IMC B,-6.8634203,107.5100491,0,0
10680256954,RS Karisma Cimareme B,-6.8630015,107.502934,0,0
11953710371,STEI LPPM B,-6.8574856,107.4986734,0,0
10680256950,Bale Pare B,-6.8567205,107.4901266,0,0
11955383189,Tatar Wangsakerta B,-6.8612441,107.4815775,0,0
12143596541,Parahyangan Utara B,-6.865168,107.4782844,0,0
11955383186,Tatar Pitaloka (Parahyangan Selatan),-6.8665457,107.4738005,0,0
11871901023,Baleendah,-7.0067058,107.6261375,0,0
2477247661,Masjid Al-Amanah,-7.0059605,107.6287137,0,0
12626499677,Matahari Land,-7.0040341,107.6312603,0,0
12626499678,Masjid Jami' Baitul Huda A,-7.0002118,107.6318753,0,0
12626499680,Bubur Ayam H. Amid,-6.9946948,107.6308112,0,0
12626499683,Borma Bojongsoang,-6.984586,107.6330944,0,0
12626499685,SD Negeri Lengkong,-6.9763963,107.6352127,0,0
12626499686,Puskesmas Bojongsoang,-6.9676213,107.6374709,0,0
12626499690,Bluebird A,-6.9576866,107.639482,0,0
35138340,Pasar Kordon A,-6.9541863,107.638933,0,0
12626499693,JAPNAS,-6.9512022,107.6364761,0,0
2614138793,Medal Sekarwangi,-6.9484371,107.6323136,0,0
12626499697,Bangunan Mart A,-6.9494451,107.6281496,0,0
12626499700,LPKIA A,-6.9495008,107.6242225,0,0
3384018111,PT LEN Industri A,-6.9490929,107.6190348,0,0
12626529703,PLN UP3 Bandung A,-6.9485877,107.612094,0,0
11739021648,TK Kemala Bhayangkari,-6.9453744,107.608407,0,0
11707031622,Sekolah Ganesha,-6.9390693,107.6063015,0,0
5355897678,Taman Tegalega 3,-6.9365596,107.6062815,0,0
11883812981,SDN Moh. Toha,-6.9301452,107.6067877,0,0
12626529705,ITC Kebon Kalapa,-6.926739,107.6059915,0,0
11898859975,Grand Yogya Kepatihan,-6.9238597,107.606261,0,0
12626529706,Banceuy,-6.9187122,107.6066404,0,0
11262097619,Stasiun Timur,-6.9153572,107.604546,0,0
293384756,Stasiun Bandung,-6.9125954,107.6029303,0,0
11739021629,SMAN 6 Bandung,-6.9114098,107.5979188,0,0
11138593915,SDN Pajajaran,-6.906861,107.599992,0,0
11739021630,STHB (Sekolah Tinggi Hukum Bandung),-6.9064803,107.6044125,0,0
5825243776,Bandung Electronic Center,-6.9081456,107.6093744,0,0
3376669066,Museum Kota Bandung,-6.9101076,107.6097021,0,0
11739021637,Merdeka,-6.9125343,107.6104548,0,0
11739021639,Toko Mas ABC,-6.9230192,107.6039434,0,0
11739021641,Simpang Ijan,-6.9280445,107.6036329,0,0
11739021644,Taman Tegallega,-6.9339734,107.603223,0,0
11707031623,Muhammad Toha 1 (PT INTI A),-6.939027,107.6062885,0,0
11739021649,Madurasa Tengah,-6.945205,107.6083491,0,0
3272360374,PLN UP3 Bandung B,-6.9484924,107.6121553,0,0
3384018110,PT LEN Industri B,-6.9489877,107.619152,0,0
12626499699,LPKIA B,-6.9494301,107.6248137,0,0
12626499698,Bangunan Mart B,-6.9493306,107.6280918,0,0
12626499695,Taman Buah Batu,-6.9484693,107.6339239,0,0
12626499694,Swadarma BNI,-6.9503784,107.6357751,0,0
12626499692,Pasar Kordon B,-6.9534876,107.6387006,0,0
12626499689,Bluebird B,-6.9584038,107.6394982,0,0
12626499688,Puskesmas Kujangsari B,-6.9649573,107.6381038,0,0
12626499687,Transmart Buahbatu,-6.9671846,107.6375686,0,0
549740249,Permata Buah Batu,-6.9729226,107.6361478,0,0
11950910945,Podomoro,-6.9749692,107.6355974,0,0
12626499684,AHASS,-6.981957,107.6339127,0,0
12626499682,Griya Bandung Asri,-6.9857289,107.6328659,0,0
12626499681,Alfamart SPBU Bojongsoang,-6.9914167,107.6316525,0,0
12626499679,Masjid Jami' Baitul Huda B,-7.0002949,107.6318593,0,0
2477247659,Apotek K24,-7.0054785,107.6309071,0,0
12626499675,KEJARI Bale Bandung,-7.0059629,107.6235977,0,0
12626499676,RS Al-Ihsan,-7.0074774,107.6243131,0,0
3277886365,Terminal Leuwipanjang,-6.9458124,107.5932469,0,0
11739021652,Rumah Sakit Immanuel A,-6.9372267,107.5956524,0,0
11739021646,Taman Tegallega,-6.9365059,107.6030596,0,0
11739021654,Pintu Masuk Terminal Tegallega,-6.9338521,107.6024577,0,0
6443280171,Astana Anyar RSIA Kota Bandung,-6.9293977,107.600717,0,0
1013407725,Stasiun Hall,-6.9161478,107.6024001,0,0
11739064594,SMK Negeri 1 Bandung,-6.9130013,107.609039,0,0
11739021634,Riau XL,-6.9068537,107.6096165,0,0
10653503633,Hotel The-One-O-One A,-6.9065022,107.6105556,0,0
10778322183,Taman Radio A,-6.9024821,107.6115254,0,0
11104718108,Kartikasari A,-6.8975185,107.6127786,0,0
11104669204,Rumah Sakit Santo Borromeus A,-6.8944643,107.6129302,0,0
11739021656,Masjid Baiturrahman,-6.8866267,107.6149671,0,0
11707030824,UNPAD Dipatiukur (4D),-6.8923055,107.6177764,0,0
11104718106,Rumah Sakit Santo Borromeus B,-6.8948263,107.6134343,0,0
10778322181,Kartikasari B,-6.897514,107.6128416,0,0
10778322182,Taman Radio B,-6.9025069,107.6115838,0,0
10653503634,Hotel The-One-O-One B,-6.9065902,107.6106208,0,0
11739021633,Bandung Indah Plaza,-6.9088887,107.610623,0,0
11735248675,Bank Indonesia,-6.9145426,107.608993,0,0
29354702,Pasar Baru,-6.9164303,107.6044519,0,0
10778322188,Dalem Kaum,-6.9219758,107.6040142,0,0
11739021642,Jalan Ibu Inggit Garnasih,-6.9314959,107.6039218,0,0
11739021647,Pasar Tegalega,-6.9368241,107.6062604,0,0
10815723012,Simpang Mohamad Toha Biddokkes,-6.9375586,107.6055097,0,0
11739021653,Rumah Sakit Immanuel B,-6.9372977,107.5955421,0,0
3375793673,UNPAD Dipatiukur,-6.8934568,107.6180361,0,0
11707030826,Panatayudha A,-6.8979225,107.6161542,0,0
1666155324,Lapangan Gasibu A,-6.9011743,107.6199195,0,0
11707030829,PUSDAI A,-6.9010661,107.6241876,0,0
11707030832,SMPN 14 Bandung (Lapangan Supratman A),-6.9080655,107.6301163,0,0
1107694939,Taman Pramuka,-6.9106475,107.6274766,0,0
3375793687,Hotel Grand Tebu,-6.9130163,107.6288644,0,0
11707030860,Bandung Creative Hub A,-6.9183624,107.6313457,0,0
7702036194,Hotel Horison A,-6.9343354,107.6252887,0,0
5487616737,Simpang By Pass Soekarno Hatta A,-6.9473728,107.6090862,0,0
11711185184,SPBU Moh. Toha,-6.954618,107.6115168,0,0
11711185187,Cileunyi A,-6.9410603,107.7541846,0,0
1966499313,IPDN A,-6.9356267,107.7652049,0,0
10697346845,UNPAD Jatinangor,-6.932299,107.7732376,0,0
11711185243,Jatinangor Town Square,-6.933968,107.7712431,0,0
5867026762,IPDN B,-6.9357446,107.7651014,0,0
11711185188,Cileunyi B,-6.9426257,107.7557736,0,0
11711185185,Jalan Haji Tatang Sumantri,-6.9547392,107.6115567,0,0
11707031627,Simpang By Pass Soekarno Hatta B,-6.9483342,107.6087518,0,0
11707031601,PT INTI B (BKR 5),-6.9375463,107.6067624,0,0
11707031579,Hotel Horison B,-6.9343038,107.6251981,0,0
11707030859,Bandung Creative Hub B,-6.9184177,107.6312506,0,0
11955476811,SPBU Ahmad Yani,-6.9129263,107.6339654,0,0
11707030833,SDN 062 Ciujung Bandung (Lapangan Supratman B),-6.907261,107.6297079,0,0
11707030828,PUSDAI B,-6.9011517,107.6241682,0,0
11707030827,Lapangan Gasibu B,-6.9012501,107.6201283,0,0
11707030825,Panatayudha B,-6.8979434,107.6161572,0,0
12628901396,SDN Babakan Tarogong,-6.9384872,107.594148,0,0
12628930762,Muara A,-6.9371534,107.6020331,0,0
12628930746,Palasari Radio,-6.9742063,107.6181453,0,0
12628930749,Zipur Dayeuhkolot,-6.9861797,107.624845,0,0
12628930752,Pasar Baleendah A,-6.9989678,107.6316216,0,0
12628930755,Bumi Siliwangi,-7.0100016,107.6397222,0,0
2459057875,Terminal Ciparay,-7.0357328,107.713347,0,0
12628930760,Terminal Majalaya,-7.0477372,107.7601852,0,0
12628930757,Giriharja Jelekong,-7.020725,107.6563884,0,0
12628930753,Pasar Baleendah B,-6.9990175,107.6316458,0,0
305891851,Palasari Ceres,-6.9719753,107.6173961,0,0
35131593,Bundaran Cibiru,-6.9352673,107.7175908,0,0
12806516349,Panyileukan,-6.9357289,107.7121547,0,0
12806516346,Cimincrang,-6.9361475,107.7064226,0,0
12806516345,Shakti,-6.936831,107.6970872,0,0
12806516344,Barat Simpang Gedebage,-6.9372117,107.6918125,0,0
12806868621,SMKN 6 Bandung,-6.9380944,107.6794141,0,0
12806868622,Cipamokolan,-6.9382789,107.6768401,0,0
12806868623,Aria Graha,-6.9385626,107.6729122,0,0
3375689668,RS Al Islam,-6.9388175,107.6692698,0,0
12806868625,Metro,-6.93901,107.6665574,0,0
12806868626,Rancabolang,-6.9392635,107.6633094,0,0
12806868627,SMKN 7 Bandung,-6.939893,107.6598099,0,0
12806868632,Gagak Rimang,-6.9400797,107.6590642,0,0
3272226033,Metro Indah Mall,-6.9403972,107.6580268,0,0
12806868633,BPN Kanwil Jabar,-6.9406892,107.6570876,0,0
12806851397,Cidurian Selatan,-6.9420012,107.6529256,0,0
12806868637,Kantor Pos Sekejati,-6.9427159,107.6506763,0,0
12806868639,Disnaker Jabar,-6.944058,107.646481,0,0
12806868640,UNINUS,-6.9448492,107.6441008,0,0
12806868670,Tenth Avenue,-6.9458361,107.6408496,0,0
12806868674,Sekelimus Tengah,-6.9466415,107.6381159,0,0
12806868677,Sekelimus Barat,-6.9475072,107.6353065,0,0
12808867752,STIE Inaba,-6.9493807,107.6227995,0,0
12808867754,Mengger Girang,-6.9490185,107.6180229,0,0
12808867758,Ampera Soekarno Hatta,-6.9480749,107.6050974,0,0
12808867763,Karasak Lama,-6.9478683,107.6021954,0,0
3277891129,Seberang Terminal Leuwipanjang,-6.9469193,107.592997,0,0
12633822769,Pasar Caringin,-6.9419021,107.5829792,0,0
12808867766,Griya Sumbersari,-6.9325102,107.5766013,0,0
12808867768,Holis 2,-6.9248687,107.5750983,0,0
11954573590,Batas Kota,-6.9109035,107.569361,0,0
12627968405,Terminal Elang,-6.9135373,107.5755571,0,0
12808867767,Holis 1,-6.9252035,107.575247,0,0
12808867765,Sumbersari 1,-6.9313117,107.5763049,0,0
12808867764,Simpang Caringin,-6.9434372,107.5850407,0,0
12808867762,Inhoftank,-6.9478017,107.6022466,0,0
12808867760,Seberang Ampera Soekarno Hatta,-6.9479853,107.6051379,0,0
12808867756,Karasak Utara,-6.9480912,107.6067107,0,0
12806868676,Griya Hemat,-6.9474943,107.6348946,0,0
12806868672,Sekelimus Utara,-6.9464022,107.638444,0,0
5825209951,Simpang Samsat Kiaracondong,-6.9450226,107.6428119,0,0
12806851389,STT Mandala,-6.944662,107.6438888,0,0
12806851390,SMK Medika Com,-6.9438278,107.6464874,0,0
12806851392,Unibi,-6.9425403,107.6505153,0,0
12806851396,Cidurian Utara,-6.941787,107.6528692,0,0
12806851393,SMKN 9 Bandung,-6.9405212,107.6569119,0,0
3375689664,Jasa Raharja Jabar,-6.9400924,107.6582639,0,0
12806851400,Suparma,-6.9395718,107.6601512,0,0
12806868601,Kawaluyaan,-6.9390207,107.6635594,0,0
12806868603,Sanggar Hurip,-6.938728,107.6672726,0,0
12806868618,Cisaranten Kulon,-6.9379974,107.6775339,0,0
12806868620,KPP Pratama Cicadas,-6.9378628,107.6794352,0,0
12814754658,Depan Pasar Gedebage,-6.9365674,107.6973063,0,0
12806516348,Universitas Bhakti Kencana,-6.9356286,107.7099558,0,0
6460801785,Terminal Cicaheum,-6.902329,107.6565637,0,0
11735248707,BCA Cimuncang,-6.9060351,107.6483165,0,0
11735248706,Gateway Cicadas,-6.9072816,107.6459395,0,0
3248969440,BTM,-6.911388,107.6434825,0,0
11735248700,Flyover Antapani,-6.9138756,107.6429791,0,0
3375793691,WUJ Jalan Banten,-6.9142036,107.6399016,0,0
11735248701,STMIK,-6.9144188,107.6381956,0,0
11735248702,GOR KONI,-6.9146627,107.6362469,0,0
11735248692,IBCC,-6.9142791,107.6327884,0,0
11735248690,Stadion Persib Sidolig,-6.9161976,107.6292904,0,0
5391666905,Cikudapateuh,-6.9186929,107.6245415,0,0
11735248683,Kantor Pos Kosambi,-6.9192144,107.6235031,0,0
3277420346,Seberang Pasar Kosambi,-6.9199617,107.6220644,0,0
11735248705,Ketapang,-6.921143,107.619848,0,0
11735248710,Asia Afrika,-6.9222132,107.61585,0,0
11735248711,Gedung Keuangan Negara/KM 0,-6.921618,107.6110406,0,0
11735248713,Simpang Sudirman,-6.9207677,107.6038238,0,0
11735248714,Sukamanah,-6.9195734,107.5937417,0,0
11735248716,Simpang Jamika,-6.9188238,107.5874451,0,0
11954573588,SDN Raya Barat,-6.9181852,107.5819763,0,0
11711326973,Terminal Elang,-6.9133498,107.575723,0,0
1911635044,Yayasan LPPN,-6.9157549,107.5853751,0,0
25434237,GKI Kebonjati,-6.916282,107.5988546,0,0
10801865379,Telkom Lembong,-6.9170839,107.6111029,0,0
11735248678,RSU Bungsu,-6.9182518,107.6132908,0,0
11735248679,Pasar Kosambi,-6.9199012,107.6221779,0,0
11735248685,Segitiga Mas,-6.9179222,107.6258605,0,0
11735248686,Jaya Plaza,-6.9174142,107.6268373,0,0
11735248689,Dinas Pendidikan Kota Bandung,-6.9164526,107.6287225,0,0
5391666887,Jalan Mangga,-6.9151724,107.6310524,0,0
11735248691,Sekolah Agustinus,-6.9140574,107.6332108,0,0
3375793690,A.Yani Supratman,-6.9133253,107.6345966,0,0
11735248693,Cikaso,-6.9119025,107.637255,0,0
11735248694,Awi Bitung,-6.9106533,107.6396001,0,0
11735248708,Cimuncang,-6.9050722,107.650154,0,0
5832221935,Seberang Terminal Cicaheum,-6.9021302,107.6567969,0,0
5832221930,Cimuncang,-6.9016812,107.6490533,0,0
12628835706,Cikutra,-6.8997726,107.6426735,0,0
12628835704,Sukasenang Raya 1,-6.8984698,107.6371799,0,0
12628835703,BKKBN,-6.8982473,107.6324886,0,0
5832220641,SMPN 63 Kota Bandung,-6.8998537,107.6293496,0,0
12628813999,Wisma BKN,-6.89924,107.6222912,0,0
12628813996,Cikapayang Dago 1,-6.8990335,107.6120546,0,0
12628813994,Griya Pasteur 1,-6.8950796,107.5884432,0,0
12628813991,Warung Cepot,-6.8923414,107.5832389,0,0
3384993309,Maranatha,-6.8859263,107.5813607,0,0
12628813987,Lemahneundeut,-6.8813034,107.5787258,0,0
12628813989,Sarimanah,-6.8814266,107.5764264,0,0
12628813986,Sarijadi,-6.8816653,107.578425,0,0
12628813990,Setrasari,-6.8821984,107.5814944,0,0
12013144935,Mall d'Botanica,-6.8925604,107.5849478,0,0
12628813992,Griya Pasteur 2,-6.8948914,107.5883918,0,0
12628813995,Tamansari Cikapayang,-6.8982089,107.610121,0,0
5832170587,Cikapayang Dago 2,-6.898852,107.6135004,0,0
1660289593,Gasibu,-6.8992842,107.6179657,0,0
12628813998,Distan Jabar,-6.8992307,107.6227599,0,0
12628814000,Dapen Telkom,-6.8998503,107.6285873,0,0
12628835702,Jalaprang,-6.8983546,107.6321413,0,0
12013144934,ITENAS,-6.8982483,107.6362093,0,0
5832220656,Sukasenang Raya 2,-6.8984458,107.6370787,0,0
12628835705,Sekolah Pribadi,-6.8992417,107.6404383,0,0
5832221887,Sukapada,-6.9000256,107.6439328,0,0
12628835709,Surapati Core,-6.9018908,107.6525276,0,0
10693001605,Terminal Leuwipanjang,-6.9459075,107.5932351,0,0
12806765746,Taman Tegalega/Sri Baduga,-6.9373001,107.6037009,0,0
3445680780,Samsudin,-6.9375959,107.6083051,0,0
12808948210,Patung Ikan,-6.937657,107.610179,0,0
3272575985,BKR Buah Batu,-6.9365872,107.6231054,0,0
12809462424,Kangkung Kaler,-6.9308456,107.6260901,0,0
3375794694,DPRD Kota Bandung,-6.916856,107.6342682,0,0
3476292190,Dishub Jabar,-6.9181019,107.6324739,0,0
12809462425,Seberang Kangkung Kaler,-6.9308642,107.6261794,0,0
12808948211,Simpang Buah Batu BKR,-6.9373473,107.6222364,0,0
3376171471,Masjid An Nur PT INTI,-6.9376849,107.6084233,0,0
12806765747,Muara,-6.9374746,107.5999005,0,0
12809603991,RSUD Bandung Kiwari,-6.9430856,107.5913003,0,0
12809462429,RSIA Grha Bunda,-6.9134024,107.6455398,0,0
2493372403,Borma Antapani,-6.9129025,107.6495005,0,0
12809462431,Stikes Dharma Husada,-6.9127456,107.6507427,0,0
302241143,bjb Antapani,-6.9123839,107.6538136,0,0
11735248698,Depan Terminal Antapani,-6.9149741,107.6658807,0,0
3378630365,Seberang Borma Antapani,-6.9130091,107.6492727,0,0
12947493617,Seberang Hotel Grand Tebu,-6.9133503,107.6290686,0,0
3376430783,Tugu Tunas Taman Pramuka,-6.9105422,107.6265596,0,0
12947493616,Riau Aceh,-6.9097089,107.6256861,0,0
12809507149,bjb Riau,-6.9092859,107.6252606,0,0
12947493614,HKBP Riau,-6.9086974,107.624592,0,0
12809507147,Riau Cihapit,-6.9081445,107.623898,0,0
12809507143,Pengadilan Negeri Bandung,-6.9063102,107.6220332,0,0
12947493613,De Pavilijoen,-6.9058792,107.6207244,0,0
12947493612,Sekolah Taruna Bakti,-6.9060981,107.6183784,0,0
3375794699,Simpang Banda Riau,-6.9063138,107.6159699,0,0
12825997245,Hotel Santika,-6.9070669,107.6119393,0,0
3376669065,Taman Sejarah Balai Kota Bandung,-6.9103764,107.6106101,0,0
12806120224,SDN Merdeka 5,-6.915607,107.610154,0,0
3374033500,Tamblong,-6.9189576,107.6123364,0,0
12809269114,Seberang SMAN 4 Bandung,-6.9194582,107.5983096,0,0
12809274346,Masjid Al-Ukhuwwah,-6.9111612,107.6090912,0,0
12809274348,Wastukencana Purnawarman,-6.9088722,107.6079826,0,0
3269294966,Abdul Rivai,-6.904381,107.6038123,0,0
1700556149,Taman Westhoff,-6.9010192,107.5982442,0,0
12809082539,Djunjunan Paskal,-6.9003956,107.5968191,0,0
12809283847,SDN Sukaraja,-6.8914927,107.5786575,0,0
1396428138,Simpang Dakota,-6.8935189,107.5726156,0,0
12809283844,Borma Dakota,-6.8908761,107.572217,0,0
12809283842,Mentor,-6.889704,107.5698999,0,0
3250402136,Gunung Batu,-6.8875315,107.5672467,0,0
2317306703,Seberang Gateway Pasteur,-6.8893002,107.566898,0,0
1658426541,BPJS Pasteur,-6.8922539,107.5829072,0,0
2958261155,Djundjunan 3,-6.8929291,107.5856805,0,0
12809237524,GKI Pasteur,-6.9002045,107.6027269,0,0
12809237525,Linggawastu,-6.9039986,107.605369,0,0
3376669071,Pasar Kembang Wastukencana,-6.9048943,107.607265,0,0
12809237527,Pajajaran Timur,-6.9071527,107.6047535,0,0
3376669069,Kimia Farma,-6.9077123,107.6044661,0,0
12806120204,Haji Mesri,-6.9124771,107.6007223,0,0
3272722527,Simpang Gedebage Selatan,-6.9377585,107.6925095,0,0
11730486996,Summarecon Mall Bandung,-6.955658,107.6992029,0,0
4608003593,Terminal Leuwipanjang,-6.9458755,107.5932396,0,0
12806765749,Simpang Astanaanyar Pasirkoja,-6.9263959,107.5997325,0,0
12809227879,Jalan Haji Safari,-6.9247939,107.5991575,0,0
12806765750,Karanganyar,-6.9226401,107.598583,0,0
12806765752,Cibadak Astanaanyar,-6.9209178,107.5984181,0,0
3640664489,Paskal Hypersquare,-6.9155623,107.5981241,0,0
12806120202,SDN 013 Pajajaran,-6.9081059,107.5976849,0,0
5639376088,Garunggang Kulon,-6.8989275,107.5973503,0,0
12825997250,SPBU Paskal,-6.8979069,107.5973197,0,0
29357744,Cibarengkok,-6.8960662,107.5972487,0,0
29357741,Sukagalih PVJ,-6.8913554,107.596952,0,0
1746711065,Polsek Sukajadi,-6.8878725,107.5967776,0,0
3380200149,Mandiri Sukajadi,-6.8836453,107.5965088,0,0
3376673098,Sukawangi,-6.8780655,107.596246,0,0
12825997252,Gereja Santo Laurentius,-6.8756034,107.5960887,0,0
12809082550,SMPN 15 Bandung,-6.8739356,107.5957592,0,0
12809046293,Gegerkalong Girang,-6.8653206,107.594077,0,0
3376673106,Museum Pendidikan Nasional UPI,-6.8600369,107.594757,0,0
11711070002,Terminal Ledeng,-6.85933,107.5951942,0,0
12809046289,Poltekpar NHI,-6.8682279,107.5936817,0,0
3376673102,Simpang Gegerkalong Hilir,-6.8693537,107.5935629,0,0
3376673100,Borma Setiabudhi,-6.8746244,107.5962411,0,0
3376669085,Masjid Besar Cipaganti,-6.894782,107.602517,0,0
12809082541,Paskal RSHS,-6.8982378,107.5973829,0,0
12013198354,Terminal Elang,-6.9144895,107.5753136,0,0
6473170574,Pasar Cileunyi,-6.9404081,107.7537453,0,0
10771913963,Gerbang IPDN Jatinangor,-6.9358995,107.7642048,0,0
12013198353,UNPAD Jatinangor,-6.9323545,107.7732585,0,0
3476277701,Damri Unpad Jatinangor,-6.9316463,107.7758563,0,0
10771913964,Seberang Gerbang IPDN Jatinangor,-6.9361566,107.7636862,0,0
1935454988,Terminal Tanjungsari,-6.9079951,107.7959097,0,0
2744242982,Pasirluyu Selatan/Sukaati,-6.9492577,107.6214461,0,0
12808912264,Pos Banceuy,-6.9205454,107.6065186,0,0
1956195997,Jalan Jati,-6.9262285,107.6125973,0,0
3376282080,Banteng Sadakeling,-6.9316133,107.6183599,0,0
1982390333,SMK Medina,-6.931384,107.619075,0,0
2250581874,GOR Lodaya,-6.9317067,107.6203316,0,0
12808948214,Selontongan,-6.9402599,107.625925,0,0
12808948215,Kliningan Buahbatu,-6.9426596,107.6282283,0,0
12806516353,SDN 050 Cibiru,-6.9342906,107.7215528,0,0
12823636734,Rumah Sakit Murni Teguh,-6.9208368,107.6159966,0,0
12806309242,SDN Cikadut,-6.9040466,107.6656526,0,0
12806309246,Gang H.M. Syarief,-6.9044513,107.6718533,0,0
12806309248,Borma Pasirimpun,-6.904729,107.6759315,0,0
11047579524,UPTD Laboratorium Lingkungan Hidup,-6.9074116,107.6864696,0,0
12806516361,SDN Ciporeat,-6.9173978,107.7061287,0,0
12806516359,Seberang Borma Cipadung,-6.9261531,107.7108057,0,0
12806516356,SDN Cipadung,-6.9316908,107.7137735,0,0
35131607,UIN SGD/Cipadung,-6.9323756,107.7157532,0,0
12014389702,Pangkalan DAMRI Cibiru,-6.9335177,107.7163132,0,0
12806516354,Seberang UIN Sunan Gunung Djati,-6.9324655,107.7158334,0,0
12806516357,Borma Cipadung,-6.9265281,107.7108912,0,0
2477149675,SDN Andir Kidul,-6.9136497,107.6955657,0,0
12806309257,Seberang SMAN 24 Bandung,-6.9084047,107.6881997,0,0
11047579523,Pusjatan,-6.907525,107.6867495,0,0
3251007173,Gerbang Pusjatan,-6.907087,107.6856912,0,0
12806309250,Seberang Borma Pasirimpun,-6.9047223,107.6758598,0,0
35135540,Lapas Sukamiskin,-6.9046182,107.6750064,0,0
12806309247,Komplek Sarimas,-6.9046989,107.672335,0,0
12888147067,Flyover KBP,-6.8529876,107.4941137,0,0
12390565460,Ratnasasih,-6.8689266,107.4688418,0,0
12888177149,BTD,-6.8724813,107.4678358,0,0
5509730969,Tatar Subanglarang,-6.8818457,107.4554476,0,0
11489094686,Kamandaka,-6.8716903,107.4660366,0,0
11489094682,Jingganagara,-6.8724249,107.4692856,0,0
11489094684,CBCS/BAIS,-6.8686557,107.4687526,0,0
12881302236,Timur IKEA Kota Baru Parahyangan,-6.8673805,107.4687013,0,0
12825997248,Taman Vanda,-6.9139284,107.6099856,0,0
3374033509,Terminal Abdul Muis/Kebon Kalapa,-6.9276265,107.6058121,0,0
12626529705,ITC Kebon Kalapa,-6.926739,107.6059915,0,0
12808948222,SMPN 43 Bandung,-6.9257801,107.6066649,0,0
v_107.607559_-6.927539,Jalan Pungkur,-6.927539,107.6075592,0,0
12808948220,Pasundan,-6.9278672,107.608899,0,0
v_107.610031_-6.929017,Jalan Pungkur,-6.9290167,107.6100312,0,0
v_107.611619_-6.930570,Jalan Pungkur,-6.9305702,107.6116186,0,0
v_107.612979_-6.931831,Jalan Pungkur,-6.9318313,107.6129795,0,0
v_107.614312_-6.932344,Jalan Pungkur,-6.9323443,107.6143118,0,0
12806120217,Unla,-6.9311439,107.6158192,0,0
3375103664,Lauk Emas,-6.9302033,107.6164624,0,0
3376282080,Banteng Sadakeling,-6.9316133,107.6183599,0,0
1982390333,SMK Medina,-6.931384,107.619075,0,0
2250581874,GOR Lodaya,-6.9317067,107.6203316,0,0
12806537958,Yayasan Kemala Bhayangkari,-6.9318636,107.6221815,0,0
3376171449,Jl. Lodaya,-6.9320775,107.6249815,0,0
v_107.626212_-6.932767,Jalan Raden Adipati Aria Martanegara,-6.9327672,107.6262119,0,0
v_107.627723_-6.933183,Jalan Raden Adipati Aria Martanegara,-6.9331834,107.6277229,0,0
v_107.629052_-6.933531,Jalan Raden Adipati Aria Martanegara,-6.9335308,107.6290522,0,0
v_107.630613_-6.933883,Jalan Raden Adipati Aria Martanegara,-6.9338832,107.6306127,0,0
v_107.632176_-6.934235,Jalan Raden Adipati Aria Martanegara,-6.9342353,107.6321764,0,0
v_107.633797_-6.934385,Jalan Raden Adipati Aria Martanegara,-6.934385,107.6337971,0,0
v_107.634547_-6.933104,Jalan Turangga,-6.9331037,107.6345471,0,0
v_107.634925_-6.931781,Jalan Turangga,-6.9317815,107.6349255,0,0
v_107.635320_-6.930232,Jalan Turangga,-6.9302325,107.6353197,0,0
v_107.634256_-6.926741,Jalan Jenderal Gatot Subroto,-6.9267411,107.634256,0,0
v_107.635605_-6.927381,Jalan Jenderal Gatot Subroto,-6.9273813,107.6356046,0,0
11365366019,Trans Studio Mall,-6.9280668,107.6367954,0,0
v_107.638001_-6.928730,Jalan Jenderal Gatot Subroto,-6.92873,107.6380006,0,0
v_107.639112_-6.929750,Jalan Jenderal Gatot Subroto,-6.9297496,107.6391119,0,0
v_107.640220_-6.930610,Jalan Jenderal Gatot Subroto,-6.9306103,107.6402197,0,0
v_107.641897_-6.931301,Jalan Jenderal Gatot Subroto,-6.9313006,107.6418972,0,0
v_107.643537_-6.931296,Jalan H. Ibrahim Adjie,-6.9312959,107.6435367,0,0
v_107.643946_-6.929922,Jalan H. Ibrahim Adjie,-6.9299218,107.6439463,0,0
v_107.644225_-6.928444,Jalan H. Ibrahim Adjie,-6.9284438,107.6442254,0,0
v_107.644425_-6.927048,Jalan H. Ibrahim Adjie,-6.9270482,107.6444251,0,0
v_107.644424_-6.925281,Jalan H. Ibrahim Adjie,-6.9252812,107.6444244,0,0
v_107.644368_-6.923869,Jalan H. Ibrahim Adjie,-6.9238694,107.6443679,0,0
12806853451,Seberang Griya Kiaracondong,-6.9220961,107.6442877,0,0
12806853452,Daese Garmin,-6.9194414,107.6441456,0,0
v_107.644018_-6.917888,Jalan H. Ibrahim Adjie,-6.9178882,107.6440177,0,0
12806853456,Gerbang Timur Kiara Artha Park,-6.9161586,107.6438444,0,0
11735248700,Flyover Antapani,-6.9138756,107.6429791,0,0
v_107.641333_-6.914020,Jalan Jakarta,-6.91402,107.641333,0,0
3375793691,WUJ Jalan Banten,-6.9142036,107.6399016,0,0
11735248701,STMIK,-6.9144188,107.6381956,0,0
11735248702,GOR KONI,-6.9146627,107.6362469,0,0
v_107.634870_-6.914274,Jalan Layang Ahmad Yani - Supratman,-6.9142738,107.6348698,0,0
v_107.634078_-6.912988,Jalan Layang Ahmad Yani - Supratman,-6.9129877,107.6340779,0,0
v_107.633191_-6.911716,Jalan Jakarta,-6.9117162,107.6331914,0,0
12811695428,Supratman 1,-6.9101794,107.6321776,0,0
2519917307,Pussenif,-6.9078314,107.6306426,0,0
11707030832,SMPN 14 Bandung (Lapangan Supratman A),-6.9080655,107.6301163,0,0
11707030833,SDN 062 Ciujung Bandung (Lapangan Supratman B),-6.907261,107.6297079,0,0
5841989829,Muararajeun Baru,-6.9060357,107.6305171,0,0
v_107.631645_-6.904467,Jalan Brigjend. Katamso,-6.9044669,107.6316451,0,0
v_107.632953_-6.903031,Jalan Brigjend. Katamso,-6.9030314,107.6329526,0,0
v_107.634252_-6.902351,Jalan Brigjend. Katamso,-6.9023515,107.6342515,0,0
12819917452,Seberang Griya Pahlawan,-6.9002535,107.634226,0,0
v_107.633985_-6.898873,Jalan Pahlawan,-6.8988729,107.6339847,0,0
12013144934,ITENAS,-6.8982483,107.6362093,0,0
5832220656,Sukasenang Raya 2,-6.8984458,107.6370787,0,0
12806309238,STIE Ekuitas,-6.8986302,107.6378565,0,0
12628835705,Sekolah Pribadi,-6.8992417,107.6404383,0,0
v_107.641784_-6.899561,Jalan PH. H. Mustofa,-6.8995613,107.6417839,0,0
5832221887,Sukapada,-6.9000256,107.6439328,0,0
v_107.645244_-6.900388,Jalan PH. H. Mustofa,-6.900388,107.6452442,0,0
v_107.646905_-6.901214,Jalan PH. H. Mustofa,-6.9012136,107.6469046,0,0
v_107.648458_-6.901636,Jalan PH. H. Mustofa,-6.9016362,107.6484583,0,0
v_107.650037_-6.901754,Jalan PH. H. Mustofa,-6.9017541,107.6500375,0,0
12628835709,Surapati Core,-6.9018908,107.6525276,0,0
v_107.654069_-6.901949,Jalan PH. H. Mustofa,-6.901949,107.6540692,0,0
5832221935,Seberang Terminal Cicaheum,-6.9021302,107.6567969,0,0
11291524413,Terminal Angkot Cicaheum,-6.9024172,107.6562486,0,0
5832221932,Padasuka,-6.9019865,107.6536878,0,0
v_107.652292_-6.901874,Jalan PH. H. Mustofa,-6.9018742,107.6522919,0,0
v_107.650861_-6.901809,Jalan PH. H. Mustofa,-6.9018087,107.6508611,0,0
5832221930,Cimuncang,-6.9016812,107.6490533,0,0
v_107.647450_-6.901458,Jalan PH. H. Mustofa,-6.9014584,107.6474504,0,0
v_107.646191_-6.900843,Jalan PH. H. Mustofa,-6.9008434,107.6461914,0,0
12814754615,Sukapada 2,-6.9001599,107.6446782,0,0
v_107.643455_-6.899174,Jalan Cikutra,-6.8991739,107.6434549,0,0
v_107.643702_-6.897807,Jalan Cikutra,-6.8978073,107.6437015,0,0
v_107.643634_-6.896441,Jalan Cikutra,-6.896441,107.6436342,0,0
v_107.642846_-6.895158,Jalan Cikutra,-6.8951583,107.6428455,0,0
v_107.641609_-6.894425,Jalan Cikutra,-6.8944254,107.6416085,0,0
v_107.640326_-6.893939,Jalan Cikutra,-6.8939387,107.6403262,0,0
v_107.638899_-6.893664,Jalan Cikutra,-6.8936636,107.6388995,0,0
v_107.637436_-6.893655,Jalan Cikutra,-6.8936549,107.6374363,0,0
3248882521,Pahlawan Sidomukti,-6.8933137,107.6354258,0,0
v_107.635034_-6.894971,Jalan Pahlawan,-6.8949709,107.6350337,0,0
v_107.634597_-6.896664,Jalan Pahlawan,-6.8966637,107.6345969,0,0
v_107.634127_-6.897966,Jalan Pahlawan,-6.8979661,107.634127,0,0
12819917451,Griya Pahlawan,-6.9003045,107.634244,0,0
v_107.634899_-6.901637,Jalan Pahlawan,-6.9016374,107.6348987,0,0
v_107.633864_-6.902551,Jalan Brigjend. Katamso,-6.9025511,107.6338639,0,0
v_107.632456_-6.903453,Jalan Brigjend. Katamso,-6.9034531,107.6324558,0,0
v_107.631259_-6.905028,Jalan Brigjend. Katamso,-6.905028,107.6312587,0,0
v_107.630355_-6.906273,Jalan Brigjend. Katamso,-6.9062732,107.6303549,0,0
v_107.630693_-6.907690,Jalan Supratman,-6.90769,107.6306929,0,0
12811695427,Supratman Cikaso,-6.9103228,107.6324017,0,0
12811695425,SMPN 22 Bandung,-6.9122413,107.6336698,0,0
3375793690,A.Yani Supratman,-6.9133253,107.6345966,0,0
v_107.636008_-6.912562,Jalan Jenderal Ahmad Yani,-6.9125623,107.6360079,0,0
11735248693,Cikaso,-6.9119025,107.637255,0,0
11735248694,Awi Bitung,-6.9106533,107.6396001,0,0
v_107.641155_-6.909826,Jalan Jenderal Ahmad Yani,-6.9098264,107.6411552,0,0
v_107.643038_-6.908852,Jalan Jenderal Ahmad Yani,-6.9088519,107.6430381,0,0
3248969440,BTM,-6.911388,107.6434825,0,0
12633822765,Seberang Kiara Artha,-6.9142126,107.6437793,0,0
v_107.644025_-6.916433,Jalan H. Ibrahim Adjie,-6.916433,107.6440253,0,0
12806853454,SDN 083 Babakan Surabaya Selatan,-6.9196178,107.6442909,0,0
12806853450,Griya Kiaracondong,-6.9221685,107.6444041,0,0
v_107.644469_-6.923650,Jalan H. Ibrahim Adjie,-6.9236501,107.6444692,0,0
v_107.644544_-6.925879,Jalan H. Ibrahim Adjie,-6.9258791,107.6445444,0,0
12806853449,Jalan PSM,-6.9274017,107.6444424,0,0
v_107.644286_-6.928850,Jalan H. Ibrahim Adjie,-6.9288498,107.6442857,0,0
12806853447,Honda Daya Motor Kiaracondong,-6.9310003,107.6438759,0,0
12806853446,SDN 38 Kiaracondong,-6.9333993,107.642917,0,0
v_107.642669_-6.934777,Jalan H. Ibrahim Adjie,-6.9347772,107.642669,0,0
v_107.642557_-6.936192,Jalan H. Ibrahim Adjie,-6.9361925,107.6425567,0,0
12806853442,Kebon Kangkung 11,-6.9380472,107.6424362,0,0
12806853444,KPP Madya Dua Bandung,-6.9383619,107.6422771,0,0
v_107.642387_-6.936642,Jalan H. Ibrahim Adjie,-6.9366422,107.6423875,0,0
v_107.642496_-6.935105,Jalan H. Ibrahim Adjie,-6.9351047,107.6424964,0,0
v_107.642422_-6.931504,Jalan Jenderal Gatot Subroto,-6.9315043,107.6424224,0,0
v_107.641104_-6.931019,Jalan Jenderal Gatot Subroto,-6.931019,107.6411045,0,0
v_107.639816_-6.930370,Jalan Jenderal Gatot Subroto,-6.9303695,107.6398164,0,0
v_107.638683_-6.929301,Jalan Jenderal Gatot Subroto,-6.9293013,107.6386831,0,0
v_107.637429_-6.928397,Jalan Jenderal Gatot Subroto,-6.9283966,107.6374286,0,0
3248882519,Turangga,-6.928187,107.6358171,0,0
v_107.635475_-6.929625,Jalan Turangga,-6.9296253,107.6354745,0,0
v_107.635102_-6.931090,Jalan Turangga,-6.9310901,107.6351016,0,0
v_107.634719_-6.932606,Jalan Turangga,-6.9326057,107.6347185,0,0
3376171452,Turangga,-6.9342955,107.6339321,0,0
v_107.632568_-6.934305,Jalan Raden Adipati Aria Martanegara,-6.9343049,107.632568,0,0
v_107.631051_-6.933982,Jalan Raden Adipati Aria Martanegara,-6.9339821,107.6310515,0,0
v_107.629268_-6.933580,Jalan Raden Adipati Aria Martanegara,-6.9335803,107.6292681,0,0
v_107.627844_-6.933215,Jalan Raden Adipati Aria Martanegara,-6.9332148,107.6278437,0,0
v_107.626407_-6.932826,Jalan Raden Adipati Aria Martanegara,-6.9328264,107.6264074,0,0
v_107.625203_-6.932188,Jalan Lodaya,-6.9321877,107.6252034,0,0
v_107.623445_-6.931408,Jalan Lodaya,-6.9314076,107.6234448,0,0
v_107.622045_-6.932331,Jalan Palasari,-6.9323308,107.6220445,0,0
v_107.621134_-6.933768,Jalan Gajah,-6.9337683,107.6211343,0,0
v_107.619495_-6.933555,Jalan Buah Batu,-6.9335548,107.6194953,0,0
v_107.618351_-6.932304,Jalan Buah Batu,-6.9323042,107.6183506,0,0
v_107.616575_-6.931506,Jalan Gurame,-6.9315064,107.6165751,0,0
v_107.615276_-6.932137,Jalan Mochammad Ramdhan,-6.9321366,107.6152764,0,0
v_107.614119_-6.933435,Jalan Mochammad Ramdhan,-6.9334348,107.6141189,0,0
v_107.613029_-6.934535,Jalan Mochammad Ramdhan,-6.9345354,107.613029,0,0
v_107.611990_-6.935507,Jalan Mochammad Ramdhan,-6.9355068,107.6119898,0,0
v_107.610719_-6.936508,Jalan Mochammad Ramdhan,-6.9365083,107.6107189,0,0
3376171471,Masjid An Nur PT INTI,-6.9376849,107.6084233,0,0
5355897678,Taman Tegalega 3,-6.9365596,107.6062815,0,0
v_107.606422_-6.934694,Jalan Mohammad Toha,-6.9346941,107.6064216,0,0
v_107.606519_-6.933278,Jalan Mohammad Toha,-6.9332778,107.6065192,0,0
v_107.606628_-6.931852,Jalan Mohammad Toha,-6.9318519,107.6066275,0,0
v_107.605519_-6.930958,Jalan Dewi Sartika,-6.9309578,107.6055192,0,0
v_107.605655_-6.929035,Jalan Dewi Sartika,-6.9290349,107.605655,0,0
12825997237,Melong Karapitan,-6.9302053,107.6160678,0,0
12825997239,Karapitan Cikawao,-6.9282903,107.6165815,0,0
12825997243,Karapitan Emung,-6.9270918,107.6169043,0,0
12825997241,Karapitan Paledang,-6.9250993,107.61732,0,0
v_107.617478_-6.923738,Jalan Sunda,-6.9237379,107.6174781,0,0
v_107.617605_-6.922299,Jalan Sunda,-6.9222986,107.6176047,0,0
10280072517,Gereja Sidang Kristus,-6.9194254,107.6179265,0,0
12806120211,Yogya Sunda,-6.9178998,107.6180659,0,0
v_107.618262_-6.916428,Jalan Sunda,-6.9164276,107.6182615,0,0
v_107.618145_-6.915077,Jalan Sumbawa,-6.9150772,107.6181449,0,0
12806120207,Balai Bahasa Jawa Barat,-6.9136482,107.6173371,0,0
12809507134,Kantor Kecamatan Sumurbandung,-6.9131842,107.6177677,0,0
12809507135,Seberang Stadion Siliwangi,-6.9110152,107.6184728,0,0
12809507136,PMI Kota Bandung,-6.9089935,107.6195116,0,0
v_107.621135_-6.909357,Jalan Aceh,-6.9093568,107.6211354,0,0
v_107.623054_-6.909675,Jalan Aceh,-6.909675,107.6230541,0,0
v_107.624985_-6.910134,Jalan Aceh,-6.9101344,107.6249849,0,0
3376430782,SMA Kartika,-6.9095321,107.6267561,0,0
12887217205,Jalan Suren,-6.908846,107.628258,0,0
v_107.634995_-6.894486,Jalan Pahlawan,-6.8944863,107.6349951,0,0
12819917455,Taman Makam Pahlawan Cikutra,-6.8928924,107.6356272,0,0
v_107.636805_-6.893619,Jalan Cikutra,-6.8936194,107.636805,0,0
v_107.638193_-6.893662,Jalan Cikutra,-6.8936616,107.638193,0,0
v_107.639746_-6.893788,Jalan Cikutra,-6.8937882,107.6397463,0,0
v_107.641066_-6.894188,Jalan Cikutra,-6.8941877,107.6410661,0,0
v_107.642404_-6.894923,Jalan Cikutra,-6.8949233,107.6424044,0,0
v_107.643499_-6.895872,Jalan Cikutra,-6.8958715,107.643499,0,0
v_107.643706_-6.897312,Jalan Cikutra,-6.897312,107.6437058,0,0
v_107.643510_-6.898742,Jalan Cikutra,-6.898742,107.6435097,0,0
v_107.644895_-6.900241,Jalan PH. H. Mustofa,-6.9002413,107.6448952,0,0
12628835706,Cikutra,-6.8997726,107.6426735,0,0
12814754613,Bekamin,-6.8995403,107.6416949,0,0
12806309240,YPKP Sanggabuana,-6.89932,107.6407662,0,0
v_107.639434_-6.899004,Jalan PH. H. Mustofa,-6.8990042,107.6394338,0,0
12628835704,Sukasenang Raya 1,-6.8984698,107.6371799,0,0
12814754611,SDN 151 Sukasenang,-6.8982085,107.6360412,0,0
v_107.634445_-6.897826,Jalan PH. H. Mustofa,-6.8978256,107.6344445,0,0
12887217206,Jalan Salam,-6.908808,107.6282951,0,0
1107694939,Taman Pramuka,-6.9106475,107.6274766,0,0
12962149421,Aceh Taman Pramuka,-6.9102542,107.6255307,0,0
v_107.623710_-6.909823,Jalan Aceh,-6.9098235,107.6237104,0,0
v_107.621783_-6.909358,Jalan Aceh,-6.9093582,107.6217828,0,0
3376420325,Graha Manggala Siliwangi,-6.9090101,107.6195837,0,0
12887179699,Stadion Siliwangi,-6.9111664,107.6184317,0,0
v_107.616880_-6.911574,Jalan Belitung,-6.9115735,107.6168804,0,0
3374033495,SMAN 3 dan 5,-6.9119682,107.6150207,0,0
12809521950,Taman Lalu Lintas,-6.9124068,107.6138205,0,0
12887182816,SMP Negeri 2 Bandung,-6.9147065,107.6139894,0,0
v_107.613727_-6.916297,Jalan Sumatra,-6.9162973,107.6137272,0,0
v_107.613388_-6.917660,Jalan Sumatra,-6.9176597,107.6133877,0,0
3374033500,Tamblong,-6.9189576,107.6123364,0,0
v_107.612155_-6.920528,Jalan Tamblong,-6.9205282,107.612155,0,0
v_107.611996_-6.921872,Jalan Lengkong Besar,-6.9218717,107.6119957,0,0
v_107.611817_-6.923466,Jalan Lengkong Besar,-6.9234656,107.6118166,0,0
v_107.611685_-6.924856,Jalan Lengkong Besar,-6.9248556,107.6116853,0,0
1956195997,Jalan Jati,-6.9262285,107.6125973,0,0
v_107.613098_-6.927569,Jalan Lengkong Besar,-6.9275689,107.6130977,0,0
3374033505,UNPAS Lengkong Besar,-6.9290293,107.6129922,0,0
12809314942,SDN 020 Lengkong Besar,-6.9304102,107.612861,0,0
v_107.612159_-6.931676,Jalan Ibu Inggit Ganarsih,-6.9316762,107.6121586,0,0
v_107.610698_-6.932391,Jalan Ibu Inggit Ganarsih,-6.9323912,107.6106978,0,0
v_107.608404_-6.932089,Jalan Ibu Inggit Ganarsih,-6.9320886,107.6084036,0,0
v_107.606702_-6.931862,Jalan Ibu Inggit Ganarsih,-6.9318619,107.6067023,0,0
v_107.605502_-6.931138,Jalan Dewi Sartika,-6.9311384,107.6055016,0,0
v_107.606092_-6.925705,Jalan Dewi Sartika,-6.925705,107.6060915,0,0
v_107.608899_-6.927867,Jalan Pungkur,-6.9278672,107.608899,0,0
1831360476,Unknown,-6.9313355,107.6124017,0,0
v_107.613740_-6.932193,Jalan Pungkur,-6.9321929,107.6137396,0,0
v_107.615223_-6.932096,Jalan Mochammad Ramdhan,-6.9320956,107.6152226,0,0
v_107.615999_-6.930467,Jalan Karapitan,-6.9304668,107.6159987,0,0
v_107.616432_-6.928807,Jalan Karapitan,-6.9288073,107.6164323,0,0
v_107.616802_-6.927497,Jalan Karapitan,-6.9274967,107.6168016,0,0
v_107.617126_-6.926153,Jalan Karapitan,-6.9261533,107.6171256,0,0
v_107.617365_-6.924819,Jalan Karapitan,-6.9248193,107.6173654,0,0
v_107.617553_-6.923044,Jalan Sunda,-6.9230443,107.6175533,0,0
v_107.617734_-6.921177,Jalan Sunda,-6.9211766,107.6177343,0,0
v_107.617909_-6.919735,Jalan Sunda,-6.9197349,107.6179092,0,0
v_107.618023_-6.918323,Jalan Sunda,-6.9183231,107.6180233,0,0
v_107.618165_-6.916924,Jalan Sunda,-6.9169244,107.6181649,0,0
v_107.618385_-6.915545,Jalan Sumbawa,-6.9155445,107.618385,0,0
v_107.617666_-6.914184,Jalan Sumbawa,-6.9141839,107.6176661,0,0
v_107.616511_-6.912285,Jalan Sumbawa,-6.9122853,107.6165113,0,0
v_107.615021_-6.911968,Jalan Belitung,-6.9119682,107.6150207,0,0
v_107.613416_-6.912564,Jalan Belitung,-6.912564,107.6134164,0,0
v_107.612584_-6.911391,Jalan Sumatra,-6.9113906,107.6125842,0,0
v_107.612429_-6.910030,Jalan Sumatra,-6.91003,107.6124292,0,0
v_107.613769_-6.910380,Jalan Aceh,-6.9103802,107.6137687,0,0
v_107.613829_-6.908995,Jalan Seram,-6.9089946,107.6138292,0,0
v_107.612895_-6.907209,Jalan Seram,-6.9072095,107.6128951,0,0
v_107.611449_-6.907044,Jalan L.L. RE. Martadinata,-6.9070444,107.6114489,0,0
v_107.610553_-6.905890,Jalan Ir. H. Djuanda,-6.9058898,107.6105526,0,0
v_107.610847_-6.904189,Jalan Ir. H. Djuanda,-6.9041893,107.6108469,0,0
v_107.611388_-6.902825,Jalan Ir. H. Djuanda,-6.9028247,107.6113884,0,0
v_107.612075_-6.901145,Jalan Ir. H. Djuanda,-6.9011448,107.612075,0,0
v_107.612655_-6.899835,Jalan Ir. H. Djuanda,-6.8998349,107.6126552,0,0
v_107.612740_-6.898451,Jalan Ir. H. Djuanda,-6.8984512,107.6127403,0,0
v_107.612792_-6.897075,Jalan Ir. H. Djuanda,-6.8970749,107.612792,0,0
v_107.612864_-6.895475,Jalan Ir. H. Djuanda,-6.8954747,107.612864,0,0
v_107.612990_-6.893766,Jalan Ir. H. Djuanda,-6.8937658,107.6129903,0,0
v_107.613100_-6.892393,Jalan Ir. H. Djuanda,-6.8923927,107.6130997,0,0
v_107.613217_-6.890944,Jalan Ir. H. Djuanda,-6.890944,107.6132172,0,0
v_107.613386_-6.889427,Jalan Ir. H. Djuanda,-6.8894269,107.6133858,0,0
v_107.613519_-6.888029,Jalan Ir. H. Djuanda,-6.8880287,107.613519,0,0
v_107.613572_-6.886673,Jalan Ir. H. Djuanda,-6.8866727,107.6135719,0,0
v_107.613679_-6.885277,Jalan Ir. H. Djuanda,-6.885277,107.613679,0,0
v_107.614044_-6.883895,Jalan Ir. H. Djuanda,-6.8838946,107.6140439,0,0
v_107.614953_-6.882814,Jalan Ir. H. Djuanda,-6.8828137,107.6149531,0,0
v_107.615787_-6.881698,Jalan Ir. H. Djuanda,-6.8816978,107.6157866,0,0
v_107.616167_-6.880379,Jalan Ir. H. Djuanda,-6.8803793,107.6161668,0,0
v_107.616593_-6.878787,Jalan Ir. H. Djuanda,-6.8787871,107.6165935,0,0
v_107.617292_-6.877376,Jalan Ir. H. Djuanda,-6.8773761,107.6172919,0,0
v_107.618126_-6.876262,Jalan Ir. H. Djuanda,-6.8762622,107.6181264,0,0
v_107.618814_-6.874996,Jalan Ir. H. Djuanda,-6.8749961,107.6188141,0,0
v_107.619354_-6.873709,Jalan Ir. H. Djuanda,-6.8737093,107.6193538,0,0
v_107.619871_-6.872314,Jalan Ir. H. Djuanda,-6.8723137,107.6198709,0,0
v_107.620012_-6.870949,Jalan Ir. H. Djuanda,-6.870949,107.6200117,0,0
v_107.620498_-6.869372,Jalan Ir. H. Djuanda,-6.8693725,107.6204978,0,0
3373712056,Terminal Dago,-6.8670778,107.6212119,0,0
12819940049,SPBU Dago Atas,-6.8686285,107.620646,0,0
v_107.620297_-6.870207,Jalan Ir. H. Djuanda,-6.8702073,107.6202974,0,0
12816172252,Seberang Poltekesos,-6.8725481,107.6198876,0,0
v_107.619365_-6.873894,Jalan Ir. H. Djuanda,-6.8738941,107.6193653,0,0
v_107.618771_-6.875304,Jalan Ir. H. Djuanda,-6.8753042,107.6187714,0,0
12820358786,Kanayakan,-6.8774811,107.6173296,0,0
v_107.616662_-6.878917,Jalan Ir. H. Djuanda,-6.8789171,107.616662,0,0
v_107.616246_-6.880480,Jalan Ir. H. Djuanda,-6.8804798,107.6162461,0,0
v_107.615826_-6.881847,Jalan Ir. H. Djuanda,-6.8818469,107.6158262,0,0
v_107.614544_-6.883455,Jalan Ir. H. Djuanda,-6.883455,107.614544,0,0
v_107.613828_-6.885062,Jalan Ir. H. Djuanda,-6.885062,107.6138279,0,0
11739021656,Masjid Baiturrahman,-6.8866267,107.6149671,0,0
v_107.615698_-6.888699,Jalan Dipatiukur,-6.8886991,107.6156977,0,0
v_107.616565_-6.890241,Jalan Dipatiukur,-6.8902412,107.6165653,0,0
11707030824,UNPAD Dipatiukur (4D),-6.8923055,107.6177764,0,0
3375793673,UNPAD Dipatiukur,-6.8934568,107.6180361,0,0
v_107.617432_-6.894739,Jalan Dipatiukur,-6.8947388,107.6174318,0,0
v_107.616052_-6.894869,Jalan Hasanudin,-6.8948686,107.6160516,0,0
11104718106,Rumah Sakit Santo Borromeus B,-6.8948263,107.6134343,0,0
12820212473,STMIK LIKMI,-6.8955212,107.6129226,0,0
10778322181,Kartikasari B,-6.897514,107.6128416,0,0
11873654244,Danamon Cikapayang,-6.8995115,107.6127597,0,0
12819940051,Superindo Dago,-6.9018046,107.6118668,0,0
10778322182,Taman Radio B,-6.9025069,107.6115838,0,0
v_107.610910_-6.904216,Jalan Ir. H. Djuanda,-6.9042157,107.61091,0,0
10653503634,Hotel The-One-O-One B,-6.9065902,107.6106208,0,0
11739021633,Bandung Indah Plaza,-6.9088887,107.610623,0,0
v_107.611746_-6.909769,Jalan Aceh,-6.9097693,107.6117465,0,0
v_107.613149_-6.910066,Jalan Aceh,-6.910066,107.6131491,0,0
v_107.617548_-6.911785,Jalan Banda,-6.9117847,107.617548,0,0
v_107.617581_-6.910015,Jalan Banda,-6.9100152,107.6175806,0,0
25433284,Banda Saparua,-6.9072231,107.6169984,0,0
3375794699,Simpang Banda Riau,-6.9063138,107.6159699,0,0
v_107.614409_-6.906475,Jalan L.L. RE. Martadinata,-6.9064746,107.6144094,0,0
12825997245,Hotel Santika,-6.9070669,107.6119393,0,0
3376669065,Taman Sejarah Balai Kota Bandung,-6.9103764,107.6106101,0,0
11739021637,Merdeka,-6.9125343,107.6104548,0,0
12825997248,Taman Vanda,-6.9139284,107.6099856,0,0
11739064594,SMK Negeri 1 Bandung,-6.9130013,107.609039,0,0
12809274346,Masjid Al-Ukhuwwah,-6.9111612,107.6090912,0,0
12809274348,Wastukencana Purnawarman,-6.9088722,107.6079826,0,0
v_107.607344_-6.907632,Jalan Pajajaran,-6.9076324,107.6073442,0,0
v_107.605841_-6.907149,Jalan Pajajaran,-6.9071486,107.6058415,0,0
11739021630,STHB (Sekolah Tinggi Hukum Bandung),-6.9064803,107.6044125,0,0
3269294966,Abdul Rivai,-6.904381,107.6038123,0,0
v_107.602896_-6.903230,Jalan Raden Adipati Aria Wiranatakusumah,-6.9032304,107.602896,0,0
v_107.602347_-6.901563,Jalan Raden Adipati Aria Wiranatakusumah,-6.9015634,107.6023472,0,0
v_107.601457_-6.900360,Jalan Pasteur,-6.9003605,107.6014571,0,0
v_107.599989_-6.900358,Jalan Pasteur,-6.9003576,107.5999891,0,0
v_107.598568_-6.900377,Jalan Pasteur,-6.9003769,107.5985681,0,0
5639376088,Garunggang Kulon,-6.8989275,107.5973503,0,0
12825997250,SPBU Paskal,-6.8979069,107.5973197,0,0
29357744,Cibarengkok,-6.8960662,107.5972487,0,0
v_107.597140_-6.894540,Jalan Sukajadi,-6.8945401,107.5971398,0,0
v_107.597039_-6.893016,Jalan Sukajadi,-6.8930157,107.5970391,0,0
29357741,Sukagalih PVJ,-6.8913554,107.596952,0,0
v_107.596903_-6.889979,Jalan Sukajadi,-6.8899793,107.5969028,0,0
1746711065,Polsek Sukajadi,-6.8878725,107.5967776,0,0
v_107.596432_-6.886040,Jalan Sukajadi,-6.88604,107.5964324,0,0
3380200149,Mandiri Sukajadi,-6.8836453,107.5965088,0,0
v_107.596460_-6.882150,Jalan Sukajadi,-6.8821498,107.5964601,0,0
v_107.596385_-6.880668,Jalan Sukajadi,-6.8806684,107.5963847,0,0
3376673098,Sukawangi,-6.8780655,107.596246,0,0
12825997252,Gereja Santo Laurentius,-6.8756034,107.5960887,0,0
12809082550,SMPN 15 Bandung,-6.8739356,107.5957592,0,0
v_107.594807_-6.872718,Jalan Dokter Danudirja Setiabudhi,-6.8727176,107.5948065,0,0
v_107.593895_-6.871503,Jalan Dokter Danudirja Setiabudhi,-6.8715029,107.593895,0,0
v_107.593506_-6.870101,Jalan Dokter Danudirja Setiabudhi,-6.8701005,107.593506,0,0
v_107.593632_-6.868684,Jalan Dokter Danudirja Setiabudhi,-6.8686837,107.5936323,0,0
v_107.593885_-6.866687,Jalan Dokter Danudirja Setiabudhi,-6.8666866,107.5938847,0,0
12809046293,Gegerkalong Girang,-6.8653206,107.594077,0,0
v_107.594398_-6.863846,Jalan Dokter Setiabudi,-6.8638456,107.5943977,0,0
v_107.595682_-6.863178,Jalan Dokter Setiabudi,-6.8631776,107.5956823,0,0
v_107.595548_-6.861742,Jalan Dokter Setiabudi,-6.8617416,107.5955484,0,0
3376673106,Museum Pendidikan Nasional UPI,-6.8600369,107.594757,0,0
11711070002,Terminal Ledeng,-6.85933,107.5951942,0,0
v_107.594683_-6.860589,Jalan Dokter Setiabudi,-6.8605895,107.5946834,0,0
v_107.595836_-6.863069,Jalan Dokter Setiabudi,-6.8630694,107.5958359,0,0
v_107.594504_-6.863605,Jalan Dokter Setiabudi,-6.8636046,107.5945037,0,0
12809046291,Seberang Unpas Setiabudi,-6.8664168,107.5939201,0,0
12809046289,Poltekpar NHI,-6.8682279,107.5936817,0,0
3376673102,Simpang Gegerkalong Hilir,-6.8693537,107.5935629,0,0
v_107.593618_-6.870782,Jalan Dokter Danudirja Setiabudhi,-6.8707823,107.5936179,0,0
v_107.594414_-6.872232,Jalan Dokter Danudirja Setiabudhi,-6.8722322,107.5944136,0,0
3376673100,Borma Setiabudhi,-6.8746244,107.5962411,0,0
v_107.597224_-6.876010,Jalan Dokter Danudirja Setiabudhi,-6.8760098,107.5972243,0,0
v_107.597548_-6.877567,Jalan Dokter Danudirja Setiabudhi,-6.8775669,107.5975476,0,0
v_107.598069_-6.878857,Jalan Dokter Danudirja Setiabudhi,-6.8788573,107.5980688,0,0
v_107.598747_-6.880298,Jalan Dokter Danudirja Setiabudhi,-6.8802981,107.598747,0,0
v_107.599472_-6.881489,Jalan Dokter Danudirja Setiabudhi,-6.8814891,107.5994716,0,0
v_107.600512_-6.882585,Jalan Dokter Danudirja Setiabudhi,-6.8825853,107.600512,0,0
6165179774,Setiabudi Hegarmanah,-6.8829555,107.6023609,0,0
v_107.603643_-6.883465,Jalan Dokter Setiabudi,-6.8834648,107.6036432,0,0
v_107.604456_-6.884926,Jalan Dokter Setiabudi,-6.8849265,107.6044564,0,0
12811652377,SDN 065 Cihampelas,-6.8869867,107.6040408,0,0
v_107.603999_-6.888392,Jalan Cihampelas,-6.8883924,107.6039991,0,0
v_107.604194_-6.889991,Jalan Cihampelas,-6.8899911,107.604194,0,0
v_107.604236_-6.891624,Jalan Cihampelas,-6.8916244,107.6042355,0,0
v_107.604172_-6.893037,Jalan Cihampelas,-6.8930371,107.6041718,0,0
v_107.604064_-6.894546,Jalan Cihampelas,-6.8945463,107.6040642,0,0
3376669082,Cihampelas Eyckman,-6.8959031,107.6039451,0,0
v_107.603995_-6.897430,Jalan Cihampelas,-6.89743,107.603995,0,0
v_107.604096_-6.898811,Jalan Cihampelas,-6.8988115,107.6040958,0,0
v_107.604181_-6.900158,Jalan Cihampelas,-6.9001579,107.6041813,0,0
v_107.604322_-6.902344,Jalan Cihampelas,-6.9023437,107.6043224,0,0
12809237525,Linggawastu,-6.9039986,107.605369,0,0
3376669071,Pasar Kembang Wastukencana,-6.9048943,107.607265,0,0
v_107.607749_-6.906180,Jalan Wastukencana,-6.9061802,107.6077494,0,0
v_107.609230_-6.906784,Jalan L.L. RE. Martadinata,-6.9067838,107.6092299,0,0
5825243776,Bandung Electronic Center,-6.9081456,107.6093744,0,0
v_107.608453_-6.909208,Jalan Purnawarman,-6.9092079,107.6084529,0,0
3376669066,Museum Kota Bandung,-6.9101076,107.6097021,0,0
v_107.611144_-6.909773,Jalan Aceh,-6.9097733,107.6111443,0,0
v_107.612607_-6.909817,Jalan Aceh,-6.9098172,107.6126071,0,0
v_107.613870_-6.910554,Jalan Kalimantan,-6.9105545,107.6138696,0,0
11739021641,Simpang Ijan,-6.9280445,107.6036329,0,0
v_107.603528_-6.929550,Jalan Otto Iskandardinata,-6.9295503,107.6035279,0,0
v_107.603397_-6.931428,Jalan Otto Iskandardinata,-6.9314278,107.603397,0,0
3383341282,Pasar Astana Anyar,-6.9306827,107.601334,0,0
v_107.600069_-6.930168,Jalan Panjunan,-6.9301678,107.6000694,0,0
2325452881,Jalan Panjunan,-6.9298621,107.5973451,0,0
v_107.597923_-6.927818,Jalan Kopo,-6.9278179,107.5979226,0,0
12806765749,Simpang Astanaanyar Pasirkoja,-6.9263959,107.5997325,0,0
12809227879,Jalan Haji Safari,-6.9247939,107.5991575,0,0
v_107.598700_-6.923367,Jalan Astana Anyar,-6.9233666,107.5987003,0,0
v_107.597348_-6.923102,Jalan Pagarsih Barat,-6.9231019,107.5973482,0,0
2723584288,Pasar Ulekan Pagarsih,-6.9229321,107.5957657,0,0
v_107.593952_-6.922727,Jalan Pagarsih Barat,-6.922727,107.5939519,0,0
v_107.591776_-6.922499,Jalan Pagarsih Barat,-6.9224992,107.5917759,0,0
v_107.589868_-6.922316,Jalan Pagarsih Barat,-6.9223157,107.5898681,0,0
v_107.588134_-6.922153,Jalan Pagarsih Barat,-6.9221534,107.5881341,0,0
2325452491,Unknown,-6.9219839,107.5859557,0,0
v_107.584573_-6.921910,Jalan Pagarsih Barat,-6.9219104,107.5845732,0,0
v_107.583176_-6.922154,Jalan Pagarsih Barat,-6.9221543,107.583176,0,0
1911634972,Pasar Cangkring/Situ Aksan,-6.9235251,107.5813879,0,0
v_107.580990_-6.922166,Jalan Suryani,-6.9221656,107.58099,0,0
1911634983,Jalan Suryani,-6.9206062,107.580869,0,0
v_107.579402_-6.920566,Jalan Suryani Dalam,-6.9205663,107.5794019,0,0
v_107.577727_-6.920533,Jalan Suryani Dalam,-6.920533,107.5777274,0,0
1911634927,RS Priangan,-6.9223077,107.5769466,0,0
v_107.575570_-6.922070,Jalan terdekat,-6.9220701,107.5755699,0,0
6442840898,Simpang Holis Soekarno Hatta,-6.923662,107.5751042,0,0
v_107.577360_-6.920611,Jalan Nana Rohana,-6.9206105,107.5773603,0,0
v_107.577495_-6.920530,Jalan Suryani Dalam,-6.9205305,107.577495,0,0
v_107.578871_-6.920558,Jalan Suryani Dalam,-6.9205583,107.5788708,0,0
v_107.582470_-6.922679,Jalan Pagarsih Barat,-6.9226789,107.5824701,0,0
v_107.583637_-6.921938,Jalan Pagarsih Barat,-6.9219375,107.5836371,0,0
v_107.587973_-6.922138,Jalan Pagarsih Barat,-6.9221376,107.5879726,0,0
v_107.589732_-6.922298,Jalan Pagarsih Barat,-6.9222979,107.5897321,0,0
v_107.591192_-6.922443,Jalan Pagarsih Barat,-6.9224429,107.5911917,0,0
v_107.592668_-6.922586,Jalan Pagarsih Barat,-6.922586,107.5926679,0,0
v_107.597271_-6.923093,Jalan Pagarsih Barat,-6.9230932,107.5972707,0,0
v_107.598674_-6.923263,Jalan Pagarsih Barat,-6.9232626,107.5986744,0,0
v_107.600345_-6.923421,Jalan Kalipah Apo,-6.9234206,107.6003445,0,0
v_107.601783_-6.923575,Jalan Kalipah Apo,-6.9235754,107.6017833,0,0
2250562868,Otista/Kalipah Apo,-6.923931,107.6038724,0,0
v_107.603785_-6.925525,Jalan Otto Iskandardinata,-6.9255254,107.6037853,0,0
v_107.603697_-6.927107,Jalan Otto Iskandardinata,-6.9271072,107.6036969,0,0
v_107.603599_-6.928534,Jalan Otto Iskandardinata,-6.9285343,107.6035987,0,0
v_107.603500_-6.929948,Jalan Otto Iskandardinata,-6.9299478,107.6035002,0,0
v_107.605427_-6.931688,Jalan Ibu Inggit Ganarsih,-6.9316877,107.6054273,0,0
v_107.605578_-6.930239,Jalan Dewi Sartika,-6.930239,107.6055781,0,0
12887162310,Seberang Telkom Supratman,-6.9062831,107.6296635,0,0
5842007854,Ciliwung,-6.9040635,107.6282013,0,0
v_107.627215_-6.902529,Jalan Supratman,-6.9025295,107.6272147,0,0
v_107.626446_-6.901383,Jalan Supratman,-6.9013828,107.6264463,0,0
11707030828,PUSDAI B,-6.9011517,107.6241682,0,0
v_107.622700_-6.901182,Jalan Diponegoro,-6.901182,107.6227,0,0
v_107.621061_-6.901220,Jalan Diponegoro,-6.9012202,107.6210608,0,0
v_107.619512_-6.901267,Jalan Diponegoro,-6.9012668,107.6195121,0,0
v_107.618055_-6.901293,Jalan Diponegoro,-6.9012929,107.6180552,0,0
v_107.616432_-6.901355,Jalan Diponegoro,-6.9013546,107.6164318,0,0
v_107.615071_-6.900633,Jalan Diponegoro,-6.9006334,107.6150711,0,0
v_107.613470_-6.900475,Jalan Diponegoro,-6.9004747,107.6134699,0,0
v_107.611925_-6.899935,Jalan Sulanjana,-6.8999352,107.611925,0,0
v_107.610527_-6.899646,Jalan Sulanjana,-6.8996458,107.6105271,0,0
1969331852,Balubur Town Square,-6.8987437,107.6093403,0,0
3376871368,Pelesiran,-6.8970719,107.6096181,0,0
v_107.608956_-6.895083,Jalan Taman Sari,-6.8950833,107.6089556,0,0
11262097538,Tamansari (Bonbin),-6.8933258,107.6083698,0,0
v_107.608050_-6.891986,Jalan Taman Sari,-6.8919857,107.6080495,0,0
v_107.608050_-6.890557,Jalan Taman Sari,-6.8905569,107.6080495,0,0
12805921498,BATAN,-6.8888308,107.6080995,0,0
3530181074,Sabuga ITB,-6.8877401,107.609232,0,0
v_107.611359_-6.887288,Jalan Taman Sari,-6.8872884,107.6113589,0,0
3376871360,Babakan Siliwangi,-6.8849719,107.6114877,0,0
v_107.609955_-6.884505,Jalan Siliwangi,-6.8845045,107.6099548,0,0
v_107.608614_-6.884934,Jalan Siliwangi,-6.8849345,107.6086137,0,0
v_107.607253_-6.884632,Jalan Siliwangi,-6.8846315,107.6072525,0,0
v_107.605891_-6.883957,Jalan Siliwangi,-6.8839573,107.6058912,0,0
v_107.604619_-6.884589,Jalan Cihampelas,-6.884589,107.6046192,0,0
v_107.602392_-6.887808,Jalan Lamping,-6.8878077,107.6023924,0,0
v_107.600588_-6.887309,Jalan Lamping,-6.8873092,107.6005875,0,0
v_107.600408_-6.888716,Jalan Jurang,-6.8887161,107.6004083,0,0
v_107.599888_-6.890065,Jalan Jurang,-6.8900645,107.5998881,0,0
v_107.598427_-6.889332,Jalan Sukamaju,-6.8893317,107.5984265,0,0
v_107.597252_-6.888312,Jalan Sukamaju,-6.8883124,107.5972518,0,0
v_107.596703_-6.886814,Jalan Sukajadi,-6.8868139,107.5967027,0,0
v_107.596446_-6.885430,Jalan Sukajadi,-6.8854301,107.5964457,0,0
v_107.604460_-6.884556,Jalan Cihampelas,-6.8845564,107.6044603,0,0
1660116948,Gandok,-6.8836088,107.6056396,0,0
v_107.606756_-6.884650,Jalan Siliwangi,-6.8846502,107.6067555,0,0
v_107.608224_-6.884745,Jalan Siliwangi,-6.8847452,107.6082242,0,0
v_107.609621_-6.884582,Jalan Siliwangi,-6.884582,107.6096208,0,0
v_107.611234_-6.884753,Jalan Siliwangi,-6.8847532,107.6112344,0,0
12813270569,Sumur Bandung,-6.8856909,107.6127217,0,0
v_107.611695_-6.886584,Jalan Sumur Bandung,-6.8865843,107.6116953,0,0
v_107.610440_-6.887663,Jalan Taman Sari,-6.8876632,107.6104398,0,0
12805921497,FTMD ITB,-6.8888141,107.6080995,0,0
12805921499,Tamansari ITB,-6.8898018,107.6080694,0,0
v_107.608024_-6.891630,Jalan Taman Sari,-6.8916304,107.6080235,0,0
3376871366,Gelap Nyawang,-6.8946314,107.6086646,0,0
v_107.609440_-6.895985,Jalan Taman Sari,-6.8959853,107.6094398,0,0
12628813995,Tamansari Cikapayang,-6.8982089,107.610121,0,0
v_107.611570_-6.898749,Jalan Cikapayang,-6.8987489,107.6115705,0,0
v_107.609374_-6.899346,Jalan Taman Sari,-6.8993458,107.6093737,0,0
v_107.610693_-6.899686,Jalan Sulanjana,-6.8996859,107.6106935,0,0
v_107.612186_-6.900033,Jalan Sulanjana,-6.9000327,107.6121864,0,0
v_107.613905_-6.900554,Jalan Diponegoro,-6.900554,107.613905,0,0
v_107.615409_-6.900922,Jalan Diponegoro,-6.900922,107.6154093,0,0
v_107.616768_-6.901347,Jalan Diponegoro,-6.9013466,107.6167683,0,0
v_107.618155_-6.901287,Jalan Diponegoro,-6.9012865,107.618155,0,0
1666155324,Lapangan Gasibu A,-6.9011743,107.6199195,0,0
v_107.621303_-6.901138,Jalan Diponegoro,-6.9011378,107.6213033,0,0
11707030829,PUSDAI A,-6.9010661,107.6241876,0,0
5832220639,Unknown,-6.9010164,107.6259572,0,0
v_107.627307_-6.902479,Jalan Supratman,-6.9024786,107.6273065,0,0
5842007855,Muararajeun,-6.9039847,107.6282881,0,0
v_107.629215_-6.905407,Jalan Supratman,-6.9054074,107.6292146,0,0
12628835703,BKKBN,-6.8982473,107.6324886,0,0
12814754609,Simpang Jalaprang,-6.8984824,107.6317973,0,0
5832220641,SMPN 63 Kota Bandung,-6.8998537,107.6293496,0,0
v_107.627977_-6.899682,Jalan Surapati,-6.8996818,107.6279771,0,0
12814754605,Taman Pusdai,-6.8992562,107.6261407,0,0
v_107.624713_-6.899237,Jalan Surapati,-6.899237,107.6247134,0,0
12628813999,Wisma BKN,-6.89924,107.6222912,0,0
12806309233,PVMBG,-6.8992825,107.6203701,0,0
v_107.618078_-6.899378,Jalan Surapati,-6.8993781,107.618078,0,0
v_107.616724_-6.899176,Jalan Surapati,-6.8991759,107.6167242,0,0
v_107.614845_-6.899127,Jalan Prabu Dimuntur,-6.8991266,107.6148451,0,0
5832170587,Cikapayang Dago 2,-6.898852,107.6135004,0,0
11707030825,Panatayudha B,-6.8979434,107.6161572,0,0
v_107.616282_-6.896330,Jalan Dipatiukur,-6.8963301,107.6162817,0,0
12816121755,Simpang Dipatiukur Hasanudin,-6.8950876,107.6172155,0,0
12820400848,Unpad Kampus Iwa Koesoemasoemantri,-6.8932726,107.6179071,0,0
v_107.617578_-6.891899,Jalan Dipatiukur,-6.8918986,107.6175776,0,0
v_107.616813_-6.890591,Jalan Dipatiukur,-6.8905914,107.6168134,0,0
v_107.616034_-6.889473,Jalan Dipatiukur,-6.8894728,107.6160343,0,0
12816121752,Seberang UNIKOM,-6.8870114,107.6150918,0,0
v_107.614661_-6.885714,Jalan Dipatiukur,-6.8857145,107.6146614,0,0
v_107.603284_-6.895751,Jalan Profesor Christiaan Eijkman,-6.8957513,107.603284,0,0
v_107.601514_-6.895713,Jalan Profesor Christiaan Eijkman,-6.8957131,107.6015136,0,0
v_107.600143_-6.896272,Jalan Profesor Christiaan Eijkman,-6.8962722,107.6001433,0,0
v_107.598647_-6.896020,Jalan Profesor Christiaan Eijkman,-6.8960201,107.5986468,0,0
v_107.597383_-6.896789,Jalan Pasir Kaliki,-6.8967895,107.5973832,0,0
12809082541,Paskal RSHS,-6.8982378,107.5973829,0,0
v_107.598570_-6.900207,Jalan Pasteur,-6.900207,107.5985704,0,0
v_107.600364_-6.900192,Jalan Pasteur,-6.900192,107.6003645,0,0
v_107.598845_-6.900370,Jalan Pasteur,-6.9003703,107.5988453,0,0
12809082512,Seberang IWU,-6.9013037,107.5974649,0,0
12809082511,Seberang BPK Penabur,-6.9033942,107.5975385,0,0
3377321687,Depan Istana Plaza,-6.9054493,107.5976013,0,0
v_107.596617_-6.906518,Jalan Pajajaran,-6.906518,107.5966166,0,0
v_107.595257_-6.906661,Jalan Pajajaran,-6.9066609,107.5952568,0,0
11138593907,Padjajaran 2,-6.9068851,107.5939013,0,0
v_107.592540_-6.907099,Jalan Pajajaran,-6.9070991,107.5925401,0,0
v_107.591071_-6.907079,Jalan Pajajaran,-6.9070787,107.5910708,0,0
3377329064,Husein Pajajaran,-6.9068423,107.588209,0,0
v_107.586622_-6.907128,Jalan Abdul Rahman Saleh,-6.9071283,107.5866215,0,0
v_107.585257_-6.907341,Jalan Abdul Rahman Saleh,-6.9073414,107.5852567,0,0
v_107.583834_-6.907551,Jalan Abdul Rahman Saleh,-6.9075507,107.5838341,0,0
v_107.582140_-6.907708,Jalan Abdul Rahman Saleh,-6.9077081,107.5821405,0,0
v_107.580543_-6.907558,Jalan Abdul Rahman Saleh,-6.9075583,107.5805433,0,0
v_107.579165_-6.907794,Jalan Abdul Rahman Saleh,-6.907794,107.5791651,0,0
v_107.581146_-6.909540,Jalan Ciroyom,-6.9095396,107.5811457,0,0
v_107.582644_-6.910510,Jalan Ciroyom,-6.9105104,107.5826442,0,0
v_107.584500_-6.911786,Jalan Ciroyom,-6.911786,107.5845003,0,0
v_107.585738_-6.912667,Jalan Ciroyom,-6.9126671,107.5857378,0,0
v_107.587245_-6.913351,Jalan Ciroyom,-6.913351,107.5872455,0,0
3244745033,Terminal Ciroyom,-6.9141236,107.5885486,0,0
v_107.587225_-6.913506,Jalan Ciroyom,-6.9135056,107.5872252,0,0
v_107.589217_-6.912803,Jalan Layang Ciroyom,-6.9128027,107.589217,0,0
v_107.589398_-6.911412,Jalan Arjuna,-6.911412,107.5893984,0,0
v_107.588541_-6.908899,Jalan Aruna,-6.9088993,107.5885406,0,0
3377321681,Pintu Masuk Bandara Husein Sastranegara,-6.9067739,107.588219,0,0
v_107.589854_-6.906940,Jalan Pajajaran,-6.90694,107.5898536,0,0
7547053355,Pajajaran 1,-6.9070991,107.5925401,0,0
v_107.593901_-6.906885,Jalan Pajajaran,-6.9068851,107.5939013,0,0
3377321682,Istana Plaza (IP),-6.9053889,107.596171,0,0
12809082509,BPK Penabur,-6.9033926,107.5974789,0,0
12809082507,IWU,-6.9015643,107.597414,0,0
v_107.597854_-6.896295,Jalan Sederhana,-6.8962946,107.597854,0,0
v_107.598717_-6.894063,Jalan Sederhana,-6.8940629,107.5987172,0,0
v_107.599152_-6.892524,Jalan Sederhana,-6.8925236,107.5991519,0,0
3249461526,Pasar Sederhana,-6.8908128,107.5996153,0,0
v_107.598784_-6.889560,Jalan Sukamaju,-6.8895599,107.5987838,0,0
v_107.597502_-6.888547,Jalan Sukamaju,-6.8885472,107.5975019,0,0
v_107.596732_-6.887396,Jalan Sukajadi,-6.8873957,107.5967323,0,0
v_107.597354_-6.880875,Jalan Karang Sari,-6.8808747,107.5973545,0,0
v_107.599094_-6.881197,Jalan Karang Sari,-6.8811971,107.5990939,0,0
v_107.600091_-6.882227,Jalan Dokter Danudirja Setiabudhi,-6.8822275,107.6000907,0,0
v_107.612606_-6.885087,Jalan Siliwangi,-6.8850867,107.6126057,0,0
v_107.614001_-6.885277,Jalan Dipatiukur,-6.8852767,107.6140014,0,0
3375793672,Sekeloa,-6.8902412,107.6165653,0,0
12816121756,Magister Manajemen UNPAD,-6.8950233,107.617258,0,0
v_107.618245_-6.895961,Jalan Singaperbangsa,-6.8959612,107.6182454,0,0
v_107.618391_-6.898382,Jalan Wirayuda Barat,-6.8983823,107.6183907,0,0
12806309232,Jalan Merak,-6.89928,107.6204436,0,0
12628813998,Distan Jabar,-6.8992307,107.6227599,0,0
12814453796,Jalan Gagak,-6.8992266,107.6234921,0,0
5832220640,PUSDAI,-6.8992435,107.6259835,0,0
12628814000,Dapen Telkom,-6.8998503,107.6285873,0,0
12814754607,Seberang Imigrasi Bandung,-6.8988684,107.6312754,0,0
12628835702,Jalaprang,-6.8983546,107.6321413,0,0
v_107.633623_-6.897911,Jalan Surapati,-6.897911,107.6336231,0,0
v_107.630073_-6.906718,Jalan Supratman,-6.9067176,107.6300729,0,0
v_107.630944_-6.908078,Jalan Supratman,-6.9080775,107.6309444,0,0
12806853440,Den Jasa Ang,-6.9397848,107.6423227,0,0
v_107.642211_-6.941461,Jalan H. Ibrahim Adjie,-6.9414609,107.6422112,0,0
12806853435,SPBU Kebon Kangkung,-6.9428602,107.6421057,0,0
v_107.642000_-6.944341,Jalan H. Ibrahim Adjie,-6.9443407,107.642,0,0
v_107.641879_-6.945906,Jalan Terusan Kiara Condong,-6.9459062,107.6418788,0,0
v_107.641640_-6.947294,Jalan Terusan Kiara Condong,-6.9472937,107.6416396,0,0
v_107.641451_-6.948656,Jalan Terusan Kiara Condong,-6.9486559,107.6414507,0,0
v_107.641238_-6.950076,Jalan Terusan Kiara Condong,-6.9500765,107.6412375,0,0
v_107.640991_-6.951546,Jalan Terusan Kiara Condong,-6.9515459,107.6409914,0,0
v_107.640515_-6.953028,Jalan Terusan Kiara Condong,-6.9530277,107.6405149,0,0
v_107.641164_-6.954294,Jalan Marga Cinta,-6.9542938,107.6411644,0,0
v_107.642669_-6.954596,Jalan Marga Cinta,-6.9545964,107.6426693,0,0
v_107.644410_-6.954799,Jalan Marga Cinta,-6.954799,107.6444102,0,0
v_107.645806_-6.954913,Jalan Marga Cinta,-6.9549128,107.6458061,0,0
v_107.647339_-6.955039,Jalan Marga Cinta,-6.9550386,107.647339,0,0
v_107.648747_-6.955154,Jalan Marga Cinta,-6.9551542,107.6487472,0,0
v_107.650451_-6.955300,Jalan Marga Cinta,-6.9553005,107.6504514,0,0
12813271263,Seberang Borma Margacinta,-6.9554682,107.6521388,0,0
v_107.653805_-6.955654,Jalan Marga Cinta,-6.9556537,107.6538045,0,0
v_107.655203_-6.955820,Jalan Marga Cinta,-6.9558197,107.6552026,0,0
v_107.656250_-6.956697,Jalan Marga Cinta,-6.9566973,107.6562501,0,0
v_107.657221_-6.957647,Jalan Marga Cinta,-6.9576465,107.6572207,0,0
v_107.658451_-6.958420,Jalan Marga Cinta,-6.95842,107.6584505,0,0
v_107.659808_-6.959056,Jalan Marga Cinta,-6.9590558,107.6598079,0,0
35138488,Taman Lansia Margahayu Raya,-6.9597741,107.6615127,0,0
v_107.662989_-6.960238,Jalan Marga Cinta,-6.9602384,107.6629888,0,0
v_107.664612_-6.960680,Jalan Marga Cinta,-6.9606804,107.6646115,0,0
v_107.665971_-6.961040,Jalan Marga Cinta,-6.9610398,107.6659707,0,0
v_107.667608_-6.961430,Jalan Marga Cinta,-6.9614297,107.6676083,0,0
v_107.669038_-6.961653,Jalan Marga Cinta,-6.961653,107.6690383,0,0
v_107.670644_-6.961846,Jalan Marga Cinta,-6.9618456,107.6706444,0,0
v_107.672043_-6.962059,Marga Cinta,-6.9620589,107.6720429,0,0
v_107.672762_-6.963318,Marga Cinta,-6.963318,107.6727624,0,0
v_107.674233_-6.963868,Jalan Derwati,-6.9638681,107.6742333,0,0
v_107.675608_-6.963982,Jalan Derwati,-6.9639815,107.6756082,0,0
v_107.677144_-6.964118,Jalan Derwati,-6.9641178,107.6771439,0,0
v_107.678525_-6.964326,Jalan Derwati,-6.9643262,107.6785249,0,0
v_107.679950_-6.964418,Jalan Derwati,-6.9644184,107.6799497,0,0
v_107.681793_-6.964592,Jalan Derwati,-6.9645917,107.6817934,0,0
v_107.683179_-6.964799,Jalan Derwati,-6.9647988,107.6831794,0,0
v_107.684747_-6.965077,Jalan Derwati,-6.9650774,107.6847468,0,0
2518053983,Simpang Derwati,-6.9655502,107.6868117,0,0
v_107.678027_-6.964225,Jalan Derwati,-6.9642245,107.6780266,0,0
3383628375,SMPN 51 Bandung,-6.9644172,107.6798172,0,0
v_107.681212_-6.964513,Jalan Derwati,-6.9645134,107.6812118,0,0
12813271267,SDN 069 Cipamokolan,-6.9648031,107.6832053,0,0
v_107.676614_-6.964068,Jalan Derwati,-6.9640677,107.6766137,0,0
v_107.672872_-6.963736,Jalan Derwati,-6.9637355,107.672872,0,0
v_107.672623_-6.962209,Marga Cinta,-6.9622086,107.6726232,0,0
v_107.672754_-6.963552,Marga Cinta,-6.9635517,107.6727541,0,0
v_107.672078_-6.962065,Marga Cinta,-6.9620645,107.6720775,0,0
v_107.668092_-6.961478,Jalan Marga Cinta,-6.9614777,107.6680921,0,0
v_107.669488_-6.961717,Jalan Marga Cinta,-6.9617174,107.6694877,0,0
v_107.663589_-6.960406,Jalan Marga Cinta,-6.9604055,107.6635892,0,0
v_107.665087_-6.960803,Jalan Marga Cinta,-6.9608035,107.6650869,0,0
2258306743,Pasar Ciwastra,-6.9611563,107.6664238,0,0
v_107.663539_-6.960389,Jalan Marga Cinta,-6.9603888,107.6635389,0,0
v_107.660163_-6.959233,Jalan Marga Cinta,-6.9592328,107.6601626,0,0
v_107.661473_-6.959760,Jalan Marga Cinta,-6.9597598,107.6614726,0,0
v_107.659914_-6.959102,Jalan Marga Cinta,-6.9591016,107.6599136,0,0
v_107.654779_-6.955755,Jalan Marga Cinta,-6.9557545,107.6547786,0,0
v_107.654718_-6.955750,Jalan Marga Cinta,-6.9557504,107.6547179,0,0
3383643778,Borma Margacinta,-6.9554392,107.6518488,0,0
v_107.653453_-6.955610,Jalan Marga Cinta,-6.9556096,107.6534527,0,0
v_107.649921_-6.955249,Jalan Marga Cinta,-6.955249,107.649921,0,0
v_107.643836_-6.954751,Jalan Marga Cinta,-6.9547511,107.6438361,0,0
v_107.645204_-6.954863,Jalan Marga Cinta,-6.9548634,107.6452039,0,0
v_107.646691_-6.954985,Jalan Marga Cinta,-6.9549854,107.6466909,0,0
v_107.648486_-6.955132,Jalan Marga Cinta,-6.9551321,107.6484855,0,0
v_107.643818_-6.954750,Jalan Marga Cinta,-6.9547496,107.6438176,0,0
v_107.640423_-6.954158,Jalan Marga Cinta,-6.9541579,107.6404231,0,0
v_107.641761_-6.954402,Jalan Marga Cinta,-6.9544023,107.6417609,0,0
v_107.640336_-6.954148,Jalan Marga Cinta,-6.954148,107.6403362,0,0
v_107.640581_-6.952791,Jalan Terusan Kiara Condong,-6.9527909,107.6405809,0,0
v_107.641068_-6.951144,Jalan Terusan Kiara Condong,-6.9511442,107.6410675,0,0
v_107.641285_-6.949773,Jalan Terusan Kiara Condong,-6.9497731,107.641285,0,0
v_107.641499_-6.948367,Jalan Terusan Kiara Condong,-6.948367,107.6414995,0,0
v_107.641691_-6.946972,Jalan Terusan Kiara Condong,-6.9469718,107.6416912,0,0
12806853434,Jalan H. Basuki,-6.9443088,107.6418944,0,0
12806853438,Borma Kiaracondong,-6.9428669,107.6419879,0,0
12806853441,Seberang Jalan Sekejati,-6.9399607,107.6421744,0,0
v_107.642746_-6.933641,Jalan H. Ibrahim Adjie,-6.9336408,107.6427458,0,0
v_107.643078_-6.931948,Jalan H. Ibrahim Adjie,-6.9319479,107.6430775,0,0
v_107.643874_-6.930719,Jalan H. Ibrahim Adjie,-6.930719,107.643874,0,0
v_107.643967_-6.929325,Jalan H. Ibrahim Adjie,-6.9293251,107.6439665,0,0
v_107.644246_-6.927959,Jalan H. Ibrahim Adjie,-6.9279591,107.6442459,0,0
v_107.644466_-6.926552,Jalan H. Ibrahim Adjie,-6.9265517,107.6444657,0,0
v_107.644406_-6.924640,Jalan H. Ibrahim Adjie,-6.9246399,107.6444061,0,0
11707030827,Lapangan Gasibu B,-6.9012501,107.6201283,0,0
v_107.619273_-6.899937,Jalan Sentot Alibasyah,-6.8999367,107.6192733,0,0
12806868670,Tenth Avenue,-6.9458361,107.6408496,0,0
12806868674,Sekelimus Tengah,-6.9466415,107.6381159,0,0
v_107.636777_-6.947045,Jalan Soekarno-Hatta,-6.9470454,107.6367773,0,0
12806868677,Sekelimus Barat,-6.9475072,107.6353065,0,0
v_107.633797_-6.947990,Jalan Soekarno-Hatta,-6.9479897,107.633797,0,0
2614138793,Medal Sekarwangi,-6.9484371,107.6323136,0,0
v_107.630960_-6.948859,Jalan Soekarno-Hatta,-6.9488589,107.6309601,0,0
v_107.629621_-6.949172,Jalan Soekarno-Hatta,-6.9491718,107.6296209,0,0
12626499697,Bangunan Mart A,-6.9494451,107.6281496,0,0
v_107.626703_-6.949541,Jalan Soekarno-Hatta,-6.9495414,107.6267032,0,0
12626499700,LPKIA A,-6.9495008,107.6242225,0,0
12808867752,STIE Inaba,-6.9493807,107.6227995,0,0
2744242982,Pasirluyu Selatan/Sukaati,-6.9492577,107.6214461,0,0
3384018111,PT LEN Industri A,-6.9490929,107.6190348,0,0
12808867754,Mengger Girang,-6.9490185,107.6180229,0,0
v_107.616177_-6.948884,Jalan Soekarno-Hatta,-6.9488844,107.6161768,0,0
v_107.614621_-6.948771,Jalan Soekarno-Hatta,-6.9487713,107.6146214,0,0
12626529703,PLN UP3 Bandung A,-6.9485877,107.612094,0,0
11707031627,Simpang By Pass Soekarno Hatta B,-6.9483342,107.6087518,0,0
v_107.607257_-6.948231,Jalan Soekarno-Hatta,-6.9482306,107.6072566,0,0
12808867758,Ampera Soekarno Hatta,-6.9480749,107.6050974,0,0
12808867763,Karasak Lama,-6.9478683,107.6021954,0,0
v_107.600821_-6.947779,Jalan Soekarno-Hatta,-6.9477788,107.6008214,0,0
v_107.599142_-6.947670,Jalan Soekarno-Hatta,-6.9476696,107.5991425,0,0
v_107.597698_-6.947667,Jalan Soekarno-Hatta,-6.947667,107.5976981,0,0
v_107.596315_-6.947559,Jalan Soekarno-Hatta,-6.9475595,107.5963147,0,0
v_107.594933_-6.947329,Jalan Soekarno-Hatta,-6.9473294,107.5949328,0,0
3277891129,Seberang Terminal Leuwipanjang,-6.9469193,107.592997,0,0
v_107.591671_-6.946539,Jalan Soekarno-Hatta,-6.9465388,107.5916708,0,0
v_107.590408_-6.946017,Jalan terdekat,-6.9460172,107.5904084,0,0
11295303565,Leuwipanjang Soekarno Hatta,-6.9468277,107.5934341,0,0
v_107.594958_-6.947146,Jalan Soekarno-Hatta,-6.9471456,107.5949575,0,0
v_107.596446_-6.947335,Jalan Soekarno-Hatta,-6.9473347,107.5964458,0,0
v_107.598036_-6.947464,Jalan Soekarno-Hatta,-6.9474645,107.5980357,0,0
v_107.599554_-6.947601,Jalan Soekarno-Hatta,-6.9476014,107.5995536,0,0
12808867762,Inhoftank,-6.9478017,107.6022466,0,0
12808867760,Seberang Ampera Soekarno Hatta,-6.9479853,107.6051379,0,0
12808867756,Karasak Utara,-6.9480912,107.6067107,0,0
v_107.608654_-6.948220,Jalan Soekarno-Hatta,-6.9482197,107.6086542,0,0
3272360374,PLN UP3 Bandung B,-6.9484924,107.6121553,0,0
v_107.613817_-6.948613,Jalan Soekarno-Hatta,-6.9486125,107.6138166,0,0
v_107.617101_-6.948843,Jalan Soekarno-Hatta,-6.9488435,107.617101,0,0
3384018110,PT LEN Industri B,-6.9489877,107.619152,0,0
v_107.620759_-6.949105,Jalan Soekarno-Hatta,-6.949105,107.6207586,0,0
v_107.622516_-6.949235,Jalan Soekarno-Hatta,-6.949235,107.6225159,0,0
12626499699,LPKIA B,-6.9494301,107.6248137,0,0
v_107.626200_-6.949463,Jalan Soekarno-Hatta,-6.9494625,107.6262003,0,0
12626499698,Bangunan Mart B,-6.9493306,107.6280918,0,0
v_107.629440_-6.949118,Jalan Soekarno-Hatta,-6.9491179,107.6294404,0,0
v_107.630979_-6.948735,Jalan Soekarno-Hatta,-6.9487354,107.6309791,0,0
v_107.632902_-6.948125,Jalan Soekarno-Hatta,-6.9481249,107.6329015,0,0
12806868676,Griya Hemat,-6.9474943,107.6348946,0,0
v_107.636393_-6.947033,Jalan Soekarno-Hatta,-6.9470334,107.6363926,0,0
12806868672,Sekelimus Utara,-6.9464022,107.638444,0,0
v_107.639938_-6.945943,Jalan Soekarno-Hatta,-6.9459425,107.6399381,0,0
v_107.643844_-6.916159,Jalan H. Ibrahim Adjie,-6.9161586,107.6438444,0,0
11262097619,Stasiun Timur,-6.9153572,107.604546,0,0
v_107.606407_-6.914940,Jalan Stasiun Timur,-6.9149399,107.6064066,0,0
v_107.607564_-6.914214,Jalan Perintis Kemerdekaan,-6.9142136,107.6075641,0,0
v_107.608938_-6.913839,Jalan Perintis Kemerdekaan,-6.9138394,107.6089385,0,0
v_107.609091_-6.911161,Jalan Wastukencana,-6.9111612,107.6090912,0,0
v_107.608484_-6.909547,Jalan Wastukencana,-6.9095465,107.608484,0,0
v_107.607660_-6.908005,Jalan Wastukencana,-6.9080052,107.6076596,0,0
v_107.607769_-6.906588,Jalan Wastukencana,-6.9065879,107.6077691,0,0
v_107.620642_-6.868473,Jalan Ir. H. Djuanda,-6.8684727,107.6206417,0,0
v_107.620426_-6.869820,Jalan Ir. H. Djuanda,-6.8698198,107.6204257,0,0
v_107.620072_-6.871141,Jalan Ir. H. Djuanda,-6.8711405,107.6200722,0,0
v_107.619888_-6.872548,Jalan Ir. H. Djuanda,-6.8725481,107.6198876,0,0
v_107.617894_-6.876718,Jalan Ir. H. Djuanda,-6.8767176,107.6178937,0,0
v_107.617015_-6.877856,Jalan Ir. H. Djuanda,-6.8778557,107.617015,0,0
v_107.616480_-6.879571,Jalan Ir. H. Djuanda,-6.8795713,107.6164799,0,0
v_107.616103_-6.881018,Jalan Ir. H. Djuanda,-6.8810181,107.6161028,0,0
v_107.615489_-6.882287,Jalan Ir. H. Djuanda,-6.8822866,107.6154895,0,0
2034531651,UNIKOM Pascasarjana,-6.8858131,107.6137012,0,0
v_107.613615_-6.887416,Jalan Ir. H. Djuanda,-6.887416,107.6136151,0,0
v_107.613504_-6.889042,Jalan Ir. H. Djuanda,-6.8890418,107.613504,0,0
v_107.613322_-6.890582,Jalan Ir. H. Djuanda,-6.8905818,107.6133223,0,0
v_107.613190_-6.892027,Jalan Ir. H. Djuanda,-6.8920268,107.6131897,0,0
v_107.613081_-6.893456,Jalan Ir. H. Djuanda,-6.8934558,107.6130806,0,0
v_107.612966_-6.894805,Jalan Ir. H. Djuanda,-6.8948049,107.6129665,0,0
v_107.612849_-6.897272,Jalan Ir. H. Djuanda,-6.8972718,107.6128492,0,0
v_107.612800_-6.898722,Jalan Ir. H. Djuanda,-6.8987219,107.6128004,0,0
v_107.612693_-6.900068,Jalan Ir. H. Djuanda,-6.9000677,107.6126934,0,0
v_107.612060_-6.901350,Jalan Ir. H. Djuanda,-6.9013501,107.6120605,0,0
v_107.611441_-6.902847,Jalan Ir. H. Djuanda,-6.9028466,107.6114407,0,0
v_107.610613_-6.905880,Jalan Ir. H. Djuanda,-6.9058802,107.6106127,0,0
v_107.610609_-6.907565,Jalan Merdeka,-6.907565,107.6106086,0,0
v_107.610627_-6.909103,Jalan Merdeka,-6.9091029,107.6106269,0,0
v_107.610551_-6.911429,Jalan Merdeka,-6.9114294,107.6105511,0,0
v_107.610342_-6.913613,Jalan Merdeka,-6.9136128,107.6103417,0,0
v_107.609012_-6.913920,Jalan Perintis Kemerdekaan,-6.9139197,107.6090123,0,0
v_107.608959_-6.915946,Jalan Braga,-6.9159458,107.6089588,0,0
v_107.607494_-6.915549,Jalan Suniaraja,-6.9155493,107.6074943,0,0
v_107.606127_-6.915498,Jalan Suniaraja,-6.9154985,107.6061274,0,0
11711326974,Perintis Kemerdekaan,-6.9140241,107.607935,0,0
11735248675,Bank Indonesia,-6.9145426,107.608993,0,0
1849525838,Lembong,-6.916445,107.609811,0,0
10801865379,Telkom Lembong,-6.9170839,107.6111029,0,0
11735248678,RSU Bungsu,-6.9182518,107.6132908,0,0
v_107.615709_-6.919453,Jalan Veteran,-6.9194533,107.6157093,0,0
v_107.618949_-6.908994,Jalan Lombok,-6.9089936,107.6189494,0,0
v_107.619518_-6.907564,Jalan Lombok,-6.9075638,107.6195179,0,0
v_107.620771_-6.906860,Jalan Lombok,-6.90686,107.6207709,0,0
v_107.621340_-6.905340,Jalan Citarum,-6.9053403,107.6213404,0,0
v_107.622431_-6.904503,Jalan terdekat,-6.9045035,107.6224309,0,0
v_107.623423_-6.903349,Jalan Citarum,-6.9033491,107.6234233,0,0
v_107.624530_-6.902051,Jalan Citarum,-6.9020512,107.6245301,0,0
v_107.625606_-6.901026,Jalan Diponegoro,-6.901026,107.6256055,0,0
v_107.626915_-6.901885,Jalan Supratman,-6.9018846,107.626915,0,0
v_107.634187_-6.897263,Jalan Pahlawan,-6.897263,107.6341868,0,0
v_107.634657_-6.895355,Jalan Pahlawan,-6.8953549,107.6346567,0,0
v_107.635036_-6.893863,Jalan Pahlawan,-6.8938627,107.6350361,0,0
v_107.634570_-6.892444,Jalan Cikutra Barat,-6.8924443,107.6345702,0,0
v_107.632605_-6.892234,Jalan Cikutra Barat,-6.8922337,107.6326048,0,0
v_107.631164_-6.892247,Jalan Cikutra Barat,-6.8922471,107.6311643,0,0
v_107.629829_-6.891940,Jalan Cikutra Barat,-6.8919403,107.6298288,0,0
v_107.628454_-6.892271,Jalan Cikutra Barat,-6.8922707,107.628454,0,0
v_107.627237_-6.891626,Jalan Sadang Serang,-6.8916259,107.6272374,0,0
3252929646,Terminal Sadang Serang,-6.8911775,107.6252674,0,0
v_107.627085_-6.891199,Jalan Terminal Sadangserang,-6.8911991,107.6270847,0,0
v_107.627460_-6.892177,Jalan Sadang Serang,-6.8921769,107.6274597,0,0
v_107.630431_-6.892087,Jalan Cikutra Barat,-6.8920872,107.630431,0,0
v_107.634279_-6.892402,Jalan Cikutra Barat,-6.8924016,107.6342792,0,0
v_107.625087_-6.901428,Jalan Citarum,-6.9014279,107.6250873,0,0
v_107.624144_-6.902626,Jalan Citarum,-6.9026263,107.6241445,0,0
v_107.623263_-6.903676,Jalan Citarum,-6.9036761,107.6232631,0,0
v_107.622400_-6.904769,Jalan Citarum,-6.9047685,107.6224003,0,0
v_107.621444_-6.905894,Jalan Citarum,-6.9058938,107.6214436,0,0
v_107.620181_-6.907118,Jalan Lombok,-6.907118,107.620181,0,0
v_107.619013_-6.908767,Jalan Lombok,-6.9087672,107.6190132,0,0
v_107.612667_-6.911644,Jalan Sumatra,-6.9116438,107.6126673,0,0
v_107.612469_-6.910277,Jalan Sumatra,-6.9102774,107.6124686,0,0
319706142,RSAU dr. Salamun,-6.8635418,107.6049689,0,0
v_107.605792_-6.865693,Jalan Ciumbuleuit,-6.8656927,107.6057919,0,0
v_107.605882_-6.867133,Jalan Ciumbuleuit,-6.8671331,107.6058819,0,0
v_107.605885_-6.868743,Jalan Ciumbuleuit,-6.8687427,107.6058851,0,0
v_107.605587_-6.870187,Jalan Ciumbuleuit,-6.8701871,107.6055874,0,0
v_107.605242_-6.871863,Jalan Ciumbuleuit,-6.8718629,107.6052416,0,0
v_107.604871_-6.873397,Jalan Ciumbuleuit,-6.873397,107.6048709,0,0
3462094658,UNPAR,-6.8753147,107.6044647,0,0
v_107.604148_-6.876691,Jalan Ciumbuleuit,-6.8766913,107.6041476,0,0
v_107.603715_-6.878637,Jalan Ciumbuleuit,-6.8786367,107.6037148,0,0
v_107.603606_-6.880009,Jalan Ciumbuleuit,-6.8800095,107.603606,0,0
v_107.604036_-6.881322,Jalan Ciumbuleuit,-6.8813221,107.6040358,0,0
v_107.604574_-6.882599,Jalan Ciumbuleuit,-6.8825992,107.6045745,0,0
v_107.604692_-6.884288,Jalan Cihampelas,-6.8842883,107.6046925,0,0
3462094656,RS Advent,-6.8916075,107.6038612,0,0
v_107.602293_-6.891465,Jalan Sampurna,-6.8914651,107.6022929,0,0
v_107.600587_-6.891126,Jalan Sampurna,-6.8911259,107.6005866,0,0
v_107.599272_-6.892000,Jalan Sederhana,-6.8920002,107.5992715,0,0
29379371,Makmur,-6.8941794,107.5989838,0,0
v_107.600365_-6.894826,Jalan Makmur,-6.8948265,107.6003652,0,0
29379391,RS Hasan Sadikin,-6.8961604,107.5993726,0,0
v_107.598432_-6.895110,Jalan Sederhana,-6.8951102,107.5984316,0,0
v_107.598880_-6.893547,Jalan Sederhana,-6.8935471,107.5988798,0,0
v_107.604813_-6.883180,Jalan Ciumbuleuit,-6.8831805,107.6048131,0,0
v_107.604255_-6.881918,Jalan Ciumbuleuit,-6.8819184,107.6042552,0,0
v_107.603781_-6.880538,Jalan Ciumbuleuit,-6.8805383,107.6037812,0,0
v_107.604012_-6.877317,Jalan Ciumbuleuit,-6.8773172,107.6040125,0,0
v_107.604351_-6.875819,Jalan Ciumbuleuit,-6.8758194,107.6043513,0,0
v_107.604680_-6.874374,Jalan Ciumbuleuit,-6.8743741,107.6046798,0,0
v_107.604987_-6.872891,Jalan Ciumbuleuit,-6.8728913,107.6049868,0,0
v_107.605380_-6.871146,Jalan Ciumbuleuit,-6.8711463,107.6053805,0,0
v_107.605807_-6.869213,Jalan Ciumbuleuit,-6.8692127,107.6058073,0,0
v_107.605886_-6.867648,Jalan Ciumbuleuit,-6.8676479,107.6058864,0,0
v_107.606077_-6.865916,Jalan Ciumbuleuit,-6.8659161,107.6060767,0,0
v_107.605233_-6.864128,Jalan Ciumbuleuit,-6.8641277,107.6052329,0,0
v_107.605328_-6.864391,Jalan Ciumbuleuit,-6.8643915,107.6053285,0,0
v_107.606053_-6.865805,Jalan terdekat,-6.8658046,107.6060528,0,0
v_107.605883_-6.867535,Jalan Ciumbuleuit,-6.8675346,107.6058829,0,0
v_107.605852_-6.868989,Jalan Ciumbuleuit,-6.8689891,107.6058517,0,0
v_107.605495_-6.870577,Jalan Ciumbuleuit,-6.8705769,107.6054945,0,0
v_107.605169_-6.872146,Jalan Ciumbuleuit,-6.8721462,107.6051692,0,0
v_107.604825_-6.873670,Jalan Ciumbuleuit,-6.8736699,107.6048246,0,0
v_107.602591_-6.900371,Jalan Pasteur,-6.9003714,107.6025913,0,0
v_107.601143_-6.900358,Jalan Pasteur,-6.9003575,107.6011427,0,0
v_107.599587_-6.900361,Jalan Pasteur,-6.9003613,107.5995868,0,0
2012498684,Taman Adipura,-6.9068065,107.5992067,0,0
11138593915,SDN Pajajaran,-6.906861,107.599992,0,0
25500626,GOR Padjajaran,-6.9070015,107.6019252,0,0
3376669069,Kimia Farma,-6.9077123,107.6044661,0,0
v_107.604433_-6.909125,Jalan Cicendo,-6.9091247,107.6044333,0,0
v_107.604075_-6.910675,Jalan Cicendo,-6.9106747,107.6040749,0,0
293384756,Stasiun Bandung,-6.9125954,107.6029303,0,0
12806120204,Haji Mesri,-6.9124771,107.6007223,0,0
v_107.599041_-6.912374,Jalan Kebon Kawung,-6.912374,107.5990408,0,0
v_107.598065_-6.913333,Jalan HOS. Cokroaminoto,-6.9133326,107.598065,0,0
v_107.598117_-6.914778,Jalan HOS. Cokroaminoto,-6.9147779,107.5981172,0,0
25434237,GKI Kebonjati,-6.916282,107.5988546,0,0
11735248674,SMA Pasundan,-6.9162422,107.599627,0,0
1013407725,Stasiun Hall,-6.9161478,107.6024001,0,0
v_107.603164_-6.917383,Jalan Pasar Barat,-6.9173826,107.6031641,0,0
v_107.604290_-6.918278,Jalan Pasar Selatan,-6.9182779,107.6042904,0,0
v_107.604193_-6.919670,Jalan Otto Iskandardinata,-6.9196695,107.6041935,0,0
10778322188,Dalem Kaum,-6.9219758,107.6040142,0,0
v_107.604601_-6.923194,Jalan Kepatihan,-6.9231938,107.6046005,0,0
v_107.606135_-6.923403,Jalan Kepatihan,-6.9234028,107.6061346,0,0
v_107.607335_-6.922508,Jalan Dalem Kaum,-6.9225078,107.6073353,0,0
11711275743,Alun-Alun Bandung,-6.9211653,107.6071455,0,0
12808912264,Pos Banceuy,-6.9205454,107.6065186,0,0
v_107.606667_-6.919094,Jalan Banceuy,-6.919094,107.6066668,0,0
v_107.608065_-6.919330,Jalan ABC,-6.9193303,107.6080647,0,0
v_107.609864_-6.919714,Jalan ABC,-6.9197138,107.6098643,0,0
v_107.611268_-6.919941,Jalan Naripan,-6.919941,107.6112676,0,0
v_107.612724_-6.920208,Jalan Naripan,-6.9202078,107.6127241,0,0
12823636734,Rumah Sakit Murni Teguh,-6.9208368,107.6159966,0,0
v_107.619086_-6.921383,Jalan Naripan,-6.9213831,107.6190864,0,0
v_107.617949_-6.922133,Jalan Jenderal Ahmad Yani,-6.9221334,107.6179492,0,0
v_107.619412_-6.922597,Jalan Jenderal Gatot Subroto,-6.9225967,107.6194125,0,0
v_107.619969_-6.923855,Jalan Burangrang,-6.9238549,107.6199691,0,0
v_107.619745_-6.925417,Jalan Burangrang,-6.9254171,107.6197453,0,0
v_107.621085_-6.926014,Jalan Halimun,-6.9260138,107.6210854,0,0
v_107.622641_-6.926365,Jalan Halimun,-6.9263649,107.6226412,0,0
v_107.622568_-6.927865,Jalan Malabar,-6.9278645,107.6225684,0,0
v_107.624047_-6.928882,Jalan Talaga Bodas,-6.9288822,107.6240469,0,0
v_107.625436_-6.929239,Jalan Talaga Bodas,-6.9292386,107.6254359,0,0
12809462425,Seberang Kangkung Kaler,-6.9308642,107.6261794,0,0
v_107.625828_-6.932286,Jalan Pelajar Pejuang 45,-6.9322856,107.6258277,0,0
v_107.627203_-6.933048,Jalan Raden Adipati Aria Martanegara,-6.9330478,107.6272027,0,0
v_107.632385_-6.935649,Jalan Reog,-6.9356488,107.6323847,0,0
v_107.631946_-6.937528,Jalan Reog,-6.9375285,107.6319463,0,0
v_107.631362_-6.938801,Jalan Reog,-6.9388005,107.6313622,0,0
v_107.629781_-6.939116,Jalan Karawitan,-6.9391159,107.629781,0,0
v_107.628764_-6.940352,Jalan Kliningan,-6.9403524,107.6287636,0,0
12808948215,Kliningan Buahbatu,-6.9426596,107.6282283,0,0
v_107.630216_-6.944730,Jalan Buah Batu,-6.9447298,107.630216,0,0
v_107.631228_-6.945792,Jalan Buah Batu,-6.9457923,107.6312283,0,0
v_107.632235_-6.946824,Jalan Buah Batu,-6.9468242,107.6322352,0,0
v_107.633229_-6.947788,Jalan Buah Batu,-6.9477884,107.6332291,0,0
v_107.641371_-6.945532,Jalan Soekarno-Hatta,-6.945532,107.641371,0,0
5825209951,Simpang Samsat Kiaracondong,-6.9450226,107.6428119,0,0
12806851389,STT Mandala,-6.944662,107.6438888,0,0
12806851390,SMK Medika Com,-6.9438278,107.6464874,0,0
v_107.647893_-6.943377,Jalan Soekarno-Hatta,-6.9433774,107.6478935,0,0
12806851392,Unibi,-6.9425403,107.6505153,0,0
12806851396,Cidurian Utara,-6.941787,107.6528692,0,0
v_107.654812_-6.941184,Jalan Soekarno-Hatta,-6.941184,107.6548123,0,0
12806851393,SMKN 9 Bandung,-6.9405212,107.6569119,0,0
3375689664,Jasa Raharja Jabar,-6.9400924,107.6582639,0,0
12806851400,Suparma,-6.9395718,107.6601512,0,0
v_107.661972_-6.939220,Jalan Soekarno-Hatta,-6.9392196,107.6619723,0,0
12806868601,Kawaluyaan,-6.9390207,107.6635594,0,0
v_107.665095_-6.938872,Jalan Soekarno-Hatta,-6.9388715,107.6650947,0,0
12806868603,Sanggar Hurip,-6.938728,107.6672726,0,0
v_107.668668_-6.938632,Jalan Soekarno-Hatta,-6.9386322,107.6686684,0,0
v_107.670697_-6.938477,Jalan Soekarno-Hatta,-6.9384772,107.6706974,0,0
v_107.672241_-6.938368,Jalan Soekarno-Hatta,-6.9383679,107.6722412,0,0
v_107.673913_-6.938250,Jalan Soekarno-Hatta,-6.9382504,107.673913,0,0
v_107.675303_-6.938155,Jalan Soekarno-Hatta,-6.9381554,107.6753034,0,0
12806868618,Cisaranten Kulon,-6.9379974,107.6775339,0,0
12806868620,KPP Pratama Cicadas,-6.9378628,107.6794352,0,0
v_107.681157_-6.937741,Jalan Soekarno-Hatta,-6.9377409,107.6811571,0,0
v_107.682927_-6.937623,Jalan Soekarno-Hatta,-6.9376226,107.6829267,0,0
v_107.684452_-6.937515,Jalan Soekarno-Hatta,-6.937515,107.6844521,0,0
v_107.685905_-6.937405,Jalan Soekarno-Hatta,-6.9374047,107.6859053,0,0
v_107.687525_-6.937284,Jalan Soekarno-Hatta,-6.9372836,107.6875247,0,0
v_107.689008_-6.937172,Jalan Soekarno-Hatta,-6.9371718,107.6890078,0,0
v_107.690662_-6.937042,Jalan Soekarno-Hatta,-6.9370418,107.6906621,0,0
v_107.692207_-6.936965,Jalan Soekarno-Hatta,-6.9369654,107.6922068,0,0
v_107.694321_-6.936780,Jalan Soekarno-Hatta,-6.9367804,107.6943211,0,0
3780800108,Pasar Induk Gedebage,-6.9364151,107.6972019,0,0
v_107.695858_-6.936921,Jalan Soekarno-Hatta,-6.9369214,107.6958577,0,0
v_107.694463_-6.937021,Jalan Soekarno-Hatta,-6.937021,107.6944633,0,0
12806516344,Barat Simpang Gedebage,-6.9372117,107.6918125,0,0
v_107.690451_-6.937307,Jalan Soekarno-Hatta,-6.9373068,107.6904515,0,0
v_107.688397_-6.937453,Jalan Soekarno-Hatta,-6.9374526,107.6883969,0,0
v_107.686101_-6.937624,Jalan Soekarno-Hatta,-6.9376237,107.686101,0,0
v_107.684578_-6.937736,Jalan Soekarno-Hatta,-6.9377364,107.684578,0,0
v_107.682445_-6.937881,Jalan Soekarno-Hatta,-6.9378809,107.6824446,0,0
12806868621,SMKN 6 Bandung,-6.9380944,107.6794141,0,0
12806868622,Cipamokolan,-6.9382789,107.6768401,0,0
v_107.675427_-6.938381,Jalan Soekarno-Hatta,-6.9383807,107.6754266,0,0
12806868623,Aria Graha,-6.9385626,107.6729122,0,0
v_107.671257_-6.938678,Jalan Soekarno-Hatta,-6.9386784,107.6712568,0,0
3375689668,RS Al Islam,-6.9388175,107.6692698,0,0
12806868625,Metro,-6.93901,107.6665574,0,0
v_107.665022_-6.939121,Jalan Soekarno-Hatta,-6.9391212,107.6650224,0,0
12806868626,Rancabolang,-6.9392635,107.6633094,0,0
v_107.661911_-6.939446,Jalan Soekarno-Hatta,-6.9394464,107.6619105,0,0
12806868627,SMKN 7 Bandung,-6.939893,107.6598099,0,0
12806868632,Gagak Rimang,-6.9400797,107.6590642,0,0
3272226033,Metro Indah Mall,-6.9403972,107.6580268,0,0
12806868633,BPN Kanwil Jabar,-6.9406892,107.6570876,0,0
v_107.655377_-6.941236,Jalan Soekarno-Hatta,-6.9412355,107.6553771,0,0
12806851397,Cidurian Selatan,-6.9420012,107.6529256,0,0
12806868637,Kantor Pos Sekejati,-6.9427159,107.6506763,0,0
v_107.649306_-6.943160,Jalan Soekarno-Hatta,-6.9431604,107.6493065,0,0
v_107.647852_-6.943620,Jalan Soekarno-Hatta,-6.9436201,107.6478515,0,0
12806868639,Disnaker Jabar,-6.944058,107.646481,0,0
12806868640,UNINUS,-6.9448492,107.6441008,0,0
v_107.642667_-6.945316,Jalan Soekarno-Hatta,-6.9453158,107.642667,0,0
12808948218,Guntursari Wetan,-6.9465686,107.6318869,0,0
v_107.630853_-6.945495,Jalan Buah Batu,-6.9454952,107.6308527,0,0
v_107.629004_-6.943576,Jalan Buah Batu,-6.9435762,107.6290045,0,0
1980677053,ISBI Bandung,-6.942597,107.6280578,0,0
v_107.628562_-6.940999,Jalan Kliningan,-6.940999,107.6285618,0,0
v_107.629009_-6.939585,Jalan Kliningan,-6.9395855,107.6290093,0,0
v_107.628054_-6.938263,Jalan Karawitan,-6.9382632,107.628054,0,0
v_107.626509_-6.937328,Jalan Karawitan,-6.9373275,107.6265094,0,0
v_107.625733_-6.936196,Jalan Maskumambang,-6.9361963,107.6257326,0,0
12806868635,Golkar Jawa Barat,-6.9337673,107.6269745,0,0
v_107.625973_-6.932727,Jalan Raden Adipati Aria Martanegara,-6.9327273,107.6259726,0,0
12809462424,Kangkung Kaler,-6.9308456,107.6260901,0,0
v_107.626323_-6.929494,Jalan terdekat,-6.9294937,107.6263234,0,0
v_107.624867_-6.929092,Jalan Talaga Bodas,-6.9290924,107.6248675,0,0
v_107.623114_-6.928645,Jalan Talaga Bodas,-6.9286446,107.6231135,0,0
v_107.623420_-6.927297,Jalan Palasari,-6.9272967,107.6234197,0,0
v_107.623714_-6.925252,Jalan Malabar,-6.925252,107.623714,0,0
v_107.624240_-6.923776,Jalan Malabar,-6.9237756,107.6242404,0,0
v_107.624663_-6.922452,Jalan Malabar,-6.9224524,107.6246627,0,0
11735248683,Kantor Pos Kosambi,-6.9192144,107.6235031,0,0
3277420346,Seberang Pasar Kosambi,-6.9199617,107.6220644,0,0
11735248705,Ketapang,-6.921143,107.619848,0,0
12806120209,Taman Musik,-6.9122853,107.6165113,0,0
v_107.604645_-6.914485,Jalan Kebon Jukut,-6.9144848,107.6046449,0,0
v_107.604692_-6.912762,Jalan Otto Iskandardinata,-6.9127619,107.604692,0,0
v_107.604621_-6.913996,Jalan Otto Iskandardinata,-6.9139963,107.604621,0,0
11739021629,SMAN 6 Bandung,-6.9114098,107.5979188,0,0
v_107.597809_-6.909947,Jalan HOS. Cokroaminoto,-6.909947,107.5978086,0,0
12806120202,SDN 013 Pajajaran,-6.9081059,107.5976849,0,0
5825369226,Unknown,-6.9058209,107.59755,0,0
12809082539,Djunjunan Paskal,-6.9003956,107.5968191,0,0
v_107.595221_-6.899972,Jalan Dr. Djunjunan,-6.8999715,107.5952214,0,0
v_107.593913_-6.898896,Jalan Dr. Djunjunan,-6.8988957,107.5939125,0,0
v_107.592927_-6.897844,Jalan Dr. Djunjunan,-6.8978439,107.5929268,0,0
v_107.591696_-6.896997,Jalan Dr. Djunjunan,-6.8969965,107.5916961,0,0
v_107.590492_-6.896365,Jalan Dr. Djunjunan,-6.8963655,107.5904922,0,0
12628813994,Griya Pasteur 1,-6.8950796,107.5884432,0,0
v_107.587303_-6.894241,Jalan Dr. Djunjunan,-6.8942412,107.5873031,0,0
v_107.586069_-6.893330,Jalan Dr. Djunjunan,-6.8933302,107.5860686,0,0
v_107.584866_-6.892646,Jalan Dr. Djunjunan,-6.8926456,107.5848655,0,0
12628813991,Warung Cepot,-6.8923414,107.5832389,0,0
v_107.581866_-6.892383,Jalan Dr. Djunjunan,-6.8923826,107.5818656,0,0
v_107.581494_-6.890277,Jalan Surya Sumantri,-6.8902767,107.5814943,0,0
v_107.581379_-6.888715,Jalan Surya Sumantri,-6.8887151,107.5813792,0,0
3384993309,Maranatha,-6.8859263,107.5813607,0,0
v_107.581391_-6.883568,Jalan Surya Sumantri,-6.8835685,107.5813906,0,0
v_107.580195_-6.882779,Jalan Lemah Neundeut,-6.8827789,107.580195,0,0
306334264,Cibogo Atas,-6.8818614,107.5777479,0,0
1585594342,Rusun Sarijadi,-6.8827073,107.5749699,0,0
v_107.576498_-6.882244,Jalan Sariwangi,-6.8822436,107.576498,0,0
12628813986,Sarijadi,-6.8816653,107.578425,0,0
12628813987,Lemahneundeut,-6.8813034,107.5787258,0,0
v_107.580053_-6.880311,Jalan Terusan Profesor Dokter Sutami,-6.8803113,107.5800531,0,0
12628813990,Setrasari,-6.8821984,107.5814944,0,0
v_107.581479_-6.883944,Jalan Surya Sumantri,-6.8839443,107.5814786,0,0
v_107.581452_-6.885326,Jalan Surya Sumantri,-6.8853263,107.581452,0,0
v_107.581414_-6.886743,Jalan Surya Sumantri,-6.8867428,107.5814137,0,0
v_107.581458_-6.888877,Jalan Surya Sumantri,-6.888877,107.5814582,0,0
v_107.581545_-6.890305,Jalan Surya Sumantri,-6.8903052,107.5815452,0,0
v_107.581475_-6.891904,Jalan terdekat,-6.8919045,107.581475,0,0
1658426541,BPJS Pasteur,-6.8922539,107.5829072,0,0
12013144935,Mall d'Botanica,-6.8925604,107.5849478,0,0
2958261155,Djundjunan 3,-6.8929291,107.5856805,0,0
v_107.586991_-6.893882,Jalan Dr. Djunjunan,-6.8938819,107.5869911,0,0
12628813992,Griya Pasteur 2,-6.8948914,107.5883918,0,0
v_107.589518_-6.895719,Jalan Dr. Djunjunan,-6.8957186,107.5895178,0,0
v_107.590795_-6.896401,Jalan Dr. Djunjunan,-6.8964009,107.5907946,0,0
v_107.592167_-6.897170,Jalan Dr. Djunjunan,-6.8971698,107.5921671,0,0
v_107.593531_-6.898235,Jalan Dr. Djunjunan,-6.8982345,107.5935309,0,0
v_107.594767_-6.899275,Jalan Dr. Djunjunan,-6.8992747,107.5947669,0,0
v_107.596011_-6.900057,Jalan Dr. Djunjunan,-6.9000567,107.5960113,0,0
v_107.602453_-6.904590,Jalan Dokter Cipto Mangunkusumo,-6.9045901,107.6024526,0,0
v_107.601203_-6.904045,Bunderan Radjiman,-6.9040455,107.6012028,0,0
v_107.600144_-6.902681,Jalan Doktor Louis Otten,-6.9026808,107.6001443,0,0
1700556149,Taman Westhoff,-6.9010192,107.5982442,0,0
v_107.580496_-6.892300,Jalan Sukaraja,-6.8922996,107.5804965,0,0
12809283847,SDN Sukaraja,-6.8914927,107.5786575,0,0
v_107.577268_-6.891168,Jalan Sukaraja,-6.8911676,107.5772675,0,0
v_107.575647_-6.891307,Jalan Sukaraja,-6.8913072,107.5756474,0,0
v_107.575008_-6.892645,Jalan Sukaraja,-6.8926448,107.5750083,0,0
v_107.574313_-6.893813,Jalan Sukaraja,-6.8938131,107.5743129,0,0
1396428138,Simpang Dakota,-6.8935189,107.5726156,0,0
12809283844,Borma Dakota,-6.8908761,107.572217,0,0
12809283842,Mentor,-6.889704,107.5698999,0,0
v_107.568348_-6.889467,Jalan Gunung Batu,-6.8894666,107.568348,0,0
v_107.566898_-6.889300,Jalan Gunung Batu,-6.8893002,107.566898,0,0
3250402136,Gunung Batu,-6.8875315,107.5672467,0,0
2317306703,Seberang Gateway Pasteur,-6.8893002,107.566898,0,0
v_107.569861_-6.889696,Jalan Gunung Batu,-6.8896958,107.5698608,0,0
v_107.571799_-6.890106,Jalan Gunung Batu,-6.8901058,107.571799,0,0
v_107.572299_-6.891371,Jalan Dakota,-6.8913707,107.5722985,0,0
v_107.572551_-6.892906,Jalan Dakota,-6.8929057,107.5725513,0,0
v_107.573749_-6.893759,Jalan Sukaraja,-6.8937594,107.5737486,0,0
v_107.575566_-6.891371,Jalan Sukaraja,-6.8913711,107.5755656,0,0
v_107.577076_-6.891142,Jalan Sukaraja,-6.8911417,107.5770756,0,0
v_107.578523_-6.891446,Jalan Sukaraja,-6.8914458,107.5785226,0,0
v_107.579820_-6.891988,Jalan Sukaraja,-6.8919878,107.5798198,0,0
v_107.581186_-6.892174,Jalan Dr. Djunjunan,-6.8921739,107.5811856,0,0
v_107.597438_-6.900208,Jalan Dokter Djundjunan Setiakusumah,-6.9002085,107.5974384,0,0
v_107.598845_-6.900209,Jalan Pasteur,-6.9002092,107.5988449,0,0
12809237524,GKI Pasteur,-6.9002045,107.6027269,0,0
v_107.604106_-6.900169,Jalan Pasteur,-6.9001685,107.6041064,0,0
v_107.607682_-6.906301,Jalan Wastukencana,-6.9063009,107.607682,0,0
v_107.607499_-6.907646,Jalan Wastukencana,-6.9076457,107.6074993,0,0
v_107.606157_-6.907158,Jalan Pajajaran,-6.9071583,107.6061572,0,0
12809237527,Pajajaran Timur,-6.9071527,107.6047535,0,0
3874166202,Terminal Margahayu Raya,-6.9465292,107.6626652,0,0
v_107.663205_-6.945134,Jalan Rancabolang,-6.9451341,107.6632047,0,0
v_107.663482_-6.943703,Jalan Rancabolang,-6.943703,107.6634816,0,0
v_107.663607_-6.942078,Jalan Rancabolang,-6.9420781,107.6636072,0,0
v_107.663768_-6.940653,Jalan Rancabolang,-6.9406529,107.6637681,0,0
v_107.644027_-6.929358,Jalan Layang Kiaracondong,-6.9293584,107.6440269,0,0
v_107.644324_-6.927714,Jalan Layang Kiaracondong,-6.9277143,107.6443237,0,0
v_107.644506_-6.926360,Jalan Layang Kiaracondong,-6.9263603,107.6445059,0,0
v_107.644461_-6.924803,Jalan Layang Kiaracondong,-6.9248034,107.6444607,0,0
3376430783,Tugu Tunas Taman Pramuka,-6.9105422,107.6265596,0,0
12947493616,Riau Aceh,-6.9097089,107.6256861,0,0
12809507149,bjb Riau,-6.9092859,107.6252606,0,0
12947493614,HKBP Riau,-6.9086974,107.624592,0,0
12809507147,Riau Cihapit,-6.9081445,107.623898,0,0
12809507143,Pengadilan Negeri Bandung,-6.9063102,107.6220332,0,0
12947493613,De Pavilijoen,-6.9058792,107.6207244,0,0
12947493612,Sekolah Taruna Bakti,-6.9060981,107.6183784,0,0
12947493611,Graha Pos,-6.9061429,107.6173359,0,0
v_107.601580_-6.884516,Jalan Raden Adipati Aria Wiranatakusumah,-6.8845161,107.60158,0,0
