stop_id,stop_name,stop_lat,stop_lon,location_type,wheelchair_boarding
10314211362,Padalarang,-6.8434759,107.4978557,0,0
7835804492,Gadobangkong,-6.8653045,107.5154562,0,0
3370786092,Cimahi,-6.8865383,107.5366775,0,0
3370786794,Cimindi,-6.8965475,107.5617886,0,0
3370786798,Ciroyom,-6.9140765,107.5913716,0,0
10312881283,Bandung,-6.9145291,107.6031495,0,0
1228645053,Cikudapateuh,-6.9190287,107.6268971,0,0
11549081619,Kiaracondong,-6.9254604,107.6474712,0,0
11549081662,Gedebage,-6.9411554,107.6905412,0,0
10694286157,Cimekar,-6.9492676,107.7129671,0,0
10693253652,Rancaekek,-6.9651313,107.7564447,0,0
10693478235,Haurpugur,-6.9808307,107.7998788,0,0
11407574339,Cicalengka,-6.9821908,107.8330738,0,0
11407574341,Cicalengka,-6.981035,107.8320912,0,0
6872615131,Haurpugur,-6.9802356,107.7983447,0,0
10693253653,Rancaekek,-6.9646056,107.7553737,0,0
10694286156,Cimekar,-6.9486453,107.7113976,0,0
11549081663,Gedebage,-6.940438,107.6888097,0,0
11549081621,Kiaracondong,-6.9247723,107.6456051,0,0
7835805289,Cikudapateuh,-6.9185947,107.625378,0,0
10694245344,Bandung,-6.9144562,107.6013653,0,0
10693460291,Ciroyom,-6.9139018,107.5896798,0,0
291546102,Cimindi,-6.8956811,107.5606244,0,0
11546259370,Cimahi,-6.8849429,107.5353528,0,0
3468494606,Gadobangkong,-6.8637207,107.514805,0,0
10693460257,Padalarang,-6.8424481,107.4968441,0,0
10693460258,Padalarang,-6.8424956,107.4968046,0,0
11755899803,Cicalengka,-6.980985,107.8321466,0,0
1227216840,Padalarang,-6.8423863,107.4969052,0,0
11432455980,Cilame,-6.8032048,107.4629178,0,0
10694595318,Sasaksaat,-6.7790843,107.4314942,0,0
3352316735,Maswati,-6.7608275,107.4080713,0,0
10694595366,Rendeh,-6.7359973,107.3978666,0,0
10314211393,Cikadongdong,-6.7151762,107.3903795,0,0
10314211390,Plered,-6.6402782,107.3913512,0,0
10698993414,Sukatani,-6.6105348,107.4086071,0,0
10698966829,Ciganea,-6.5737471,107.4309483,0,0
10698921283,Purwakarta,-6.5525636,107.4464512,0,0
12063631330,Purwakarta,-6.553856,107.447082,0,0
10698966828,Ciganea,-6.5729485,107.4301051,0,0
10694595400,Sukatani,-6.6111493,107.4083066,0,0
10314211391,Plered,-6.6416537,107.3912649,0,0
10314211392,Cikadongdong,-6.715896,107.3913369,0,0
3448590009,Rendeh,-6.7365152,107.3993095,0,0
10694595345,Maswati,-6.760778,107.4093454,0,0
10694595317,Sasaksaat,-6.78052,107.4321188,0,0
11432455981,Cilame,-6.8036184,107.4645349,0,0
10314211366,Padalarang,-6.8435633,107.4980668,0,0
11874360196,Cicalengka,-6.9821038,107.8331166,0,0
9961298138,Nagreg,-7.0187312,107.8872319,0,0
535300018,Leles,-7.0849971,107.8998538,0,0
7206399183,Karangsari,-7.0988099,107.931297,0,0
10694286200,Leuwigoong,-7.1028395,107.9587146,0,0
10314211373,Cibatu,-7.0997162,107.9803328,0,0
9961235587,Pasirjengkol,-7.1291772,107.9922967,0,0
9961258726,Wanaraja,-7.1658406,107.9762771,0,0
10694286203,Garut,-7.2134006,107.9023164,0,0
11871903351,Garut,-7.2134704,107.905318,0,0
9961258724,Wanaraja,-7.1640756,107.9770777,0,0
10694286202,Pasirjengkol,-7.1273374,107.9925883,0,0
7205156020,Cibatu,-7.1002693,107.9787295,0,0
10694286201,Leuwigoong,-7.1038719,107.9575344,0,0
7206401686,Karangsari,-7.0974245,107.9308109,0,0
9961298076,Leles,-7.0838873,107.8997164,0,0
11874360195,Nagreg,-7.0178472,107.8854353,0,0
3277886379,Terminal Leuwipanjang,-6.9458452,107.5932425,0,0
12626357384,Hotel Grand Pasundan,-6.9360768,107.5934112,0,0
12626357385,Bumi Kopo Kencana,-6.933574,107.5905268,0,0
12626357386,Festival Citylink,-6.9291184,107.5872624,0,0
12626357387,Simpang Pasir Koja,-6.9270511,107.5849563,0,0
12626357388,SPBU Pasir Koja,-6.9292122,107.5793217,0,0
12626357389,Hotel Soreang A,-7.0141236,107.5309483,0,0
12626357390,Mall Pelayanan Publik,-7.0206847,107.5292319,0,0
12626357392,Plaza Pemkab Bandung,-7.0234041,107.5303409,0,0
12626357393,Simpang Desa Soreang,-7.0287904,107.5287745,0,0
12626357394,Pasar Ikan Modern,-7.0305108,107.5412986,0,0
12626357395,RSUD Otto Iskandar Dinata,-7.0273253,107.5425246,0,0
12626357396,Samsat Soreang,-7.0218422,107.5416105,0,0
12626357397,Geo Dipa Energi,-7.0154748,107.5363125,0,0
12626357383,Hotel Soreang B,-7.0141857,107.530779,0,0
12626357398,Sumber Sari Junction,-6.9323901,107.576671,0,0
12626357399,Pasar Induk Caringin,-6.9419015,107.5831212,0,0
11295303565,Leuwipanjang Soekarno Hatta,-6.9468277,107.5934341,0,0
11955383183,IKEA Kota Baru Parahyangan,-6.8663512,107.4668097,0,0
12143596539,Wahoo Waterworld,-6.8655811,107.4654195,0,0
11955383184,Parahyangan Timur,-6.8663744,107.4712124,0,0
11955383185,Rumah Sakit Cahaya Kawaluyaan,-6.8665328,107.4734039,0,0
11955383187,Masjid Al Irsyad,-6.8648529,107.4783521,0,0
11955383188,Tatar Wangsakerta A,-6.8619949,107.4805786,0,0
11955383190,Bale Pare A,-6.8568342,107.4897438,0,0
11536873492,Stasiun Kereta Cepat Padalarang,-6.8428228,107.4966418,0,0
11953710372,STEI LPPM A,-6.8573652,107.4986651,0,0
5287090695,RS Karisma Cimareme A,-6.8629469,107.5028237,0,0
5348536065,RS IMC A,-6.8633262,107.5098225,0,0
9908476904,Masjid Ar Ridwan A,-6.8675906,107.5190095,0,0
11954137035,Padasuka Indah A,-6.8685422,107.5263898,0,0
11954137037,Ranca Belut A,-6.8688013,107.5319386,0,0
11954137039,PLN Cisangkan A,-6.8704221,107.5363908,0,0
10680256969,BRI Cimahi,-6.8748788,107.5442734,0,0
11954552709,RSUD Cibabat A,-6.8797123,107.5503819,0,0
11954552711,Dinas Sosial,-6.8859958,107.5542851,0,0
11954552713,Jalan Budi,-6.8921818,107.5580359,0,0
11954552722,SMAN 13 Bandung A,-6.9033346,107.5648032,0,0
11954552728,Paledang,-6.905851,107.5663258,0,0
11711326971,Rajawali Barat,-6.9109306,107.5701462,0,0
11711326972,Plaza Telkom Rajawali,-6.9129722,107.5753653,0,0
11735239264,Rajawali 1,-6.9137773,107.5781901,0,0
11735239266,Dunguscariang,-6.9149105,107.5828928,0,0
11735239268,SMA Trinitas,-6.9165436,107.5917121,0,0
11735248671,Rumah Sakit Kebon Jati,-6.9163694,107.5966005,0,0
11735248674,SMA Pasundan,-6.9162422,107.599627,0,0
11711326974,Perintis Kemerdekaan,-6.9140241,107.607935,0,0
1849525838,Lembong,-6.916445,107.609811,0,0
11711275743,Alun-Alun Bandung,-6.9211653,107.6071455,0,0
11711275750,KEB Hana Bank,-6.9205571,107.6020569,0,0
11711275748,GKI Anugerah,-6.9200243,107.597515,0,0
11711275755,Mayapada Tower,-6.9193345,107.591747,0,0
11711275757,Toko Ambon,-6.9186067,107.5855198,0,0
11711275763,Kemenag Kanwil Jabar,-6.9176018,107.5771136,0,0
2604179157,Optik Krida,-6.9155598,107.5720549,0,0
11711326969,Sudirman 3,-6.9115004,107.5696333,0,0
11954552729,Kebon Kopi,-6.9063062,107.5664877,0,0
11954552723,SMAN 13 Bandung B,-6.9033981,107.5647281,0,0
11954552712,Cilembar,-6.8923353,107.5579997,0,0
11954552710,RS Mitra Kasih,-6.8837408,107.5528472,0,0
10680256973,RSUD Cibabat B,-6.8796404,107.5503366,0,0
10680256972,SMPN 6 Cimahi,-6.8772766,107.5452289,0,0
10680256971,Gedung 4,-6.8799337,107.5417036,0,0
11954552707,Buana,-6.8759934,107.5406762,0,0
10680256963,PLN Cisangkan B,-6.8704594,107.5364884,0,0
10680256961,Ranca Belut B,-6.8687794,107.531878,0,0
10680256959,Padasuka Indah B,-6.8684195,107.5260715,0,0
11953710374,Masjid Ar Ridwan B,-6.8676288,107.5191264,0,0
10680256956,RS IMC B,-6.8634203,107.5100491,0,0
10680256954,RS Karisma Cimareme B,-6.8630015,107.502934,0,0
11953710371,STEI LPPM B,-6.8574856,107.4986734,0,0
10680256950,Bale Pare B,-6.8567205,107.4901266,0,0
11955383189,Tatar Wangsakerta B,-6.8612441,107.4815775,0,0
12143596541,Parahyangan Utara B,-6.865168,107.4782844,0,0
11955383186,Tatar Pitaloka (Parahyangan Selatan),-6.8665457,107.4738005,0,0
11871901023,Baleendah,-7.0067058,107.6261375,0,0
2477247661,Masjid Al-Amanah,-7.0059605,107.6287137,0,0
12626499677,Matahari Land,-7.0040341,107.6312603,0,0
12626499678,Masjid Jami' Baitul Huda A,-7.0002118,107.6318753,0,0
12626499680,Bubur Ayam H. Amid,-6.9946948,107.6308112,0,0
12626499683,Borma Bojongsoang,-6.984586,107.6330944,0,0
12626499685,SD Negeri Lengkong,-6.9763963,107.6352127,0,0
12626499686,Puskesmas Bojongsoang,-6.9676213,107.6374709,0,0
12626499690,Bluebird A,-6.9576866,107.639482,0,0
35138340,Pasar Kordon A,-6.9541863,107.638933,0,0
12626499693,JAPNAS,-6.9512022,107.6364761,0,0
2614138793,Medal Sekarwangi,-6.9484371,107.6323136,0,0
12626499697,Bangunan Mart A,-6.9494451,107.6281496,0,0
12626499700,LPKIA A,-6.9495008,107.6242225,0,0
3384018111,PT LEN Industri A,-6.9490929,107.6190348,0,0
12626529703,PLN UP3 Bandung A,-6.9485877,107.612094,0,0
11739021648,TK Kemala Bhayangkari,-6.9453744,107.608407,0,0
11707031622,Sekolah Ganesha,-6.9390693,107.6063015,0,0
5355897678,Taman Tegalega 3,-6.9365596,107.6062815,0,0
11883812981,SDN Moh. Toha,-6.9301452,107.6067877,0,0
12626529705,ITC Kebon Kalapa,-6.926739,107.6059915,0,0
11898859975,Grand Yogya Kepatihan,-6.9238597,107.606261,0,0
12626529706,Banceuy,-6.9187122,107.6066404,0,0
11262097619,Stasiun Timur,-6.9153572,107.604546,0,0
293384756,Stasiun Bandung,-6.9125954,107.6029303,0,0
11739021629,SMAN 6 Bandung,-6.9114098,107.5979188,0,0
11138593915,SDN Pajajaran,-6.906861,107.599992,0,0
11739021630,STHB (Sekolah Tinggi Hukum Bandung),-6.9064803,107.6044125,0,0
5825243776,Bandung Electronic Center,-6.9081456,107.6093744,0,0
3376669066,Museum Kota Bandung,-6.9101076,107.6097021,0,0
11739021637,Merdeka,-6.9125343,107.6104548,0,0
11739021639,Toko Mas ABC,-6.9230192,107.6039434,0,0
11739021641,Simpang Ijan,-6.9280445,107.6036329,0,0
11739021644,Taman Tegallega,-6.9339734,107.603223,0,0
11707031623,Muhammad Toha 1 (PT INTI A),-6.939027,107.6062885,0,0
11739021649,Madurasa Tengah,-6.945205,107.6083491,0,0
3272360374,PLN UP3 Bandung B,-6.9484924,107.6121553,0,0
3384018110,PT LEN Industri B,-6.9489877,107.619152,0,0
12626499699,LPKIA B,-6.9494301,107.6248137,0,0
12626499698,Bangunan Mart B,-6.9493306,107.6280918,0,0
12626499695,Taman Buah Batu,-6.9484693,107.6339239,0,0
12626499694,Swadarma BNI,-6.9503784,107.6357751,0,0
12626499692,Pasar Kordon B,-6.9534876,107.6387006,0,0
12626499689,Bluebird B,-6.9584038,107.6394982,0,0
12626499688,Puskesmas Kujangsari B,-6.9649573,107.6381038,0,0
12626499687,Transmart Buahbatu,-6.9671846,107.6375686,0,0
549740249,Permata Buah Batu,-6.9729226,107.6361478,0,0
11950910945,Podomoro,-6.9749692,107.6355974,0,0
12626499684,AHASS,-6.981957,107.6339127,0,0
12626499682,Griya Bandung Asri,-6.9857289,107.6328659,0,0
12626499681,Alfamart SPBU Bojongsoang,-6.9914167,107.6316525,0,0
12626499679,Masjid Jami' Baitul Huda B,-7.0002949,107.6318593,0,0
2477247659,Apotek K24,-7.0054785,107.6309071,0,0
12626499675,KEJARI Bale Bandung,-7.0059629,107.6235977,0,0
12626499676,RS Al-Ihsan,-7.0074774,107.6243131,0,0
3277886365,Terminal Leuwipanjang,-6.9458124,107.5932469,0,0
11739021652,Rumah Sakit Immanuel A,-6.9372267,107.5956524,0,0
11739021646,Taman Tegallega,-6.9365059,107.6030596,0,0
11739021654,Pintu Masuk Terminal Tegallega,-6.9338521,107.6024577,0,0
6443280171,Astana Anyar RSIA Kota Bandung,-6.9293977,107.600717,0,0
1013407725,Stasiun Hall,-6.9161478,107.6024001,0,0
11739064594,SMK Negeri 1 Bandung,-6.9130013,107.609039,0,0
11739021634,Riau XL,-6.9068537,107.6096165,0,0
10653503633,Hotel The-One-O-One A,-6.9065022,107.6105556,0,0
10778322183,Taman Radio A,-6.9024821,107.6115254,0,0
11104718108,Kartikasari A,-6.8975185,107.6127786,0,0
11104669204,Rumah Sakit Santo Borromeus A,-6.8944643,107.6129302,0,0
11739021656,Masjid Baiturrahman,-6.8866267,107.6149671,0,0
11707030824,UNPAD Dipatiukur (4D),-6.8923055,107.6177764,0,0
11104718106,Rumah Sakit Santo Borromeus B,-6.8948263,107.6134343,0,0
10778322181,Kartikasari B,-6.897514,107.6128416,0,0
10778322182,Taman Radio B,-6.9025069,107.6115838,0,0
10653503634,Hotel The-One-O-One B,-6.9065902,107.6106208,0,0
11739021633,Bandung Indah Plaza,-6.9088887,107.610623,0,0
11735248675,Bank Indonesia,-6.9145426,107.608993,0,0
29354702,Pasar Baru,-6.9164303,107.6044519,0,0
10778322188,Dalem Kaum,-6.9219758,107.6040142,0,0
11739021642,Jalan Ibu Inggit Garnasih,-6.9314959,107.6039218,0,0
11739021647,Pasar Tegalega,-6.9368241,107.6062604,0,0
10815723012,Simpang Mohamad Toha Biddokkes,-6.9375586,107.6055097,0,0
11739021653,Rumah Sakit Immanuel B,-6.9372977,107.5955421,0,0
3375793673,UNPAD Dipatiukur,-6.8934568,107.6180361,0,0
11707030826,Panatayudha A,-6.8979225,107.6161542,0,0
1666155324,Lapangan Gasibu A,-6.9011743,107.6199195,0,0
11707030829,PUSDAI A,-6.9010661,107.6241876,0,0
11707030832,SMPN 14 Bandung (Lapangan Supratman A),-6.9080655,107.6301163,0,0
1107694939,Taman Pramuka,-6.9106475,107.6274766,0,0
3375793687,Hotel Grand Tebu,-6.9130163,107.6288644,0,0
11707030860,Bandung Creative Hub A,-6.9183624,107.6313457,0,0
7702036194,Hotel Horison A,-6.9343354,107.6252887,0,0
5487616737,Simpang By Pass Soekarno Hatta A,-6.9473728,107.6090862,0,0
11711185184,SPBU Moh. Toha,-6.954618,107.6115168,0,0
11711185187,Cileunyi A,-6.9410603,107.7541846,0,0
1966499313,IPDN A,-6.9356267,107.7652049,0,0
10697346845,UNPAD Jatinangor,-6.932299,107.7732376,0,0
11711185243,Jatinangor Town Square,-6.933968,107.7712431,0,0
5867026762,IPDN B,-6.9357446,107.7651014,0,0
11711185188,Cileunyi B,-6.9426257,107.7557736,0,0
11711185185,Jalan Haji Tatang Sumantri,-6.9547392,107.6115567,0,0
11707031627,Simpang By Pass Soekarno Hatta B,-6.9483342,107.6087518,0,0
11707031601,PT INTI B (BKR 5),-6.9375463,107.6067624,0,0
11707031579,Hotel Horison B,-6.9343038,107.6251981,0,0
11707030859,Bandung Creative Hub B,-6.9184177,107.6312506,0,0
11955476811,SPBU Ahmad Yani,-6.9129263,107.6339654,0,0
11707030833,SDN 062 Ciujung Bandung (Lapangan Supratman B),-6.907261,107.6297079,0,0
11707030828,PUSDAI B,-6.9011517,107.6241682,0,0
11707030827,Lapangan Gasibu B,-6.9012501,107.6201283,0,0
11707030825,Panatayudha B,-6.8979434,107.6161572,0,0
12628901396,SDN Babakan Tarogong,-6.9384872,107.594148,0,0
12628930762,Muara A,-6.9371534,107.6020331,0,0
12628930746,Palasari Radio,-6.9742063,107.6181453,0,0
12628930749,Zipur Dayeuhkolot,-6.9861797,107.624845,0,0
12628930752,Pasar Baleendah A,-6.9989678,107.6316216,0,0
12628930755,Bumi Siliwangi,-7.0100016,107.6397222,0,0
2459057875,Terminal Ciparay,-7.0357328,107.713347,0,0
12628930760,Terminal Majalaya,-7.0477372,107.7601852,0,0
12628930757,Giriharja Jelekong,-7.020725,107.6563884,0,0
12628930753,Pasar Baleendah B,-6.9990175,107.6316458,0,0
305891851,Palasari Ceres,-6.9719753,107.6173961,0,0
35131593,Bundaran Cibiru,-6.9352673,107.7175908,0,0
12806516349,Panyileukan,-6.9357289,107.7121547,0,0
12806516346,Cimincrang,-6.9361475,107.7064226,0,0
12806516345,Shakti,-6.936831,107.6970872,0,0
12806516344,Barat Simpang Gedebage,-6.9372117,107.6918125,0,0
12806868621,SMKN 6 Bandung,-6.9380944,107.6794141,0,0
12806868622,Cipamokolan,-6.9382789,107.6768401,0,0
12806868623,Aria Graha,-6.9385626,107.6729122,0,0
3375689668,RS Al Islam,-6.9388175,107.6692698,0,0
12806868625,Metro,-6.93901,107.6665574,0,0
12806868626,Rancabolang,-6.9392635,107.6633094,0,0
12806868627,SMKN 7 Bandung,-6.939893,107.6598099,0,0
12806868632,Gagak Rimang,-6.9400797,107.6590642,0,0
3272226033,Metro Indah Mall,-6.9403972,107.6580268,0,0
12806868633,BPN Kanwil Jabar,-6.9406892,107.6570876,0,0
12806851397,Cidurian Selatan,-6.9420012,107.6529256,0,0
12806868637,Kantor Pos Sekejati,-6.9427159,107.6506763,0,0
12806868639,Disnaker Jabar,-6.944058,107.646481,0,0
12806868640,UNINUS,-6.9448492,107.6441008,0,0
12806868670,Tenth Avenue,-6.9458361,107.6408496,0,0
12806868674,Sekelimus Tengah,-6.9466415,107.6381159,0,0
12806868677,Sekelimus Barat,-6.9475072,107.6353065,0,0
12808867752,STIE Inaba,-6.9493807,107.6227995,0,0
12808867754,Mengger Girang,-6.9490185,107.6180229,0,0
12808867758,Ampera Soekarno Hatta,-6.9480749,107.6050974,0,0
12808867763,Karasak Lama,-6.9478683,107.6021954,0,0
3277891129,Seberang Terminal Leuwipanjang,-6.9469193,107.592997,0,0
12633822769,Pasar Caringin,-6.9419021,107.5829792,0,0
12808867766,Griya Sumbersari,-6.9325102,107.5766013,0,0
12808867768,Holis 2,-6.9248687,107.5750983,0,0
11954573590,Batas Kota,-6.9109035,107.569361,0,0
12627968405,Terminal Elang,-6.9135373,107.5755571,0,0
12808867767,Holis 1,-6.9252035,107.575247,0,0
12808867765,Sumbersari 1,-6.9313117,107.5763049,0,0
12808867764,Simpang Caringin,-6.9434372,107.5850407,0,0
12808867762,Inhoftank,-6.9478017,107.6022466,0,0
12808867760,Seberang Ampera Soekarno Hatta,-6.9479853,107.6051379,0,0
12808867756,Karasak Utara,-6.9480912,107.6067107,0,0
12806868676,Griya Hemat,-6.9474943,107.6348946,0,0
12806868672,Sekelimus Utara,-6.9464022,107.638444,0,0
5825209951,Simpang Samsat Kiaracondong,-6.9450226,107.6428119,0,0
12806851389,STT Mandala,-6.944662,107.6438888,0,0
12806851390,SMK Medika Com,-6.9438278,107.6464874,0,0
12806851392,Unibi,-6.9425403,107.6505153,0,0
12806851396,Cidurian Utara,-6.941787,107.6528692,0,0
12806851393,SMKN 9 Bandung,-6.9405212,107.6569119,0,0
3375689664,Jasa Raharja Jabar,-6.9400924,107.6582639,0,0
12806851400,Suparma,-6.9395718,107.6601512,0,0
12806868601,Kawaluyaan,-6.9390207,107.6635594,0,0
12806868603,Sanggar Hurip,-6.938728,107.6672726,0,0
12806868618,Cisaranten Kulon,-6.9379974,107.6775339,0,0
12806868620,KPP Pratama Cicadas,-6.9378628,107.6794352,0,0
12814754658,Depan Pasar Gedebage,-6.9365674,107.6973063,0,0
12806516348,Universitas Bhakti Kencana,-6.9356286,107.7099558,0,0
6460801785,Terminal Cicaheum,-6.902329,107.6565637,0,0
11735248707,BCA Cimuncang,-6.9060351,107.6483165,0,0
11735248706,Gateway Cicadas,-6.9072816,107.6459395,0,0
3248969440,BTM,-6.911388,107.6434825,0,0
11735248700,Flyover Antapani,-6.9138756,107.6429791,0,0
3375793691,WUJ Jalan Banten,-6.9142036,107.6399016,0,0
11735248701,STMIK,-6.9144188,107.6381956,0,0
11735248702,GOR KONI,-6.9146627,107.6362469,0,0
11735248692,IBCC,-6.9142791,107.6327884,0,0
11735248690,Stadion Persib Sidolig,-6.9161976,107.6292904,0,0
5391666905,Cikudapateuh,-6.9186929,107.6245415,0,0
11735248683,Kantor Pos Kosambi,-6.9192144,107.6235031,0,0
3277420346,Seberang Pasar Kosambi,-6.9199617,107.6220644,0,0
11735248705,Ketapang,-6.921143,107.619848,0,0
11735248710,Asia Afrika,-6.9222132,107.61585,0,0
11735248711,Gedung Keuangan Negara/KM 0,-6.921618,107.6110406,0,0
11735248713,Simpang Sudirman,-6.9207677,107.6038238,0,0
11735248714,Sukamanah,-6.9195734,107.5937417,0,0
11735248716,Simpang Jamika,-6.9188238,107.5874451,0,0
11954573588,SDN Raya Barat,-6.9181852,107.5819763,0,0
11711326973,Terminal Elang,-6.9133498,107.575723,0,0
1911635044,Yayasan LPPN,-6.9157549,107.5853751,0,0
25434237,GKI Kebonjati,-6.916282,107.5988546,0,0
10801865379,Telkom Lembong,-6.9170839,107.6111029,0,0
11735248678,RSU Bungsu,-6.9182518,107.6132908,0,0
11735248679,Pasar Kosambi,-6.9199012,107.6221779,0,0
11735248685,Segitiga Mas,-6.9179222,107.6258605,0,0
11735248686,Jaya Plaza,-6.9174142,107.6268373,0,0
11735248689,Dinas Pendidikan Kota Bandung,-6.9164526,107.6287225,0,0
5391666887,Jalan Mangga,-6.9151724,107.6310524,0,0
11735248691,Sekolah Agustinus,-6.9140574,107.6332108,0,0
3375793690,A.Yani Supratman,-6.9133253,107.6345966,0,0
11735248693,Cikaso,-6.9119025,107.637255,0,0
11735248694,Awi Bitung,-6.9106533,107.6396001,0,0
11735248708,Cimuncang,-6.9050722,107.650154,0,0
5832221935,Seberang Terminal Cicaheum,-6.9021302,107.6567969,0,0
5832221930,Cimuncang,-6.9016812,107.6490533,0,0
12628835706,Cikutra,-6.8997726,107.6426735,0,0
12628835704,Sukasenang Raya 1,-6.8984698,107.6371799,0,0
12628835703,BKKBN,-6.8982473,107.6324886,0,0
5832220641,SMPN 63 Kota Bandung,-6.8998537,107.6293496,0,0
12628813999,Wisma BKN,-6.89924,107.6222912,0,0
12628813996,Cikapayang Dago 1,-6.8990335,107.6120546,0,0
12628813994,Griya Pasteur 1,-6.8950796,107.5884432,0,0
12628813991,Warung Cepot,-6.8923414,107.5832389,0,0
3384993309,Maranatha,-6.8859263,107.5813607,0,0
12628813987,Lemahneundeut,-6.8813034,107.5787258,0,0
12628813989,Sarimanah,-6.8814266,107.5764264,0,0
12628813986,Sarijadi,-6.8816653,107.578425,0,0
12628813990,Setrasari,-6.8821984,107.5814944,0,0
12013144935,Mall d'Botanica,-6.8925604,107.5849478,0,0
12628813992,Griya Pasteur 2,-6.8948914,107.5883918,0,0
12628813995,Tamansari Cikapayang,-6.8982089,107.610121,0,0
5832170587,Cikapayang Dago 2,-6.898852,107.6135004,0,0
1660289593,Gasibu,-6.8992842,107.6179657,0,0
12628813998,Distan Jabar,-6.8992307,107.6227599,0,0
12628814000,Dapen Telkom,-6.8998503,107.6285873,0,0
12628835702,Jalaprang,-6.8983546,107.6321413,0,0
12013144934,ITENAS,-6.8982483,107.6362093,0,0
5832220656,Sukasenang Raya 2,-6.8984458,107.6370787,0,0
12628835705,Sekolah Pribadi,-6.8992417,107.6404383,0,0
5832221887,Sukapada,-6.9000256,107.6439328,0,0
12628835709,Surapati Core,-6.9018908,107.6525276,0,0
10693001605,Terminal Leuwipanjang,-6.9459075,107.5932351,0,0
12806765746,Taman Tegalega/Sri Baduga,-6.9373001,107.6037009,0,0
3445680780,Samsudin,-6.9375959,107.6083051,0,0
12808948210,Patung Ikan,-6.937657,107.610179,0,0
3272575985,BKR Buah Batu,-6.9365872,107.6231054,0,0
12809462424,Kangkung Kaler,-6.9308456,107.6260901,0,0
3375794694,DPRD Kota Bandung,-6.916856,107.6342682,0,0
3476292190,Dishub Jabar,-6.9181019,107.6324739,0,0
12809462425,Seberang Kangkung Kaler,-6.9308642,107.6261794,0,0
12808948211,Simpang Buah Batu BKR,-6.9373473,107.6222364,0,0
3376171471,Masjid An Nur PT INTI,-6.9376849,107.6084233,0,0
12806765747,Muara,-6.9374746,107.5999005,0,0
12809603991,RSUD Bandung Kiwari,-6.9430856,107.5913003,0,0
12809462429,RSIA Grha Bunda,-6.9134024,107.6455398,0,0
2493372403,Borma Antapani,-6.9129025,107.6495005,0,0
12809462431,Stikes Dharma Husada,-6.9127456,107.6507427,0,0
302241143,bjb Antapani,-6.9123839,107.6538136,0,0
11735248698,Depan Terminal Antapani,-6.9149741,107.6658807,0,0
3378630365,Seberang Borma Antapani,-6.9130091,107.6492727,0,0
12947493617,Seberang Hotel Grand Tebu,-6.9133503,107.6290686,0,0
3376430783,Tugu Tunas Taman Pramuka,-6.9105422,107.6265596,0,0
12947493616,Riau Aceh,-6.9097089,107.6256861,0,0
12809507149,bjb Riau,-6.9092859,107.6252606,0,0
12947493614,HKBP Riau,-6.9086974,107.624592,0,0
12809507147,Riau Cihapit,-6.9081445,107.623898,0,0
12809507143,Pengadilan Negeri Bandung,-6.9063102,107.6220332,0,0
12947493613,De Pavilijoen,-6.9058792,107.6207244,0,0
12947493612,Sekolah Taruna Bakti,-6.9060981,107.6183784,0,0
3375794699,Simpang Banda Riau,-6.9063138,107.6159699,0,0
12825997245,Hotel Santika,-6.9070669,107.6119393,0,0
3376669065,Taman Sejarah Balai Kota Bandung,-6.9103764,107.6106101,0,0
12806120224,SDN Merdeka 5,-6.915607,107.610154,0,0
3374033500,Tamblong,-6.9189576,107.6123364,0,0
12809269114,Seberang SMAN 4 Bandung,-6.9194582,107.5983096,0,0
12809274346,Masjid Al-Ukhuwwah,-6.9111612,107.6090912,0,0
12809274348,Wastukencana Purnawarman,-6.9088722,107.6079826,0,0
3269294966,Abdul Rivai,-6.904381,107.6038123,0,0
1700556149,Taman Westhoff,-6.9010192,107.5982442,0,0
12809082539,Djunjunan Paskal,-6.9003956,107.5968191,0,0
12809283847,SDN Sukaraja,-6.8914927,107.5786575,0,0
1396428138,Simpang Dakota,-6.8935189,107.5726156,0,0
12809283844,Borma Dakota,-6.8908761,107.572217,0,0
12809283842,Mentor,-6.889704,107.5698999,0,0
3250402136,Gunung Batu,-6.8875315,107.5672467,0,0
2317306703,Seberang Gateway Pasteur,-6.8893002,107.566898,0,0
1658426541,BPJS Pasteur,-6.8922539,107.5829072,0,0
2958261155,Djundjunan 3,-6.8929291,107.5856805,0,0
12809237524,GKI Pasteur,-6.9002045,107.6027269,0,0
12809237525,Linggawastu,-6.9039986,107.605369,0,0
3376669071,Pasar Kembang Wastukencana,-6.9048943,107.607265,0,0
12809237527,Pajajaran Timur,-6.9071527,107.6047535,0,0
3376669069,Kimia Farma,-6.9077123,107.6044661,0,0
12806120204,Haji Mesri,-6.9124771,107.6007223,0,0
3272722527,Simpang Gedebage Selatan,-6.9377585,107.6925095,0,0
11730486996,Summarecon Mall Bandung,-6.955658,107.6992029,0,0
4608003593,Terminal Leuwipanjang,-6.9458755,107.5932396,0,0
12806765749,Simpang Astanaanyar Pasirkoja,-6.9263959,107.5997325,0,0
12809227879,Jalan Haji Safari,-6.9247939,107.5991575,0,0
12806765750,Karanganyar,-6.9226401,107.598583,0,0
12806765752,Cibadak Astanaanyar,-6.9209178,107.5984181,0,0
3640664489,Paskal Hypersquare,-6.9155623,107.5981241,0,0
12806120202,SDN 013 Pajajaran,-6.9081059,107.5976849,0,0
5639376088,Garunggang Kulon,-6.8989275,107.5973503,0,0
12825997250,SPBU Paskal,-6.8979069,107.5973197,0,0
29357744,Cibarengkok,-6.8960662,107.5972487,0,0
29357741,Sukagalih PVJ,-6.8913554,107.596952,0,0
1746711065,Polsek Sukajadi,-6.8878725,107.5967776,0,0
3380200149,Mandiri Sukajadi,-6.8836453,107.5965088,0,0
3376673098,Sukawangi,-6.8780655,107.596246,0,0
12825997252,Gereja Santo Laurentius,-6.8756034,107.5960887,0,0
12809082550,SMPN 15 Bandung,-6.8739356,107.5957592,0,0
12809046293,Gegerkalong Girang,-6.8653206,107.594077,0,0
3376673106,Museum Pendidikan Nasional UPI,-6.8600369,107.594757,0,0
11711070002,Terminal Ledeng,-6.85933,107.5951942,0,0
12809046289,Poltekpar NHI,-6.8682279,107.5936817,0,0
3376673102,Simpang Gegerkalong Hilir,-6.8693537,107.5935629,0,0
3376673100,Borma Setiabudhi,-6.8746244,107.5962411,0,0
3376669085,Masjid Besar Cipaganti,-6.894782,107.602517,0,0
12809082541,Paskal RSHS,-6.8982378,107.5973829,0,0
12013198354,Terminal Elang,-6.9144895,107.5753136,0,0
6473170574,Pasar Cileunyi,-6.9404081,107.7537453,0,0
10771913963,Gerbang IPDN Jatinangor,-6.9358995,107.7642048,0,0
12013198353,UNPAD Jatinangor,-6.9323545,107.7732585,0,0
3476277701,Damri Unpad Jatinangor,-6.9316463,107.7758563,0,0
10771913964,Seberang Gerbang IPDN Jatinangor,-6.9361566,107.7636862,0,0
1935454988,Terminal Tanjungsari,-6.9079951,107.7959097,0,0
2744242982,Pasirluyu Selatan/Sukaati,-6.9492577,107.6214461,0,0
12808912264,Pos Banceuy,-6.9205454,107.6065186,0,0
1956195997,Jalan Jati,-6.9262285,107.6125973,0,0
3376282080,Banteng Sadakeling,-6.9316133,107.6183599,0,0
1982390333,SMK Medina,-6.931384,107.619075,0,0
2250581874,GOR Lodaya,-6.9317067,107.6203316,0,0
12808948214,Selontongan,-6.9402599,107.625925,0,0
12808948215,Kliningan Buahbatu,-6.9426596,107.6282283,0,0
12806516353,SDN 050 Cibiru,-6.9342906,107.7215528,0,0
12823636734,Rumah Sakit Murni Teguh,-6.9208368,107.6159966,0,0
12806309242,SDN Cikadut,-6.9040466,107.6656526,0,0
12806309246,Gang H.M. Syarief,-6.9044513,107.6718533,0,0
12806309248,Borma Pasirimpun,-6.904729,107.6759315,0,0
11047579524,UPTD Laboratorium Lingkungan Hidup,-6.9074116,107.6864696,0,0
12806516361,SDN Ciporeat,-6.9173978,107.7061287,0,0
12806516359,Seberang Borma Cipadung,-6.9261531,107.7108057,0,0
12806516356,SDN Cipadung,-6.9316908,107.7137735,0,0
35131607,UIN SGD/Cipadung,-6.9323756,107.7157532,0,0
12014389702,Pangkalan DAMRI Cibiru,-6.9335177,107.7163132,0,0
12806516354,Seberang UIN Sunan Gunung Djati,-6.9324655,107.7158334,0,0
12806516357,Borma Cipadung,-6.9265281,107.7108912,0,0
2477149675,SDN Andir Kidul,-6.9136497,107.6955657,0,0
12806309257,Seberang SMAN 24 Bandung,-6.9084047,107.6881997,0,0
11047579523,Pusjatan,-6.907525,107.6867495,0,0
3251007173,Gerbang Pusjatan,-6.907087,107.6856912,0,0
12806309250,Seberang Borma Pasirimpun,-6.9047223,107.6758598,0,0
35135540,Lapas Sukamiskin,-6.9046182,107.6750064,0,0
12806309247,Komplek Sarimas,-6.9046989,107.672335,0,0
12888147067,Flyover KBP,-6.8529876,107.4941137,0,0
12390565460,Ratnasasih,-6.8689266,107.4688418,0,0
12888177149,BTD,-6.8724813,107.4678358,0,0
5509730969,Tatar Subanglarang,-6.8818457,107.4554476,0,0
11489094686,Kamandaka,-6.8716903,107.4660366,0,0
11489094682,Jingganagara,-6.8724249,107.4692856,0,0
11489094684,CBCS/BAIS,-6.8686557,107.4687526,0,0
12881302236,Timur IKEA Kota Baru Parahyangan,-6.8673805,107.4687013,0,0
12825997248,Taman Vanda,-6.9139284,107.6099856,0,0
3374033509,Terminal Abdul Muis/Kebon Kalapa,-6.9276265,107.6058121,0,0
12626529705,ITC Kebon Kalapa,-6.926739,107.6059915,0,0
12808948222,SMPN 43 Bandung,-6.9257801,107.6066649,0,0
12808948220,Pasundan,-6.9278672,107.608899,0,0
v_107.611619_-6.930570,Jalan Pungkur,-6.9305702,107.6116186,0,0
12806120217,Unla,-6.9311439,107.6158192,0,0
3375103664,Lauk Emas,-6.9302033,107.6164624,0,0
3376282080,Banteng Sadakeling,-6.9316133,107.6183599,0,0
1982390333,SMK Medina,-6.931384,107.619075,0,0
2250581874,GOR Lodaya,-6.9317067,107.6203316,0,0
12806537958,Yayasan Kemala Bhayangkari,-6.9318636,107.6221815,0,0
3376171449,Jl. Lodaya,-6.9320775,107.6249815,0,0
v_107.627723_-6.933183,Jalan Raden Adipati Aria Martanegara,-6.9331834,107.6277229,0,0
v_107.630613_-6.933883,Jalan Raden Adipati Aria Martanegara,-6.9338832,107.6306127,0,0
v_107.633797_-6.934385,Jalan Raden Adipati Aria Martanegara,-6.934385,107.6337971,0,0
v_107.634925_-6.931781,Jalan Turangga,-6.9317815,107.6349255,0,0
v_107.634256_-6.926741,Jalan Jenderal Gatot Subroto,-6.9267411,107.634256,0,0
11365366019,Trans Studio Mall,-6.9280668,107.6367954,0,0
v_107.639112_-6.929750,Jalan Jenderal Gatot Subroto,-6.9297496,107.6391119,0,0
v_107.641897_-6.931301,Jalan Jenderal Gatot Subroto,-6.9313006,107.6418972,0,0
v_107.643946_-6.929470,Jalan H. Ibrahim Adjie,-6.9294702,107.6439464,0,0
v_107.644464_-6.926704,Jalan H. Ibrahim Adjie,-6.9267038,107.6444641,0,0
12806853451,Seberang Griya Kiaracondong,-6.9220961,107.6442877,0,0
12806853452,Daese Garmin,-6.9194414,107.6441456,0,0
12806853456,Gerbang Timur Kiara Artha Park,-6.9161586,107.6438444,0,0
11735248700,Flyover Antapani,-6.9138756,107.6429791,0,0
3375793691,WUJ Jalan Banten,-6.9142036,107.6399016,0,0
11735248701,STMIK,-6.9144188,107.6381956,0,0
11735248702,GOR KONI,-6.9146627,107.6362469,0,0
v_107.634078_-6.912988,Jalan Layang Ahmad Yani - Supratman,-6.9129877,107.6340779,0,0
12811695428,Supratman 1,-6.9101794,107.6321776,0,0
2519917307,Pussenif,-6.9078314,107.6306426,0,0
11707030832,SMPN 14 Bandung (Lapangan Supratman A),-6.9080655,107.6301163,0,0
11707030833,SDN 062 Ciujung Bandung (Lapangan Supratman B),-6.907261,107.6297079,0,0
5841989829,Muararajeun Baru,-6.9060357,107.6305171,0,0
v_107.632158_-6.903793,Jalan Brigjend. Katamso,-6.903793,107.6321582,0,0
12819917452,Seberang Griya Pahlawan,-6.9002535,107.634226,0,0
12013144934,ITENAS,-6.8982483,107.6362093,0,0
5832220656,Sukasenang Raya 2,-6.8984458,107.6370787,0,0
12806309238,STIE Ekuitas,-6.8986302,107.6378565,0,0
12628835705,Sekolah Pribadi,-6.8992417,107.6404383,0,0
5832221887,Sukapada,-6.9000256,107.6439328,0,0
v_107.646905_-6.901214,Jalan PH. H. Mustofa,-6.9012136,107.6469046,0,0
v_107.649773_-6.901736,Jalan PH. H. Mustofa,-6.9017359,107.6497732,0,0
12628835709,Surapati Core,-6.9018908,107.6525276,0,0
5832221935,Seberang Terminal Cicaheum,-6.9021302,107.6567969,0,0
11291524413,Terminal Angkot Cicaheum,-6.9024172,107.6562486,0,0
5832221932,Padasuka,-6.9019865,107.6536878,0,0
5832221930,Cimuncang,-6.9016812,107.6490533,0,0
12814754615,Sukapada 2,-6.9001599,107.6446782,0,0
v_107.643708_-6.897601,Jalan Cikutra,-6.897601,107.6437076,0,0
v_107.642737_-6.895071,Jalan Cikutra,-6.8950706,107.6427374,0,0
v_107.640139_-6.893889,Jalan Cikutra,-6.8938889,107.6401385,0,0
3248882521,Pahlawan Sidomukti,-6.8933137,107.6354258,0,0
v_107.634753_-6.896126,Jalan Pahlawan,-6.8961255,107.6347529,0,0
12819917451,Griya Pahlawan,-6.9003045,107.634244,0,0
v_107.633255_-6.902865,Jalan Brigjend. Katamso,-6.9028646,107.6332551,0,0
v_107.631259_-6.905028,Jalan Brigjend. Katamso,-6.905028,107.6312587,0,0
v_107.630693_-6.907690,Jalan Supratman,-6.90769,107.6306929,0,0
12811695427,Supratman Cikaso,-6.9103228,107.6324017,0,0
12811695425,SMPN 22 Bandung,-6.9122413,107.6336698,0,0
3375793690,A.Yani Supratman,-6.9133253,107.6345966,0,0
11735248693,Cikaso,-6.9119025,107.637255,0,0
11735248694,Awi Bitung,-6.9106533,107.6396001,0,0
3248969440,BTM,-6.911388,107.6434825,0,0
12633822765,Seberang Kiara Artha,-6.9142126,107.6437793,0,0
12806853454,SDN 083 Babakan Surabaya Selatan,-6.9196178,107.6442909,0,0
12806853450,Griya Kiaracondong,-6.9221685,107.6444041,0,0
12806853449,Jalan PSM,-6.9274017,107.6444424,0,0
12806853447,Honda Daya Motor Kiaracondong,-6.9310003,107.6438759,0,0
12806853446,SDN 38 Kiaracondong,-6.9333993,107.642917,0,0
12806853442,Kebon Kangkung 11,-6.9380472,107.6424362,0,0
12806853444,KPP Madya Dua Bandung,-6.9383619,107.6422771,0,0
v_107.641104_-6.931019,Jalan Jenderal Gatot Subroto,-6.931019,107.6411045,0,0
v_107.638683_-6.929301,Jalan Jenderal Gatot Subroto,-6.9293013,107.6386831,0,0
3248882519,Turangga,-6.928187,107.6358171,0,0
v_107.635170_-6.930823,Jalan Turangga,-6.9308231,107.6351695,0,0
3376171452,Turangga,-6.9342955,107.6339321,0,0
v_107.631051_-6.933982,Jalan Raden Adipati Aria Martanegara,-6.9339821,107.6310515,0,0
v_107.628209_-6.933310,Jalan Raden Adipati Aria Martanegara,-6.9333101,107.6282092,0,0
v_107.625598_-6.932417,Jalan Lodaya,-6.9324167,107.6255977,0,0
v_107.622931_-6.931188,Jalan Lodaya,-6.9311882,107.6229314,0,0
v_107.621134_-6.933768,Jalan Gajah,-6.9337683,107.6211343,0,0
v_107.618351_-6.932304,Jalan Buah Batu,-6.9323042,107.6183506,0,0
v_107.615696_-6.931644,Jalan Mochammad Ramdhan,-6.9316439,107.6156957,0,0
v_107.613828_-6.933741,Jalan Mochammad Ramdhan,-6.9337409,107.6138283,0,0
v_107.611537_-6.935876,Jalan Mochammad Ramdhan,-6.9358756,107.6115373,0,0
3376171471,Masjid An Nur PT INTI,-6.9376849,107.6084233,0,0
5355897678,Taman Tegalega 3,-6.9365596,107.6062815,0,0
v_107.606519_-6.933278,Jalan Mohammad Toha,-6.9332778,107.6065192,0,0
v_107.605557_-6.930530,Jalan Dewi Sartika,-6.9305299,107.605557,0,0
12825997237,Melong Karapitan,-6.9302053,107.6160678,0,0
12825997239,Karapitan Cikawao,-6.9282903,107.6165815,0,0
12825997243,Karapitan Emung,-6.9270918,107.6169043,0,0
12825997241,Karapitan Paledang,-6.9250993,107.61732,0,0
v_107.617605_-6.922299,Jalan Sunda,-6.9222986,107.6176047,0,0
10280072517,Gereja Sidang Kristus,-6.9194254,107.6179265,0,0
12806120211,Yogya Sunda,-6.9178998,107.6180659,0,0
12806120207,Balai Bahasa Jawa Barat,-6.9136482,107.6173371,0,0
12809507134,Kantor Kecamatan Sumurbandung,-6.9131842,107.6177677,0,0
12809507135,Seberang Stadion Siliwangi,-6.9110152,107.6184728,0,0
12809507136,PMI Kota Bandung,-6.9089935,107.6195116,0,0
v_107.622453_-6.909522,Jalan Aceh,-6.9095218,107.622453,0,0
3376430782,SMA Kartika,-6.9095321,107.6267561,0,0
12887217205,Jalan Suren,-6.908846,107.628258,0,0
12819917455,Taman Makam Pahlawan Cikutra,-6.8928924,107.6356272,0,0
v_107.638354_-6.893658,Jalan Cikutra,-6.8936579,107.6383538,0,0
v_107.641066_-6.894188,Jalan Cikutra,-6.8941877,107.6410661,0,0
v_107.643499_-6.895872,Jalan Cikutra,-6.8958715,107.643499,0,0
v_107.646430_-6.900967,Jalan PH. H. Mustofa,-6.900967,107.6464296,0,0
12628835706,Cikutra,-6.8997726,107.6426735,0,0
12814754613,Bekamin,-6.8995403,107.6416949,0,0
12806309240,YPKP Sanggabuana,-6.89932,107.6407662,0,0
12628835704,Sukasenang Raya 1,-6.8984698,107.6371799,0,0
12814754611,SDN 151 Sukasenang,-6.8982085,107.6360412,0,0
12887217206,Jalan Salam,-6.908808,107.6282951,0,0
1107694939,Taman Pramuka,-6.9106475,107.6274766,0,0
12962149421,Aceh Taman Pramuka,-6.9102542,107.6255307,0,0
3376420325,Graha Manggala Siliwangi,-6.9090101,107.6195837,0,0
12887179699,Stadion Siliwangi,-6.9111664,107.6184317,0,0
3374033495,SMAN 3 dan 5,-6.9119682,107.6150207,0,0
12809521950,Taman Lalu Lintas,-6.9124068,107.6138205,0,0
12887182816,SMP Negeri 2 Bandung,-6.9147065,107.6139894,0,0
3374033500,Tamblong,-6.9189576,107.6123364,0,0
v_107.612012_-6.921739,Jalan Tamblong,-6.9217387,107.6120118,0,0
1956195997,Jalan Jati,-6.9262285,107.6125973,0,0
3374033505,UNPAS Lengkong Besar,-6.9290293,107.6129922,0,0
12809314942,SDN 020 Lengkong Besar,-6.9304102,107.612861,0,0
v_107.610698_-6.932391,Jalan Ibu Inggit Ganarsih,-6.9323912,107.6106978,0,0
v_107.607795_-6.932008,Jalan Ibu Inggit Ganarsih,-6.9320075,107.607795,0,0
v_107.608569_-6.927644,Jalan Pungkur,-6.9276437,107.6085694,0,0
1831360476,Unknown,-6.9313355,107.6124017,0,0
v_107.614920_-6.932506,Jalan Pungkur,-6.9325064,107.6149201,0,0
v_107.616297_-6.929324,Jalan Karapitan,-6.9293239,107.6162973,0,0
v_107.617070_-6.926403,Jalan Karapitan,-6.926403,107.6170698,0,0
v_107.617553_-6.923044,Jalan Sunda,-6.9230443,107.6175533,0,0
v_107.617909_-6.919735,Jalan Sunda,-6.9197349,107.6179092,0,0
v_107.618165_-6.916924,Jalan Sunda,-6.9169244,107.6181649,0,0
v_107.617666_-6.914184,Jalan Sumbawa,-6.9141839,107.6176661,0,0
v_107.616141_-6.911611,Jalan Sumbawa,-6.9116105,107.6161406,0,0
v_107.613416_-6.912564,Jalan Belitung,-6.912564,107.6134164,0,0
v_107.612429_-6.910030,Jalan Sumatra,-6.91003,107.6124292,0,0
v_107.612895_-6.907209,Jalan Seram,-6.9072095,107.6128951,0,0
v_107.610552_-6.905494,Jalan Ir. H. Djuanda,-6.9054944,107.6105525,0,0
v_107.611388_-6.902825,Jalan Ir. H. Djuanda,-6.9028247,107.6113884,0,0
v_107.612522_-6.900205,Jalan Ir. H. Djuanda,-6.9002051,107.6125222,0,0
v_107.612779_-6.897519,Jalan Ir. H. Djuanda,-6.8975185,107.6127786,0,0
v_107.612912_-6.894802,Jalan Ir. H. Djuanda,-6.8948019,107.6129119,0,0
v_107.613141_-6.891841,Jalan Ir. H. Djuanda,-6.8918412,107.6131411,0,0
v_107.613434_-6.889033,Jalan Ir. H. Djuanda,-6.8890332,107.6134337,0,0
v_107.613613_-6.886017,Jalan Ir. H. Djuanda,-6.886017,107.6136129,0,0
v_107.614533_-6.883318,Jalan Ir. H. Djuanda,-6.8833182,107.6145333,0,0
v_107.615999_-6.880991,Jalan Ir. H. Djuanda,-6.8809912,107.6159994,0,0
v_107.616800_-6.878083,Jalan Ir. H. Djuanda,-6.8780829,107.6167998,0,0
v_107.618467_-6.875725,Jalan Ir. H. Djuanda,-6.8757254,107.6184672,0,0
v_107.619584_-6.873159,Jalan Ir. H. Djuanda,-6.8731592,107.6195839,0,0
v_107.620192_-6.870237,Jalan Ir. H. Djuanda,-6.8702373,107.6201919,0,0
3373712056,Terminal Dago,-6.8670778,107.6212119,0,0
12819940049,SPBU Dago Atas,-6.8686285,107.620646,0,0
12816172252,Seberang Poltekesos,-6.8725481,107.6198876,0,0
12820358786,Kanayakan,-6.8774811,107.6173296,0,0
v_107.616350_-6.880079,Jalan Ir. H. Djuanda,-6.8800793,107.61635,0,0
v_107.615030_-6.882885,Jalan Ir. H. Djuanda,-6.8828849,107.6150295,0,0
11739021656,Masjid Baiturrahman,-6.8866267,107.6149671,0,0
v_107.615889_-6.889175,Jalan Dipatiukur,-6.8891749,107.6158888,0,0
11707030824,UNPAD Dipatiukur (4D),-6.8923055,107.6177764,0,0
3375793673,UNPAD Dipatiukur,-6.8934568,107.6180361,0,0
11104718106,Rumah Sakit Santo Borromeus B,-6.8948263,107.6134343,0,0
12820212473,STMIK LIKMI,-6.8955212,107.6129226,0,0
10778322181,Kartikasari B,-6.897514,107.6128416,0,0
11873654244,Danamon Cikapayang,-6.8995115,107.6127597,0,0
12819940051,Superindo Dago,-6.9018046,107.6118668,0,0
10778322182,Taman Radio B,-6.9025069,107.6115838,0,0
10653503634,Hotel The-One-O-One B,-6.9065902,107.6106208,0,0
11739021633,Bandung Indah Plaza,-6.9088887,107.610623,0,0
v_107.617581_-6.910015,Jalan Banda,-6.9100152,107.6175806,0,0
25433284,Banda Saparua,-6.9072231,107.6169984,0,0
3375794699,Simpang Banda Riau,-6.9063138,107.6159699,0,0
12825997245,Hotel Santika,-6.9070669,107.6119393,0,0
3376669065,Taman Sejarah Balai Kota Bandung,-6.9103764,107.6106101,0,0
11739021637,Merdeka,-6.9125343,107.6104548,0,0
12825997248,Taman Vanda,-6.9139284,107.6099856,0,0
11739064594,SMK Negeri 1 Bandung,-6.9130013,107.609039,0,0
12809274346,Masjid Al-Ukhuwwah,-6.9111612,107.6090912,0,0
12809274348,Wastukencana Purnawarman,-6.9088722,107.6079826,0,0
11739021630,STHB (Sekolah Tinggi Hukum Bandung),-6.9064803,107.6044125,0,0
3269294966,Abdul Rivai,-6.904381,107.6038123,0,0
v_107.602347_-6.901563,Jalan Raden Adipati Aria Wiranatakusumah,-6.9015634,107.6023472,0,0
5639376088,Garunggang Kulon,-6.8989275,107.5973503,0,0
12825997250,SPBU Paskal,-6.8979069,107.5973197,0,0
29357744,Cibarengkok,-6.8960662,107.5972487,0,0
29357741,Sukagalih PVJ,-6.8913554,107.596952,0,0
1746711065,Polsek Sukajadi,-6.8878725,107.5967776,0,0
3380200149,Mandiri Sukajadi,-6.8836453,107.5965088,0,0
v_107.596398_-6.880934,Jalan Sukajadi,-6.8809341,107.5963984,0,0
3376673098,Sukawangi,-6.8780655,107.596246,0,0
12825997252,Gereja Santo Laurentius,-6.8756034,107.5960887,0,0
12809082550,SMPN 15 Bandung,-6.8739356,107.5957592,0,0
v_107.594069_-6.871792,Jalan Dokter Danudirja Setiabudhi,-6.8717924,107.5940693,0,0
v_107.593595_-6.869047,Jalan Dokter Danudirja Setiabudhi,-6.8690472,107.5935949,0,0
12809046293,Gegerkalong Girang,-6.8653206,107.594077,0,0
v_107.595735_-6.863154,Jalan Dokter Setiabudi,-6.8631536,107.5957352,0,0
3376673106,Museum Pendidikan Nasional UPI,-6.8600369,107.594757,0,0
11711070002,Terminal Ledeng,-6.85933,107.5951942,0,0
v_107.595987_-6.862046,Jalan Dokter Setiabudi,-6.8620463,107.5959866,0,0
12809046291,Seberang Unpas Setiabudi,-6.8664168,107.5939201,0,0
12809046289,Poltekpar NHI,-6.8682279,107.5936817,0,0
3376673102,Simpang Gegerkalong Hilir,-6.8693537,107.5935629,0,0
v_107.594414_-6.872232,Jalan Dokter Danudirja Setiabudhi,-6.8722322,107.5944136,0,0
3376673100,Borma Setiabudhi,-6.8746244,107.5962411,0,0
v_107.597450_-6.877112,Jalan Dokter Danudirja Setiabudhi,-6.877112,107.5974504,0,0
v_107.598533_-6.879853,Jalan Dokter Danudirja Setiabudhi,-6.8798525,107.5985332,0,0
6165179774,Setiabudi Hegarmanah,-6.8829555,107.6023609,0,0
12811652377,SDN 065 Cihampelas,-6.8869867,107.6040408,0,0
v_107.604194_-6.889991,Jalan Cihampelas,-6.8899911,107.604194,0,0
v_107.604181_-6.892937,Jalan Cihampelas,-6.8929367,107.6041814,0,0
3376669082,Cihampelas Eyckman,-6.8959031,107.6039451,0,0
v_107.604096_-6.898811,Jalan Cihampelas,-6.8988115,107.6040958,0,0
12809237525,Linggawastu,-6.9039986,107.605369,0,0
3376669071,Pasar Kembang Wastukencana,-6.9048943,107.607265,0,0
5825243776,Bandung Electronic Center,-6.9081456,107.6093744,0,0
3376669066,Museum Kota Bandung,-6.9101076,107.6097021,0,0
v_107.612472_-6.909779,Jalan Aceh,-6.9097787,107.612472,0,0
11739021641,Simpang Ijan,-6.9280445,107.6036329,0,0
3383341282,Pasar Astana Anyar,-6.9306827,107.601334,0,0
2325452881,Jalan Panjunan,-6.9298621,107.5973451,0,0
12806765749,Simpang Astanaanyar Pasirkoja,-6.9263959,107.5997325,0,0
12809227879,Jalan Haji Safari,-6.9247939,107.5991575,0,0
2723584288,Pasar Ulekan Pagarsih,-6.9229321,107.5957657,0,0
v_107.592750_-6.922594,Jalan Pagarsih Barat,-6.922594,107.5927501,0,0
v_107.589868_-6.922316,Jalan Pagarsih Barat,-6.9223157,107.5898681,0,0
2325452491,Unknown,-6.9219839,107.5859557,0,0
1911634972,Pasar Cangkring/Situ Aksan,-6.9235251,107.5813879,0,0
1911634983,Jalan Suryani,-6.9206062,107.580869,0,0
1911634927,RS Priangan,-6.9223077,107.5769466,0,0
6442840898,Simpang Holis Soekarno Hatta,-6.923662,107.5751042,0,0
v_107.588808_-6.922223,Jalan Pagarsih Barat,-6.9222225,107.5888085,0,0
v_107.591653_-6.922487,Jalan Pagarsih Barat,-6.9224873,107.5916531,0,0
v_107.598531_-6.923262,Jalan Pagarsih Barat,-6.9232621,107.5985311,0,0
2250562868,Otista/Kalipah Apo,-6.923931,107.6038724,0,0
v_107.603528_-6.929550,Jalan Otto Iskandardinata,-6.9295503,107.6035279,0,0
v_107.605427_-6.931688,Jalan Ibu Inggit Ganarsih,-6.9316877,107.6054273,0,0
12887162310,Seberang Telkom Supratman,-6.9062831,107.6296635,0,0
5842007854,Ciliwung,-6.9040635,107.6282013,0,0
11707030828,PUSDAI B,-6.9011517,107.6241682,0,0
v_107.621061_-6.901220,Jalan Diponegoro,-6.9012202,107.6210608,0,0
v_107.618155_-6.901287,Jalan Diponegoro,-6.9012865,107.618155,0,0
v_107.615409_-6.900922,Jalan Diponegoro,-6.900922,107.6154093,0,0
v_107.612738_-6.900306,Jalan Diponegoro,-6.9003059,107.6127382,0,0
1969331852,Balubur Town Square,-6.8987437,107.6093403,0,0
3376871368,Pelesiran,-6.8970719,107.6096181,0,0
11262097538,Tamansari (Bonbin),-6.8933258,107.6083698,0,0
12805921498,BATAN,-6.8888308,107.6080995,0,0
3530181074,Sabuga ITB,-6.8877401,107.609232,0,0
3376871360,Babakan Siliwangi,-6.8849719,107.6114877,0,0
v_107.608728_-6.884912,Jalan Siliwangi,-6.8849119,107.6087276,0,0
v_107.606098_-6.884186,Jalan Siliwangi,-6.8841856,107.6060982,0,0
v_107.601267_-6.887521,Jalan Lamping,-6.8875212,107.601267,0,0
v_107.599888_-6.890065,Jalan Jurang,-6.8900645,107.5998881,0,0
v_107.597502_-6.888547,Jalan Sukamaju,-6.8885472,107.5975019,0,0
1660116948,Gandok,-6.8836088,107.6056396,0,0
v_107.608224_-6.884745,Jalan Siliwangi,-6.8847452,107.6082242,0,0
12813270569,Sumur Bandung,-6.8856909,107.6127217,0,0
12805921497,FTMD ITB,-6.8888141,107.6080995,0,0
12805921499,Tamansari ITB,-6.8898018,107.6080694,0,0
3376871366,Gelap Nyawang,-6.8946314,107.6086646,0,0
12628813995,Tamansari Cikapayang,-6.8982089,107.610121,0,0
v_107.612186_-6.900033,Jalan Sulanjana,-6.9000327,107.6121864,0,0
v_107.614994_-6.900621,Jalan Diponegoro,-6.900621,107.6149941,0,0
1666155324,Lapangan Gasibu A,-6.9011743,107.6199195,0,0
11707030829,PUSDAI A,-6.9010661,107.6241876,0,0
5832220639,Unknown,-6.9010164,107.6259572,0,0
5842007855,Muararajeun,-6.9039847,107.6282881,0,0
12628835703,BKKBN,-6.8982473,107.6324886,0,0
12814754609,Simpang Jalaprang,-6.8984824,107.6317973,0,0
5832220641,SMPN 63 Kota Bandung,-6.8998537,107.6293496,0,0
12814754605,Taman Pusdai,-6.8992562,107.6261407,0,0
12628813999,Wisma BKN,-6.89924,107.6222912,0,0
12806309233,PVMBG,-6.8992825,107.6203701,0,0
5832170587,Cikapayang Dago 2,-6.898852,107.6135004,0,0
11707030825,Panatayudha B,-6.8979434,107.6161572,0,0
12816121755,Simpang Dipatiukur Hasanudin,-6.8950876,107.6172155,0,0
12820400848,Unpad Kampus Iwa Koesoemasoemantri,-6.8932726,107.6179071,0,0
v_107.616911_-6.890724,Jalan Dipatiukur,-6.890724,107.6169111,0,0
12816121752,Seberang UNIKOM,-6.8870114,107.6150918,0,0
v_107.603964_-6.895729,Jalan Cihampelas,-6.8957293,107.6039637,0,0
v_107.601122_-6.895811,Jalan Profesor Christiaan Eijkman,-6.8958109,107.6011223,0,0
12809082541,Paskal RSHS,-6.8982378,107.5973829,0,0
v_107.600364_-6.900192,Jalan Pasteur,-6.900192,107.6003645,0,0
12809082512,Seberang IWU,-6.9013037,107.5974649,0,0
12809082511,Seberang BPK Penabur,-6.9033942,107.5975385,0,0
3377321687,Depan Istana Plaza,-6.9054493,107.5976013,0,0
11138593907,Padjajaran 2,-6.9068851,107.5939013,0,0
v_107.591071_-6.907079,Jalan Pajajaran,-6.9070787,107.5910708,0,0
3377329064,Husein Pajajaran,-6.9068423,107.588209,0,0
v_107.585257_-6.907341,Jalan Abdul Rahman Saleh,-6.9073414,107.5852567,0,0
v_107.582528_-6.907702,Jalan Abdul Rahman Saleh,-6.9077023,107.5825276,0,0
v_107.579822_-6.907403,Jalan Abdul Rahman Saleh,-6.9074031,107.5798218,0,0
v_107.581386_-6.909701,Jalan Ciroyom,-6.9097015,107.5813863,0,0
v_107.584500_-6.911786,Jalan Ciroyom,-6.911786,107.5845003,0,0
3244745033,Terminal Ciroyom,-6.9141236,107.5885486,0,0
v_107.589395_-6.911520,Jalan Arjuna,-6.9115203,107.5893946,0,0
3377321681,Pintu Masuk Bandara Husein Sastranegara,-6.9067739,107.588219,0,0
7547053355,Pajajaran 1,-6.9070991,107.5925401,0,0
3377321682,Istana Plaza (IP),-6.9053889,107.596171,0,0
12809082509,BPK Penabur,-6.9033926,107.5974789,0,0
12809082507,IWU,-6.9015643,107.597414,0,0
v_107.598432_-6.895110,Jalan Sederhana,-6.8951102,107.5984316,0,0
3249461526,Pasar Sederhana,-6.8908128,107.5996153,0,0
v_107.599223_-6.881242,Jalan Karang Sari,-6.8812425,107.5992232,0,0
v_107.611234_-6.884753,Jalan Siliwangi,-6.8847532,107.6112344,0,0
3375793672,Sekeloa,-6.8902412,107.6165653,0,0
12816121756,Magister Manajemen UNPAD,-6.8950233,107.617258,0,0
12806309232,Jalan Merak,-6.89928,107.6204436,0,0
12628813998,Distan Jabar,-6.8992307,107.6227599,0,0
12814453796,Jalan Gagak,-6.8992266,107.6234921,0,0
5832220640,PUSDAI,-6.8992435,107.6259835,0,0
12628814000,Dapen Telkom,-6.8998503,107.6285873,0,0
12814754607,Seberang Imigrasi Bandung,-6.8988684,107.6312754,0,0
12628835702,Jalaprang,-6.8983546,107.6321413,0,0
v_107.629935_-6.906507,Jalan Supratman,-6.9065072,107.629935,0,0
12806853440,Den Jasa Ang,-6.9397848,107.6423227,0,0
12806853435,SPBU Kebon Kangkung,-6.9428602,107.6421057,0,0
v_107.641913_-6.945553,Jalan Letnan Jenderal Ibrahim Adjie,-6.9455527,107.6419126,0,0
v_107.641499_-6.948367,Jalan Terusan Kiara Condong,-6.948367,107.6414995,0,0
v_107.641068_-6.951144,Jalan Terusan Kiara Condong,-6.9511442,107.6410675,0,0
v_107.640232_-6.954033,Jalan Terusan Kiara Condong,-6.9540334,107.640232,0,0
v_107.642908_-6.954645,Jalan Marga Cinta,-6.9546453,107.6429084,0,0
v_107.645702_-6.954904,Jalan Marga Cinta,-6.9549042,107.6457017,0,0
v_107.648486_-6.955132,Jalan Marga Cinta,-6.9551321,107.6484855,0,0
12813271263,Seberang Borma Margacinta,-6.9554682,107.6521388,0,0
v_107.654914_-6.955770,Jalan Marga Cinta,-6.9557702,107.654914,0,0
v_107.657221_-6.957647,Jalan Marga Cinta,-6.9576465,107.6572207,0,0
35138488,Taman Lansia Margahayu Raya,-6.9597741,107.6615127,0,0
v_107.664276_-6.960592,Jalan Marga Cinta,-6.9605925,107.6642755,0,0
v_107.667003_-6.961289,Jalan Marga Cinta,-6.9612891,107.6670034,0,0
v_107.669799_-6.961751,Jalan Marga Cinta,-6.9617513,107.6697989,0,0
v_107.672623_-6.962209,Marga Cinta,-6.9622086,107.6726232,0,0
v_107.674736_-6.963912,Jalan Derwati,-6.9639119,107.6747359,0,0
v_107.677525_-6.964153,Jalan Derwati,-6.9641529,107.6775249,0,0
v_107.680371_-6.964416,Jalan Derwati,-6.9644157,107.6803708,0,0
v_107.683179_-6.964799,Jalan Derwati,-6.9647988,107.6831794,0,0
2518053983,Simpang Derwati,-6.9655502,107.6868117,0,0
3383628375,SMPN 51 Bandung,-6.9644172,107.6798172,0,0
12813271267,SDN 069 Cipamokolan,-6.9648031,107.6832053,0,0
v_107.676614_-6.964068,Jalan Derwati,-6.9640677,107.6766137,0,0
v_107.672872_-6.963736,Jalan Derwati,-6.9637355,107.672872,0,0
v_107.675608_-6.963982,Jalan Derwati,-6.9639815,107.6756082,0,0
v_107.669202_-6.961683,Jalan Marga Cinta,-6.9616827,107.6692021,0,0
v_107.663589_-6.960406,Jalan Marga Cinta,-6.9604055,107.6635892,0,0
2258306743,Pasar Ciwastra,-6.9611563,107.6664238,0,0
v_107.663539_-6.960389,Jalan Marga Cinta,-6.9603888,107.6635389,0,0
v_107.660163_-6.959233,Jalan Marga Cinta,-6.9592328,107.6601626,0,0
v_107.662989_-6.960238,Jalan Marga Cinta,-6.9602384,107.6629888,0,0
v_107.659914_-6.959102,Jalan Marga Cinta,-6.9591016,107.6599136,0,0
v_107.654779_-6.955755,Jalan Marga Cinta,-6.9557545,107.6547786,0,0
v_107.654718_-6.955750,Jalan Marga Cinta,-6.9557504,107.6547179,0,0
3383643778,Borma Margacinta,-6.9554392,107.6518488,0,0
v_107.643836_-6.954751,Jalan Marga Cinta,-6.9547511,107.6438361,0,0
v_107.646691_-6.954985,Jalan Marga Cinta,-6.9549854,107.6466909,0,0
v_107.643818_-6.954750,Jalan Marga Cinta,-6.9547496,107.6438176,0,0
v_107.640423_-6.954158,Jalan Marga Cinta,-6.9541579,107.6404231,0,0
12806853434,Jalan H. Basuki,-6.9443088,107.6418944,0,0
12806853438,Borma Kiaracondong,-6.9428669,107.6419879,0,0
12806853441,Seberang Jalan Sekejati,-6.9399607,107.6421744,0,0
v_107.642469_-6.935470,Jalan H. Ibrahim Adjie,-6.9354704,107.642469,0,0
v_107.642933_-6.932743,Jalan H. Ibrahim Adjie,-6.9327429,107.6429329,0,0
v_107.643946_-6.929922,Jalan H. Ibrahim Adjie,-6.9299218,107.6439463,0,0
v_107.644384_-6.927208,Jalan H. Ibrahim Adjie,-6.9272085,107.644384,0,0
11707030827,Lapangan Gasibu B,-6.9012501,107.6201283,0,0
12806868670,Tenth Avenue,-6.9458361,107.6408496,0,0
12806868674,Sekelimus Tengah,-6.9466415,107.6381159,0,0
12806868677,Sekelimus Barat,-6.9475072,107.6353065,0,0
2614138793,Medal Sekarwangi,-6.9484371,107.6323136,0,0
12626499697,Bangunan Mart A,-6.9494451,107.6281496,0,0
12626499700,LPKIA A,-6.9495008,107.6242225,0,0
12808867752,STIE Inaba,-6.9493807,107.6227995,0,0
2744242982,Pasirluyu Selatan/Sukaati,-6.9492577,107.6214461,0,0
3384018111,PT LEN Industri A,-6.9490929,107.6190348,0,0
12808867754,Mengger Girang,-6.9490185,107.6180229,0,0
v_107.614907_-6.948792,Jalan Soekarno-Hatta,-6.9487921,107.6149066,0,0
12626529703,PLN UP3 Bandung A,-6.9485877,107.612094,0,0
11707031627,Simpang By Pass Soekarno Hatta B,-6.9483342,107.6087518,0,0
12808867758,Ampera Soekarno Hatta,-6.9480749,107.6050974,0,0
12808867763,Karasak Lama,-6.9478683,107.6021954,0,0
v_107.599142_-6.947670,Jalan Soekarno-Hatta,-6.9476696,107.5991425,0,0
v_107.596315_-6.947559,Jalan Soekarno-Hatta,-6.9475595,107.5963147,0,0
3277891129,Seberang Terminal Leuwipanjang,-6.9469193,107.592997,0,0
v_107.590426_-6.946041,Jalan terdekat,-6.9460413,107.5904261,0,0
11295303565,Leuwipanjang Soekarno Hatta,-6.9468277,107.5934341,0,0
v_107.596192_-6.947313,Jalan Soekarno-Hatta,-6.9473128,107.596192,0,0
v_107.598966_-6.947557,Jalan Soekarno-Hatta,-6.9475565,107.5989661,0,0
12808867762,Inhoftank,-6.9478017,107.6022466,0,0
12808867760,Seberang Ampera Soekarno Hatta,-6.9479853,107.6051379,0,0
12808867756,Karasak Utara,-6.9480912,107.6067107,0,0
3272360374,PLN UP3 Bandung B,-6.9484924,107.6121553,0,0
v_107.614920_-6.948690,Jalan Soekarno-Hatta,-6.9486901,107.6149203,0,0
3384018110,PT LEN Industri B,-6.9489877,107.619152,0,0
v_107.621989_-6.949196,Jalan Soekarno-Hatta,-6.9491964,107.6219888,0,0
12626499699,LPKIA B,-6.9494301,107.6248137,0,0
12626499698,Bangunan Mart B,-6.9493306,107.6280918,0,0
v_107.630979_-6.948735,Jalan Soekarno-Hatta,-6.9487354,107.6309791,0,0
12806868676,Griya Hemat,-6.9474943,107.6348946,0,0
12806868672,Sekelimus Utara,-6.9464022,107.638444,0,0
11262097619,Stasiun Timur,-6.9153572,107.604546,0,0
v_107.607186_-6.914547,Jalan Perintis Kemerdekaan,-6.9145473,107.6071865,0,0
v_107.609091_-6.911161,Jalan Wastukencana,-6.9111612,107.6090912,0,0
v_107.607863_-6.908680,Jalan Wastukencana,-6.9086803,107.6078627,0,0
v_107.610390_-6.906966,Jalan L.L. RE. Martadinata,-6.9069656,107.6103896,0,0
v_107.610847_-6.904189,Jalan Ir. H. Djuanda,-6.9041893,107.6108469,0,0
v_107.612075_-6.901145,Jalan Ir. H. Djuanda,-6.9011448,107.612075,0,0
v_107.612740_-6.898451,Jalan Ir. H. Djuanda,-6.8984512,107.6127403,0,0
v_107.612864_-6.895475,Jalan Ir. H. Djuanda,-6.8954747,107.612864,0,0
v_107.613074_-6.892663,Jalan Ir. H. Djuanda,-6.8926629,107.6130739,0,0
v_107.613357_-6.889663,Jalan Ir. H. Djuanda,-6.8896626,107.6133573,0,0
v_107.613569_-6.886814,Jalan Ir. H. Djuanda,-6.8868145,107.6135689,0,0
v_107.613986_-6.884078,Jalan Ir. H. Djuanda,-6.884078,107.6139865,0,0
v_107.615646_-6.881899,Jalan Ir. H. Djuanda,-6.8818987,107.6156462,0,0
v_107.616505_-6.879128,Jalan Ir. H. Djuanda,-6.8791283,107.6165054,0,0
v_107.617853_-6.876630,Jalan Ir. H. Djuanda,-6.8766301,107.6178533,0,0
v_107.619128_-6.874245,Jalan Ir. H. Djuanda,-6.8742454,107.619128,0,0
v_107.619957_-6.871552,Jalan Ir. H. Djuanda,-6.8715521,107.6199571,0,0
v_107.620462_-6.869708,Jalan Ir. H. Djuanda,-6.8697081,107.620462,0,0
v_107.619888_-6.872548,Jalan Ir. H. Djuanda,-6.8725481,107.6198876,0,0
v_107.618771_-6.875304,Jalan Ir. H. Djuanda,-6.8753042,107.6187714,0,0
v_107.617015_-6.877856,Jalan Ir. H. Djuanda,-6.8778557,107.617015,0,0
v_107.616246_-6.880480,Jalan Ir. H. Djuanda,-6.8804798,107.6162461,0,0
v_107.615005_-6.882917,Jalan Ir. H. Djuanda,-6.8829165,107.6150052,0,0
2034531651,UNIKOM Pascasarjana,-6.8858131,107.6137012,0,0
v_107.613537_-6.888736,Jalan Ir. H. Djuanda,-6.8887363,107.6135369,0,0
v_107.613233_-6.891501,Jalan Ir. H. Djuanda,-6.8915009,107.6132329,0,0
v_107.613010_-6.894268,Jalan Ir. H. Djuanda,-6.8942684,107.6130097,0,0
v_107.612849_-6.897272,Jalan Ir. H. Djuanda,-6.8972718,107.6128492,0,0
v_107.612693_-6.900068,Jalan Ir. H. Djuanda,-6.9000677,107.6126934,0,0
v_107.611441_-6.902847,Jalan Ir. H. Djuanda,-6.9028466,107.6114407,0,0
v_107.610613_-6.905495,Jalan Ir. H. Djuanda,-6.9054949,107.6106131,0,0
v_107.610616_-6.908207,Jalan Merdeka,-6.9082067,107.6106156,0,0
v_107.610551_-6.911429,Jalan Merdeka,-6.9114294,107.6105511,0,0
v_107.609199_-6.913862,Jalan Perintis Kemerdekaan,-6.9138624,107.6091994,0,0
11711326974,Perintis Kemerdekaan,-6.9140241,107.607935,0,0
11735248675,Bank Indonesia,-6.9145426,107.608993,0,0
1849525838,Lembong,-6.916445,107.609811,0,0
10801865379,Telkom Lembong,-6.9170839,107.6111029,0,0
11735248678,RSU Bungsu,-6.9182518,107.6132908,0,0
v_107.619429_-6.907776,Jalan Lombok,-6.9077763,107.6194288,0,0
v_107.621340_-6.905340,Jalan Citarum,-6.9053403,107.6213404,0,0
v_107.623423_-6.903349,Jalan Citarum,-6.9033491,107.6234233,0,0
v_107.625226_-6.901128,Jalan Citarum,-6.9011282,107.6252259,0,0
v_107.634122_-6.897545,Jalan Pahlawan,-6.897545,107.6341217,0,0
v_107.634766_-6.894889,Jalan Pahlawan,-6.8948895,107.6347665,0,0
v_107.633253_-6.892285,Jalan Cikutra Barat,-6.8922846,107.6332532,0,0
v_107.630431_-6.892087,Jalan Cikutra Barat,-6.8920872,107.630431,0,0
3252929646,Terminal Sadang Serang,-6.8911775,107.6252674,0,0
v_107.629829_-6.891940,Jalan Cikutra Barat,-6.8919403,107.6298288,0,0
v_107.632605_-6.892234,Jalan Cikutra Barat,-6.8922337,107.6326048,0,0
v_107.626567_-6.901537,Jalan Supratman,-6.9015367,107.6265672,0,0
v_107.623506_-6.903379,Jalan Citarum,-6.9033792,107.6235062,0,0
v_107.621595_-6.905340,Jalan Citarum,-6.9053402,107.6215951,0,0
v_107.619576_-6.907424,Jalan Lombok,-6.9074244,107.6195763,0,0
319706142,RSAU dr. Salamun,-6.8635418,107.6049689,0,0
v_107.605954_-6.866612,Jalan Ciumbuleuit,-6.8666121,107.6059545,0,0
v_107.605587_-6.870187,Jalan Ciumbuleuit,-6.8701871,107.6055874,0,0
3462094658,UNPAR,-6.8753147,107.6044647,0,0
v_107.603866_-6.877964,Jalan Ciumbuleuit,-6.877964,107.6038662,0,0
v_107.603824_-6.880675,Jalan Ciumbuleuit,-6.8806746,107.6038241,0,0
v_107.604940_-6.883261,Jalan Ciumbuleuit,-6.8832608,107.6049395,0,0
3462094656,RS Advent,-6.8916075,107.6038612,0,0
v_107.601149_-6.891280,Jalan Sampurna,-6.8912796,107.6011493,0,0
29379371,Makmur,-6.8941794,107.5989838,0,0
29379391,RS Hasan Sadikin,-6.8961604,107.5993726,0,0
v_107.604465_-6.875315,Jalan Ciumbuleuit,-6.8753147,107.6044647,0,0
v_107.605054_-6.872627,Jalan Ciumbuleuit,-6.872627,107.6050544,0,0
v_107.605807_-6.869213,Jalan Ciumbuleuit,-6.8692127,107.6058073,0,0
v_107.605233_-6.864128,Jalan Ciumbuleuit,-6.8641277,107.6052329,0,0
v_107.605882_-6.867133,Jalan Ciumbuleuit,-6.8671331,107.6058819,0,0
v_107.601836_-6.900359,Jalan Pasteur,-6.9003585,107.6018357,0,0
2012498684,Taman Adipura,-6.9068065,107.5992067,0,0
11138593915,SDN Pajajaran,-6.906861,107.599992,0,0
25500626,GOR Padjajaran,-6.9070015,107.6019252,0,0
3376669069,Kimia Farma,-6.9077123,107.6044661,0,0
293384756,Stasiun Bandung,-6.9125954,107.6029303,0,0
12806120204,Haji Mesri,-6.9124771,107.6007223,0,0
v_107.598059_-6.913230,Jalan HOS. Cokroaminoto,-6.91323,107.5980592,0,0
25434237,GKI Kebonjati,-6.916282,107.5988546,0,0
11735248674,SMA Pasundan,-6.9162422,107.599627,0,0
1013407725,Stasiun Hall,-6.9161478,107.6024001,0,0
v_107.604290_-6.918278,Jalan Pasar Selatan,-6.9182779,107.6042904,0,0
10778322188,Dalem Kaum,-6.9219758,107.6040142,0,0
11711275743,Alun-Alun Bandung,-6.9211653,107.6071455,0,0
12808912264,Pos Banceuy,-6.9205454,107.6065186,0,0
v_107.609864_-6.919714,Jalan ABC,-6.9197138,107.6098643,0,0
v_107.612724_-6.920208,Jalan Naripan,-6.9202078,107.6127241,0,0
12823636734,Rumah Sakit Murni Teguh,-6.9208368,107.6159966,0,0
v_107.618823_-6.921377,Jalan Naripan,-6.9213769,107.6188228,0,0
v_107.619969_-6.923855,Jalan Burangrang,-6.9238549,107.6199691,0,0
v_107.622152_-6.926308,Jalan Halimun,-6.9263079,107.6221516,0,0
v_107.624047_-6.928882,Jalan Talaga Bodas,-6.9288822,107.6240469,0,0
12809462425,Seberang Kangkung Kaler,-6.9308642,107.6261794,0,0
v_107.632300_-6.936179,Jalan Reog,-6.9361789,107.6322996,0,0
v_107.631362_-6.938801,Jalan Reog,-6.9388005,107.6313622,0,0
v_107.628900_-6.939978,Jalan Kliningan,-6.9399782,107.6289001,0,0
12808948215,Kliningan Buahbatu,-6.9426596,107.6282283,0,0
v_107.630216_-6.944730,Jalan Buah Batu,-6.9447298,107.630216,0,0
v_107.632235_-6.946824,Jalan Buah Batu,-6.9468242,107.6322352,0,0
5825209951,Simpang Samsat Kiaracondong,-6.9450226,107.6428119,0,0
12806851389,STT Mandala,-6.944662,107.6438888,0,0
12806851390,SMK Medika Com,-6.9438278,107.6464874,0,0
12806851392,Unibi,-6.9425403,107.6505153,0,0
12806851396,Cidurian Utara,-6.941787,107.6528692,0,0
12806851393,SMKN 9 Bandung,-6.9405212,107.6569119,0,0
3375689664,Jasa Raharja Jabar,-6.9400924,107.6582639,0,0
12806851400,Suparma,-6.9395718,107.6601512,0,0
12806868601,Kawaluyaan,-6.9390207,107.6635594,0,0
12806868603,Sanggar Hurip,-6.938728,107.6672726,0,0
v_107.670697_-6.938477,Jalan Soekarno-Hatta,-6.9384772,107.6706974,0,0
v_107.673552_-6.938276,Jalan Soekarno-Hatta,-6.9382758,107.6735519,0,0
12806868618,Cisaranten Kulon,-6.9379974,107.6775339,0,0
12806868620,KPP Pratama Cicadas,-6.9378628,107.6794352,0,0
v_107.682927_-6.937623,Jalan Soekarno-Hatta,-6.9376226,107.6829267,0,0
v_107.685905_-6.937405,Jalan Soekarno-Hatta,-6.9374047,107.6859053,0,0
v_107.688678_-6.937197,Jalan Soekarno-Hatta,-6.9371968,107.688678,0,0
v_107.691693_-6.936968,Jalan Soekarno-Hatta,-6.9369685,107.6916934,0,0
3780800108,Pasar Induk Gedebage,-6.9364151,107.6972019,0,0
12806516344,Barat Simpang Gedebage,-6.9372117,107.6918125,0,0
v_107.688397_-6.937453,Jalan Soekarno-Hatta,-6.9374526,107.6883969,0,0
v_107.685206_-6.937691,Jalan Soekarno-Hatta,-6.9376909,107.6852061,0,0
v_107.682445_-6.937881,Jalan Soekarno-Hatta,-6.9378809,107.6824446,0,0
12806868621,SMKN 6 Bandung,-6.9380944,107.6794141,0,0
12806868622,Cipamokolan,-6.9382789,107.6768401,0,0
12806868623,Aria Graha,-6.9385626,107.6729122,0,0
3375689668,RS Al Islam,-6.9388175,107.6692698,0,0
12806868625,Metro,-6.93901,107.6665574,0,0
12806868626,Rancabolang,-6.9392635,107.6633094,0,0
12806868627,SMKN 7 Bandung,-6.939893,107.6598099,0,0
12806868632,Gagak Rimang,-6.9400797,107.6590642,0,0
3272226033,Metro Indah Mall,-6.9403972,107.6580268,0,0
12806868633,BPN Kanwil Jabar,-6.9406892,107.6570876,0,0
12806851397,Cidurian Selatan,-6.9420012,107.6529256,0,0
12806868637,Kantor Pos Sekejati,-6.9427159,107.6506763,0,0
12806868639,Disnaker Jabar,-6.944058,107.646481,0,0
12806868640,UNINUS,-6.9448492,107.6441008,0,0
12808948218,Guntursari Wetan,-6.9465686,107.6318869,0,0
1980677053,ISBI Bandung,-6.942597,107.6280578,0,0
v_107.627212_-6.937838,Jalan Karawitan,-6.9378376,107.6272124,0,0
12806868635,Golkar Jawa Barat,-6.9337673,107.6269745,0,0
12809462424,Kangkung Kaler,-6.9308456,107.6260901,0,0
v_107.623714_-6.925252,Jalan Malabar,-6.925252,107.623714,0,0
v_107.624623_-6.922605,Jalan Malabar,-6.9226045,107.6246232,0,0
11735248683,Kantor Pos Kosambi,-6.9192144,107.6235031,0,0
3277420346,Seberang Pasar Kosambi,-6.9199617,107.6220644,0,0
11735248705,Ketapang,-6.921143,107.619848,0,0
12806120209,Taman Musik,-6.9122853,107.6165113,0,0
11739021629,SMAN 6 Bandung,-6.9114098,107.5979188,0,0
12806120202,SDN 013 Pajajaran,-6.9081059,107.5976849,0,0
5825369226,Unknown,-6.9058209,107.59755,0,0
12809082539,Djunjunan Paskal,-6.9003956,107.5968191,0,0
v_107.593913_-6.898896,Jalan Dr. Djunjunan,-6.8988957,107.5939125,0,0
v_107.591696_-6.896997,Jalan Dr. Djunjunan,-6.8969965,107.5916961,0,0
12628813994,Griya Pasteur 1,-6.8950796,107.5884432,0,0
v_107.586069_-6.893330,Jalan Dr. Djunjunan,-6.8933302,107.5860686,0,0
12628813991,Warung Cepot,-6.8923414,107.5832389,0,0
v_107.581497_-6.890164,Jalan Surya Sumantri,-6.8901644,107.5814967,0,0
3384993309,Maranatha,-6.8859263,107.5813607,0,0
v_107.581404_-6.883141,Jalan Surya Sumantri,-6.8831411,107.5814041,0,0
306334264,Cibogo Atas,-6.8818614,107.5777479,0,0
1585594342,Rusun Sarijadi,-6.8827073,107.5749699,0,0
12628813986,Sarijadi,-6.8816653,107.578425,0,0
12628813987,Lemahneundeut,-6.8813034,107.5787258,0,0
12628813990,Setrasari,-6.8821984,107.5814944,0,0
v_107.581452_-6.885326,Jalan Surya Sumantri,-6.8853263,107.581452,0,0
v_107.581389_-6.888078,Jalan Surya Sumantri,-6.888078,107.5813891,0,0
1658426541,BPJS Pasteur,-6.8922539,107.5829072,0,0
12013144935,Mall d'Botanica,-6.8925604,107.5849478,0,0
2958261155,Djundjunan 3,-6.8929291,107.5856805,0,0
12628813992,Griya Pasteur 2,-6.8948914,107.5883918,0,0
v_107.590795_-6.896401,Jalan Dr. Djunjunan,-6.8964009,107.5907946,0,0
v_107.593218_-6.897932,Jalan Dr. Djunjunan,-6.8979319,107.5932178,0,0
v_107.601097_-6.904020,Bunderan Radjiman,-6.90402,107.6010968,0,0
1700556149,Taman Westhoff,-6.9010192,107.5982442,0,0
12809283847,SDN Sukaraja,-6.8914927,107.5786575,0,0
v_107.575647_-6.891307,Jalan Sukaraja,-6.8913072,107.5756474,0,0
1396428138,Simpang Dakota,-6.8935189,107.5726156,0,0
12809283844,Borma Dakota,-6.8908761,107.572217,0,0
12809283842,Mentor,-6.889704,107.5698999,0,0
3250402136,Gunung Batu,-6.8875315,107.5672467,0,0
2317306703,Seberang Gateway Pasteur,-6.8893002,107.566898,0,0
v_107.569861_-6.889696,Jalan Gunung Batu,-6.8896958,107.5698608,0,0
v_107.572243_-6.891032,Jalan Dakota,-6.8910315,107.5722426,0,0
v_107.573311_-6.893711,Jalan Sukaraja,-6.8937105,107.5733107,0,0
v_107.575455_-6.891851,Jalan Sukaraja,-6.8918515,107.5754545,0,0
v_107.578523_-6.891446,Jalan Sukaraja,-6.8914458,107.5785226,0,0
v_107.595426_-6.899799,Jalan Dr. Djunjunan,-6.8997986,107.5954259,0,0
v_107.598570_-6.900207,Jalan Pasteur,-6.900207,107.5985704,0,0
12809237524,GKI Pasteur,-6.9002045,107.6027269,0,0
v_107.607546_-6.907614,Jalan Wastukencana,-6.9076136,107.6075461,0,0
12809237527,Pajajaran Timur,-6.9071527,107.6047535,0,0
3874166202,Terminal Margahayu Raya,-6.9465292,107.6626652,0,0
v_107.663379_-6.943853,Jalan Rancabolang,-6.9438528,107.663379,0,0
v_107.644432_-6.927215,Jalan Layang Kiaracondong,-6.927215,107.6444319,0,0
3376430783,Tugu Tunas Taman Pramuka,-6.9105422,107.6265596,0,0
12947493616,Riau Aceh,-6.9097089,107.6256861,0,0
12809507149,bjb Riau,-6.9092859,107.6252606,0,0
12947493614,HKBP Riau,-6.9086974,107.624592,0,0
12809507147,Riau Cihapit,-6.9081445,107.623898,0,0
12809507143,Pengadilan Negeri Bandung,-6.9063102,107.6220332,0,0
12947493613,De Pavilijoen,-6.9058792,107.6207244,0,0
12947493612,Sekolah Taruna Bakti,-6.9060981,107.6183784,0,0
12947493611,Graha Pos,-6.9061429,107.6173359,0,0
v_107.600091_-6.882227,Jalan Dokter Danudirja Setiabudhi,-6.8822275,107.6000907,0,0
v_107.601580_-6.884516,Jalan Raden Adipati Aria Wiranatakusumah,-6.8845161,107.60158,0,0
29379224,Jl. Jurang,-6.8873092,107.6005875,0,0
11739021634,Riau XL,-6.9068537,107.6096165,0,0
12947493608,Rumah Sakit Sariningsih,-6.9070444,107.6114489,0,0
12819940053,Riau Junction,-6.9070609,107.6116695,0,0
12947493609,RSGM Kota Bandung,-6.9064746,107.6144094,0,0
12947493610,Heritage,-6.9061407,107.6173687,0,0
2670043322,TK Taruna Bakti,-6.905928,107.6195027,0,0
12809507145,Seberang Pengadilan Negeri Bandung,-6.9062923,107.6220004,0,0
3375793684,Pusdiklat PU,-6.9069596,107.6228683,0,0
12947493615,Riau Serayu,-6.9090547,107.6250154,0,0
v_107.644116_-6.917283,Jalan H. Ibrahim Adjie,-6.9172833,107.6441162,0,0
v_107.644450_-6.924568,Jalan Layang Kiaracondong,-6.9245676,107.64445,0,0
v_107.644375_-6.927422,Jalan Layang Kiaracondong,-6.9274215,107.6443746,0,0
v_107.672582_-6.938406,Jalan Soekarno-Hatta,-6.9384059,107.6725823,0,0
v_107.663618_-6.941929,Jalan Rancabolang,-6.9419288,107.6636177,0,0
1664514926,Terminal Riung Bandung,-6.9493701,107.6832703,0,0
v_107.683717_-6.946284,Jalan terdekat,-6.9462838,107.6837165,0,0
v_107.682861_-6.943580,Jalan Riung Subur,-6.9435796,107.6828611,0,0
v_107.679758_-6.942860,Jalan Riung Hegar Raya,-6.9428597,107.6797581,0,0
v_107.677192_-6.941662,Jalan terdekat,-6.9416616,107.677192,0,0
3375794694,DPRD Kota Bandung,-6.916856,107.6342682,0,0
3476292190,Dishub Jabar,-6.9181019,107.6324739,0,0
11707030859,Bandung Creative Hub B,-6.9184177,107.6312506,0,0
v_107.630029_-6.915890,Jalan Laswi,-6.9158899,107.6300294,0,0
12947493617,Seberang Hotel Grand Tebu,-6.9133503,107.6290686,0,0
v_107.625788_-6.912958,Jalan Patra Komala,-6.9129582,107.6257882,0,0
v_107.623067_-6.912295,Jalan Patra Komala,-6.912295,107.6230669,0,0
v_107.620429_-6.911478,Jalan Menado,-6.9114781,107.620429,0,0
v_107.617564_-6.911511,Jalan Belitung,-6.9115105,107.6175644,0,0
v_107.616616_-6.904517,Jalan Banda,-6.9045169,107.616616,0,0
v_107.616899_-6.901789,Jalan Cilamaya,-6.9017889,107.6168987,0,0
v_107.613868_-6.884506,Jalan Ir. H. Djuanda,-6.8845059,107.6138679,0,0
v_107.615385_-6.882261,Jalan Ir. H. Djuanda,-6.8822612,107.6153854,0,0
v_107.616425_-6.879438,Jalan Ir. H. Djuanda,-6.8794377,107.6164246,0,0
3373712063,Dago Pojok,-6.8745002,107.6190216,0,0
v_107.619922_-6.871904,Jalan Ir. H. Djuanda,-6.8719041,107.6199224,0,0
12819940048,Taman Budaya,-6.8682321,107.6205719,0,0
11707030826,Panatayudha A,-6.8979225,107.6161542,0,0
1660289593,Gasibu,-6.8992842,107.6179657,0,0
v_107.623263_-6.903676,Jalan Citarum,-6.9036761,107.6232631,0,0
3375793685,Taman Pramuka,-6.9105798,107.6265967,0,0
3375793687,Hotel Grand Tebu,-6.9130163,107.6288644,0,0
5391666887,Jalan Mangga,-6.9151724,107.6310524,0,0
11735248691,Sekolah Agustinus,-6.9140574,107.6332108,0,0
v_107.677233_-6.940770,Jalan Cipamokolan,-6.9407701,107.6772327,0,0
v_107.679196_-6.942702,Jalan Riung Hegar Raya,-6.9427015,107.6791957,0,0
v_107.681966_-6.943631,Jalan terdekat,-6.9436312,107.6819663,0,0
v_107.683789_-6.945663,Jalan Riung Mungpulung II,-6.9456634,107.6837893,0,0
12633822769,Pasar Caringin,-6.9419021,107.5829792,0,0
v_107.581099_-6.939732,Jalan Soekarno-Hatta,-6.9397324,107.5810992,0,0
v_107.579545_-6.937461,Jalan Soekarno-Hatta,-6.9374607,107.5795452,0,0
v_107.577964_-6.935117,Jalan Soekarno-Hatta,-6.9351167,107.5779644,0,0
12808867766,Griya Sumbersari,-6.9325102,107.5766013,0,0
v_107.577430_-6.929849,Jalan Pasir Koja,-6.9298491,107.57743,0,0
v_107.580395_-6.928705,Jalan Pasir Koja,-6.9287053,107.5803951,0,0
v_107.584067_-6.927273,Jalan Pasir Koja,-6.9272726,107.5840665,0,0
11711275757,Toko Ambon,-6.9186067,107.5855198,0,0
1911635044,Yayasan LPPN,-6.9157549,107.5853751,0,0
v_107.587880_-6.914669,Jalan terdekat,-6.9146694,107.5878799,0,0
11735239268,SMA Trinitas,-6.9165436,107.5917121,0,0
11735248671,Rumah Sakit Kebon Jati,-6.9163694,107.5966005,0,0
3640664489,Paskal Hypersquare,-6.9155623,107.5981241,0,0
5825246687,Unknown,-6.906026,107.6093278,0,0
v_107.609580_-6.903156,Jalan Purnawarman,-6.9031562,107.6095799,0,0
v_107.631581_-6.896133,Jalan Rereng Wulung,-6.8961333,107.631581,0,0
v_107.630533_-6.893540,Jalan Rereng Adumanis,-6.89354,107.6305331,0,0
v_107.633277_-6.892735,Jalan Sido Mukti,-6.8927347,107.6332768,0,0
v_107.630664_-6.891839,Jalan Cikondang,-6.8918391,107.6306643,0,0
v_107.630061_-6.889022,Jalan Cigadung Raya Timur,-6.889022,107.6300606,0,0
v_107.630315_-6.886125,Jalan Cigadung Raya Timur,-6.8861248,107.6303147,0,0
v_107.629378_-6.883528,Jalan Cigadung Raya Tengah,-6.8835282,107.6293776,0,0
v_107.626616_-6.883392,Jalan Cigadung Raya Tengah,-6.8833921,107.626616,0,0
v_107.625202_-6.881004,Jalan Cigadung Raya Barat,-6.8810041,107.6252018,0,0
312523735,Cigadung/Rancakendal,-6.8780245,107.6236902,0,0
v_107.622752_-6.875331,Jalan Cigadung Raya Barat,-6.8753315,107.6227516,0,0
v_107.622457_-6.872572,Jalan Cigadung Raya Barat,-6.8725724,107.6224572,0,0
v_107.623387_-6.869810,Jalan Cigadung Raya Barat,-6.8698105,107.6233873,0,0
v_107.624498_-6.867322,Jalan Cigadung Raya Barat,-6.8673221,107.624498,0,0
5825396969,Unknown,-6.8651084,107.6262405,0,0
v_107.623508_-6.864473,Jalan Ir. H. Djuanda,-6.8644733,107.6235083,0,0
v_107.623039_-6.864712,Jalan Ir. H. Djuanda,-6.8647116,107.6230386,0,0
v_107.624564_-6.867267,Jalan Raya Golf,-6.8672667,107.6245638,0,0
v_107.625129_-6.880888,Jalan Cigadung Raya Barat,-6.8808881,107.6251295,0,0
v_107.626546_-6.883260,Jalan Cigadung Raya Barat,-6.8832597,107.6265455,0,0
v_107.629322_-6.882907,Jalan Cigadung Raya Tengah,-6.8829075,107.6293215,0,0
v_107.629913_-6.885586,Jalan Cigadung Raya Tengah,-6.8855858,107.6299134,0,0
v_107.630022_-6.888319,Jalan Cigadung Raya Timur,-6.888319,107.6300217,0,0
v_107.630373_-6.891015,Jalan Cikondang,-6.8910152,107.6303731,0,0
v_107.616818_-6.899178,Jalan Surapati,-6.899178,107.6168185,0,0
12628813996,Cikapayang Dago 1,-6.8990335,107.6120546,0,0
v_107.609354_-6.898704,Jalan Taman Sari,-6.8987039,107.6093542,0,0
v_107.609789_-6.901507,Jalan Sawunggaling,-6.9015071,107.6097892,0,0
v_107.608250_-6.903903,Jalan Taman Sari,-6.9039031,107.60825,0,0
2012970403,Arjuna/Bima,-6.9087296,107.5917888,0,0
v_107.589769_-6.911033,Jalan Arjuna,-6.9110326,107.5897685,0,0
v_107.586958_-6.910568,Jalan Komodor Udara Supadio,-6.9105683,107.5869579,0,0
v_107.584299_-6.909516,Jalan Komodor Udara Supadio,-6.9095157,107.5842991,0,0
v_107.581031_-6.908197,Jalan Komodor Udara Supadio,-6.9081972,107.5810311,0,0
v_107.582644_-6.910510,Jalan Ciroyom,-6.9105104,107.5826442,0,0
v_107.582550_-6.913411,Jalan Andir,-6.9134115,107.5825501,0,0
v_107.588410_-6.916270,Jalan Rajawali Timur,-6.9162695,107.5884105,0,0
v_107.591012_-6.917528,Jalan Waringin,-6.9175282,107.5910124,0,0
v_107.588378_-6.918933,Jalan Jendral Sudirman,-6.9189333,107.5883775,0,0
v_107.586214_-6.920918,Jalan Jamika,-6.9209176,107.5862144,0,0
v_107.585799_-6.923708,Jalan Jamika,-6.9237081,107.5857993,0,0
12626357387,Simpang Pasir Koja,-6.9270511,107.5849563,0,0
v_107.582183_-6.928113,Jalan Pasir Koja,-6.928113,107.5821832,0,0
12626357388,SPBU Pasir Koja,-6.9292122,107.5793217,0,0
12808867765,Sumbersari 1,-6.9313117,107.5763049,0,0
12626357398,Sumber Sari Junction,-6.9323901,107.576671,0,0
v_107.578352_-6.935524,Jalan Soekarno-Hatta,-6.9355244,107.5783524,0,0
v_107.579936_-6.937863,Jalan Soekarno-Hatta,-6.937863,107.579936,0,0
12626357399,Pasar Induk Caringin,-6.9419015,107.5831212,0,0
12808867764,Simpang Caringin,-6.9434372,107.5850407,0,0
3272542985,Puskesmas Kopo,-6.9462748,107.5892183,0,0
7484309659,Barat Simpang Kopo Caringin,-6.9467105,107.5879339,0,0
v_107.585238_-6.946130,Jalan Caringin,-6.9461305,107.585238,0,0
3251007192,Pangkalan Angkot Panghegar,-6.9237417,107.6835707,0,0
12814754637,SMK YPF,-6.9206777,107.6842783,0,0
v_107.684380_-6.917884,Jalan terdekat,-6.9178836,107.6843802,0,0
v_107.684787_-6.914876,Jalan terdekat,-6.9148759,107.6847867,0,0
v_107.683202_-6.912217,Jalan Cicukang,-6.9122167,107.6832025,0,0
12814754622,Silver Kris,-6.909138,107.6844034,0,0
v_107.684130_-6.906418,Jalan Abdul Haris Nasution,-6.9064181,107.6841297,0,0
v_107.681561_-6.905302,Jalan Abdul Haris Nasution,-6.9053016,107.6815606,0,0
v_107.678855_-6.904916,Jalan Abdul Haris Nasution,-6.904916,107.6788554,0,0
12806309250,Seberang Borma Pasirimpun,-6.9047223,107.6758598,0,0
35135540,Lapas Sukamiskin,-6.9046182,107.6750064,0,0
12806309247,Komplek Sarimas,-6.9046989,107.672335,0,0
v_107.669495_-6.904222,Jalan Abdul Haris Nasution,-6.9042219,107.6694947,0,0
v_107.666706_-6.904150,Jalan Abdul Haris Nasution,-6.9041501,107.6667063,0,0
v_107.663898_-6.903860,Jalan Abdul Haris Nasution,-6.9038599,107.6638979,0,0
v_107.661182_-6.903235,Jalan Abdul Haris Nasution,-6.9032348,107.6611816,0,0
5832221936,Depan Terminal Cicaheum,-6.9022123,107.6568007,0,0
v_107.654175_-6.902975,Jalan Jenderal Ahmad Yani,-6.9029752,107.654175,0,0
v_107.651275_-6.904482,Jalan Jenderal Ahmad Yani,-6.9044817,107.6512752,0,0
11735248707,BCA Cimuncang,-6.9060351,107.6483165,0,0
11735248706,Gateway Cicadas,-6.9072816,107.6459395,0,0
v_107.643543_-6.908584,Jalan Jenderal Ahmad Yani,-6.9085842,107.6435428,0,0
v_107.620193_-6.903461,Jalan Cisanggarung,-6.9034615,107.620193,0,0
v_107.617474_-6.903673,Jalan Cilamaya,-6.9036728,107.6174743,0,0
v_107.615980_-6.901369,Jalan Diponegoro,-6.9013693,107.6159798,0,0
v_107.613349_-6.900456,Jalan Diponegoro,-6.9004557,107.613349,0,0
v_107.610693_-6.899686,Jalan Sulanjana,-6.8996859,107.6106935,0,0
12813237928,Lapangan Sipil,-6.8933731,107.6094774,0,0
2035856554,Gerbang Depan ITB,-6.8932466,107.6109077,0,0
12813237913,Ganesha Ciungwanara,-6.8936144,107.6121446,0,0
v_107.614054_-6.891569,Jalan Teuku Umar,-6.891569,107.6140545,0,0
11104669204,Rumah Sakit Santo Borromeus A,-6.8944643,107.6129302,0,0
12813237923,Masjid Salman,-6.8933595,107.611316,0,0
12813237926,Klinik Pratama ITB,-6.8933482,107.6095668,0,0
v_107.617044_-6.907427,Jalan Banda,-6.9074272,107.6170441,0,0
v_107.617608_-6.910595,Jalan Banda,-6.9105947,107.6176084,0,0
v_107.616600_-6.919844,Jalan Veteran,-6.9198441,107.6166001,0,0
11735248679,Pasar Kosambi,-6.9199012,107.6221779,0,0
11735248685,Segitiga Mas,-6.9179222,107.6258605,0,0
11735248686,Jaya Plaza,-6.9174142,107.6268373,0,0
11735248689,Dinas Pendidikan Kota Bandung,-6.9164526,107.6287225,0,0
v_107.641998_-6.909337,Jalan Jenderal Ahmad Yani,-6.9093371,107.6419984,0,0
v_107.644402_-6.908062,Jalan Jenderal Ahmad Yani,-6.9080623,107.6444024,0,0
v_107.646917_-6.906766,Jalan Jenderal Ahmad Yani,-6.9067662,107.6469168,0,0
11735248708,Cimuncang,-6.9050722,107.650154,0,0
v_107.653252_-6.903436,Jalan Jenderal Ahmad Yani,-6.903436,107.6532521,0,0
v_107.659534_-6.902213,Jalan Abdul Haris Nasution,-6.9022128,107.6595339,0,0
v_107.662352_-6.903687,Jalan Abdul Haris Nasution,-6.9036867,107.6623517,0,0
12806309242,SDN Cikadut,-6.9040466,107.6656526,0,0
12806309246,Gang H.M. Syarief,-6.9044513,107.6718533,0,0
12806309248,Borma Pasirimpun,-6.904729,107.6759315,0,0
v_107.678689_-6.904896,Jalan Abdul Haris Nasution,-6.904896,107.6786894,0,0
v_107.684105_-6.906408,Jalan Abdul Haris Nasution,-6.9064076,107.684105,0,0
12814754624,Yuntex Raya,-6.9099636,107.6840757,0,0
v_107.683082_-6.912843,Jalan Cicukang,-6.9128432,107.683082,0,0
v_107.684678_-6.915625,Jalan terdekat,-6.9156246,107.6846777,0,0
v_107.684900_-6.918504,Jalan terdekat,-6.9185044,107.6849004,0,0
12814754639,K.H. Djunaedi,-6.922592,107.6839378,0,0
v_107.595762_-6.877853,Jalan Sindang Sirna,-6.8778535,107.595762,0,0
v_107.592831_-6.878013,Jalan Sindang Sirna,-6.8780131,107.5928312,0,0
v_107.590654_-6.875944,Jalan Cipedes Atas,-6.8759436,107.5906541,0,0
v_107.590606_-6.873221,Jalan Cipedes Atas,-6.8732215,107.5906057,0,0
v_107.590550_-6.870420,Jalan Cipedes Atas,-6.8704204,107.5905503,0,0
29357243,KPAD,-6.8685096,107.5860838,0,0
v_107.583160_-6.867991,Jalan Geger Kalong Hilir,-6.8679915,107.5831598,0,0
v_107.581104_-6.870125,Jalan Sarijadi Raya,-6.8701249,107.5811043,0,0
v_107.580492_-6.872856,Jalan Sarijadi Raya,-6.8728564,107.5804919,0,0
v_107.579684_-6.875468,Jalan Sarijadi Raya,-6.8754684,107.5796845,0,0
v_107.577764_-6.877382,Jalan Sarimanah,-6.8773821,107.5777637,0,0
v_107.576590_-6.880059,Jalan Sarimanah,-6.8800587,107.5765904,0,0
v_107.582922_-6.868085,Jalan Geger Kalong Hilir,-6.8680848,107.5829223,0,0
v_107.588982_-6.869619,Jalan Geger Kalong Hilir,-6.8696193,107.5889824,0,0
v_107.590191_-6.872216,Jalan Cipedes Atas,-6.8722158,107.5901909,0,0
v_107.590600_-6.875530,Jalan Cipedes Atas,-6.8755303,107.5906,0,0
v_107.591966_-6.877956,Jalan Sindang Sirna,-6.8779556,107.5919657,0,0
12634504453,Karangsetra Waterland,-6.8790317,107.5951798,0,0
v_107.597354_-6.880875,Jalan Karang Sari,-6.8808747,107.5973545,0,0
v_107.602150_-6.887298,Jalan Raden Adipati Aria Wiranatakusumah,-6.8872977,107.6021499,0,0
v_107.586780_-6.910497,Jalan Komodor Udara Supadio,-6.910497,107.5867801,0,0
3383508275,Komodor Supadio,-6.9094444,107.5841152,0,0
v_107.578490_-6.909760,Jalan Garuda,-6.90976,107.5784895,0,0
v_107.577821_-6.912714,Jalan Garuda,-6.9127137,107.5778207,0,0
v_107.577185_-6.915503,Jalan Garuda,-6.9155032,107.5771848,0,0
v_107.575123_-6.917383,Jalan Jendral Sudirman,-6.9173833,107.5751233,0,0
v_107.574480_-6.920083,Jalan Soekarno-Hatta,-6.9200829,107.5744799,0,0
v_107.574883_-6.922758,Jalan Soekarno-Hatta,-6.9227581,107.5748829,0,0
v_107.575287_-6.925464,Jalan Soekarno-Hatta,-6.9254635,107.5752867,0,0
29380518,Holis/Bojong,-6.9279358,107.5740641,0,0
v_107.571243_-6.927752,Jalan Bojong Raya,-6.9277519,107.5712431,0,0
3252892639,Cijerah,-6.9266742,107.5657238,0,0
v_107.565249_-6.929674,Jalan Raya Cijerah,-6.929674,107.5652488,0,0
v_107.564511_-6.932309,Jalan Gempol,-6.9323086,107.5645114,0,0
v_107.561806_-6.931984,Jalan Gempol,-6.9319844,107.5618056,0,0
3110267088,Gempol Sari,-6.9299747,107.5580796,0,0
v_107.555638_-6.928459,Jalan Gempol,-6.9284593,107.5556383,0,0
v_107.553244_-6.927103,Jalan Gempol,-6.9271032,107.5532442,0,0
v_107.551439_-6.929466,Jalan Dirgantara,-6.9294659,107.5514388,0,0
3385219353,Terminal Bumi Asri,-6.9324632,107.5508272,0,0
v_107.574833_-6.925312,Jalan Holis,-6.9253122,107.5748329,0,0
v_107.574673_-6.922073,Jalan Soekarno-Hatta,-6.922073,107.5746727,0,0
v_107.574311_-6.919126,Jalan Soekarno-Hatta,-6.919126,107.574311,0,0
v_107.574707_-6.916332,Jalan Elang,-6.9163324,107.5747072,0,0
11711326973,Terminal Elang,-6.9133498,107.575723,0,0
11735239264,Rajawali 1,-6.9137773,107.5781901,0,0
11735239266,Dunguscariang,-6.9149105,107.5828928,0,0
v_107.551406_-6.929639,Jalan Dirgantara,-6.9296386,107.5514062,0,0
v_107.552180_-6.926537,Jalan Dirgantara,-6.926537,107.5521804,0,0
v_107.554845_-6.927985,Jalan Gempol,-6.9279848,107.5548453,0,0
v_107.560707_-6.931507,Jalan Gempol,-6.9315072,107.5607067,0,0
v_107.563292_-6.932341,Jalan Gempol,-6.9323412,107.5632917,0,0
v_107.565064_-6.930284,Jalan Raya Cijerah,-6.9302837,107.565064,0,0
v_107.568535_-6.927538,Jalan Bojong Raya,-6.9275379,107.5685351,0,0
11711326972,Plaza Telkom Rajawali,-6.9129722,107.5753653,0,0
v_107.598281_-6.918692,Jalan Gardujati,-6.9186924,107.5982807,0,0
v_107.598472_-6.921420,Jalan Astana Anyar,-6.9214196,107.5984717,0,0
v_107.598987_-6.924326,Jalan Astana Anyar,-6.9243261,107.5989872,0,0
v_107.599919_-6.926874,Jalan Astana Anyar,-6.9268738,107.5999192,0,0
v_107.600735_-6.929571,Jalan Astana Anyar,-6.9295707,107.6007351,0,0
v_107.597345_-6.929862,Jalan Panjunan,-6.9298621,107.5973451,0,0
v_107.596536_-6.932496,Jalan Kyai Haji Wahid Hasyim,-6.9324963,107.5965357,0,0
12806717333,RS Imanuel Pintu Kopo,-6.9351264,107.5957871,0,0
11739021652,Rumah Sakit Immanuel A,-6.9372267,107.5956524,0,0
v_107.598484_-6.937651,Jalan Peta,-6.937651,107.5984843,0,0
12628930762,Muara A,-6.9371534,107.6020331,0,0
12806765746,Taman Tegalega/Sri Baduga,-6.9373001,107.6037009,0,0
11707031601,PT INTI B (BKR 5),-6.9375463,107.6067624,0,0
3445680780,Samsudin,-6.9375959,107.6083051,0,0
v_107.611406_-6.935983,Jalan Mochammad Ramdhan,-6.9359826,107.611406,0,0
v_107.623058_-6.928673,Jalan Palasari,-6.928673,107.6230578,0,0
12806717340,Aneka Jeans,-6.924329,107.6268157,0,0
12806717344,SPBU Laswi,-6.9236669,107.6279241,0,0
v_107.630294_-6.922153,Jalan Laswi,-6.9221533,107.630294,0,0
11735248690,Stadion Persib Sidolig,-6.9161976,107.6292904,0,0
12637510528,Stasiun Cikudapateuh,-6.9189956,107.6258024,0,0
v_107.624714_-6.921582,Jalan Samoja Dalam,-6.9215815,107.6247143,0,0
12806717338,SMK Pariwisata Telkom,-6.9255559,107.623843,0,0
9189908949,Yayasan Muslimah,-6.9272967,107.6234197,0,0
2607816747,Unknown,-6.9309756,107.622434,0,0
10815723012,Simpang Mohamad Toha Biddokkes,-6.9375586,107.6055097,0,0
12806765747,Muara,-6.9374746,107.5999005,0,0
11739021653,Rumah Sakit Immanuel B,-6.9372977,107.5955421,0,0
v_107.595970_-6.934459,Jalan Kyai Haji Wahid Hasyim,-6.9344586,107.5959697,0,0
v_107.596765_-6.931664,Jalan Kyai Haji Wahid Hasyim,-6.9316642,107.596765,0,0
v_107.597585_-6.929065,Jalan Kopo,-6.9290648,107.5975851,0,0
12806765750,Karanganyar,-6.9226401,107.598583,0,0
v_107.596264_-6.921158,Jalan Cibadak,-6.9211577,107.5962644,0,0
11711275755,Mayapada Tower,-6.9193345,107.591747,0,0
11735248716,Simpang Jamika,-6.9188238,107.5874451,0,0
11954573588,SDN Raya Barat,-6.9181852,107.5819763,0,0
11711275763,Kemenag Kanwil Jabar,-6.9176018,107.5771136,0,0
v_107.574354_-6.917394,Bunderan Cibeureum,-6.9173939,107.5743538,0,0
2604179157,Optik Krida,-6.9155598,107.5720549,0,0
11954573590,Batas Kota,-6.9109035,107.569361,0,0
11711326971,Rajawali Barat,-6.9109306,107.5701462,0,0
11898859975,Grand Yogya Kepatihan,-6.9238597,107.606261,0,0
v_107.608720_-6.922667,Jalan Dalem Kaum,-6.9226665,107.6087199,0,0
v_107.611858_-6.923033,Jalan Dalem Kaum,-6.9230332,107.6118585,0,0
v_107.615152_-6.928135,Jalan Cikawao,-6.928135,107.6151523,0,0
11707031579,Hotel Horison B,-6.9343038,107.6251981,0,0
7702036194,Hotel Horison A,-6.9343354,107.6252887,0,0
v_107.623180_-6.936640,Jalan Pelajar Pejuang 45,-6.9366396,107.6231803,0,0
12808948214,Selontongan,-6.9402599,107.625925,0,0
12626499695,Taman Buah Batu,-6.9484693,107.6339239,0,0
12626499694,Swadarma BNI,-6.9503784,107.6357751,0,0
12626499692,Pasar Kordon B,-6.9534876,107.6387006,0,0
12626499689,Bluebird B,-6.9584038,107.6394982,0,0
v_107.638723_-6.961848,Jalan Buah Batu,-6.9618482,107.6387229,0,0
12626499688,Puskesmas Kujangsari B,-6.9649573,107.6381038,0,0
6609327003,Cipagalo,-6.9657129,107.6378871,0,0
12808943892,Puskesmas Kujangsari A,-6.9647853,107.6380282,0,0
v_107.638552_-6.962100,Jalan Buah Batu,-6.9621002,107.638552,0,0
12626499690,Bluebird A,-6.9576866,107.639482,0,0
35138340,Pasar Kordon A,-6.9541863,107.638933,0,0
12626499693,JAPNAS,-6.9512022,107.6364761,0,0
v_107.634338_-6.949007,Jalan Buah Batu,-6.9490065,107.6343379,0,0
1980592202,Seberang Selontongan,-6.9400594,107.6256577,0,0
v_107.623450_-6.937746,Jalan Buah Batu,-6.937746,107.62345,0,0
v_107.621487_-6.935677,Jalan Buah Batu,-6.9356769,107.6214868,0,0
v_107.619495_-6.933555,Jalan Buah Batu,-6.9335548,107.6194953,0,0
12626529706,Banceuy,-6.9187122,107.6066404,0,0
29357939,Junction 8 Sukajadi,-6.8840134,107.596703,0,0
v_107.599422_-6.884569,Jalan Cemara,-6.8845695,107.5994217,0,0
v_107.601885_-6.885973,Jalan Raden Adipati Aria Wiranatakusumah,-6.8859731,107.6018854,0,0
v_107.602431_-6.889762,Jalan Raden Adipati Aria Wiranatakusumah,-6.8897621,107.6024306,0,0
3376669085,Masjid Besar Cipaganti,-6.894782,107.602517,0,0
v_107.600143_-6.896272,Jalan Profesor Christiaan Eijkman,-6.8962722,107.6001433,0,0
v_107.599300_-6.900202,Jalan Pasteur,-6.900202,107.5993001,0,0
v_107.604095_-6.910403,Jalan Cicendo,-6.9104032,107.604095,0,0
v_107.604665_-6.913177,Jalan Otto Iskandardinata,-6.9131773,107.6046653,0,0
v_107.597532_-6.896607,Jalan Sederhana,-6.8966067,107.5975318,0,0
v_107.597458_-6.899457,Jalan Pasir Kaliki,-6.899457,107.597458,0,0
v_107.597649_-6.900409,Jalan terdekat,-6.9004086,107.5976493,0,0
v_107.570710_-6.917915,Jalan Raya Cijerah,-6.9179149,107.57071,0,0
v_107.569749_-6.920554,Jalan Raya Cijerah,-6.9205542,107.5697486,0,0
v_107.568226_-6.922991,Jalan Raya Cijerah,-6.9229908,107.5682257,0,0
3115995953,Cijerah,-6.927117,107.5648451,0,0
1387999370,Puskesmas Melong Asih,-6.9239311,107.5628736,0,0
v_107.566655_-6.925070,Jalan Raya Cijerah,-6.9250697,107.5666555,0,0
v_107.568305_-6.922728,Jalan Raya Cijerah,-6.9227279,107.5683046,0,0
v_107.569829_-6.920333,Jalan Raya Cijerah,-6.9203328,107.5698295,0,0
v_107.570743_-6.917782,Jalan Raya Cijerah,-6.917782,107.5707434,0,0
v_107.571327_-6.915115,Jalan Raya Cijerah,-6.9151148,107.5713267,0,0
v_107.577956_-6.912086,Jalan Garuda,-6.9120857,107.5779564,0,0
v_107.578684_-6.908936,Jalan Garuda,-6.9089362,107.5786837,0,0
v_107.581589_-6.907602,Jalan Abdul Rahman Saleh,-6.9076016,107.5815889,0,0
v_107.584524_-6.907388,Jalan Abdul Rahman Saleh,-6.9073882,107.5845244,0,0
v_107.597452_-6.902687,Jalan HOS. Cokroaminoto,-6.9026867,107.5974521,0,0
v_107.597345_-6.899921,Jalan Pasir Kaliki,-6.8999212,107.5973452,0,0
v_107.597294_-6.896911,Jalan Pasir Kaliki,-6.8969114,107.5972936,0,0
v_107.598717_-6.894063,Jalan Sederhana,-6.8940629,107.5987172,0,0
v_107.596179_-6.892924,Jalan Sukagalih,-6.8929236,107.5961792,0,0
v_107.593316_-6.892519,Jalan Sukagalih,-6.8925186,107.5933159,0,0
v_107.590425_-6.892269,Jalan Sukagalih,-6.8922693,107.5904249,0,0
v_107.591006_-6.896514,Jalan Dr. Djunjunan,-6.8965137,107.5910064,0,0
v_107.593531_-6.898235,Jalan Dr. Djunjunan,-6.8982345,107.5935309,0,0
v_107.595658_-6.899953,Jalan terdekat,-6.8999532,107.5956579,0,0
v_107.592927_-6.897844,Jalan Dr. Djunjunan,-6.8978439,107.5929268,0,0
v_107.569566_-6.889641,Jalan Gunung Batu,-6.8896411,107.5695663,0,0
v_107.566674_-6.889252,Jalan Gunung Batu,-6.889252,107.5666744,0,0
v_107.563952_-6.889761,Jalan Gunung Batu,-6.8897605,107.5639524,0,0
v_107.562217_-6.892493,Jalan Gunung Batu,-6.8924934,107.5622165,0,0
1666231924,Pangkalan Angkot Cimindi,-6.8953145,107.5602213,0,0
v_107.561984_-6.893234,Jalan Gunung Batu,-6.8932335,107.561984,0,0
v_107.563409_-6.890791,Jalan Gunung Batu,-6.8907915,107.5634091,0,0
v_107.588505_-6.893207,Jalan Sukagalih,-6.8932073,107.5885046,0,0
v_107.591608_-6.892302,Jalan Sukagalih,-6.8923015,107.5916078,0,0
v_107.671922_-6.962040,Jalan Marga Cinta,-6.9620401,107.6719217,0,0
v_107.674233_-6.963868,Jalan Derwati,-6.9638681,107.6742333,0,0
v_107.676637_-6.962422,Jalan terdekat,-6.9624225,107.6766374,0,0
v_107.677168_-6.959612,Jalan terdekat,-6.9596119,107.6771678,0,0
v_107.677566_-6.956658,Jalan terdekat,-6.9566581,107.6775655,0,0
v_107.676396_-6.954179,Jalan terdekat,-6.9541791,107.6763963,0,0
v_107.676498_-6.951103,Jalan terdekat,-6.9511028,107.6764984,0,0
v_107.676087_-6.948193,Jalan Cipamokolan,-6.9481927,107.6760873,0,0
v_107.676022_-6.945483,Jalan Cipamokolan,-6.9454829,107.6760216,0,0
v_107.677150_-6.942872,Jalan Cipamokolan,-6.9428723,107.6771505,0,0
v_107.672798_-6.938503,Jalan Soekarno-Hatta,-6.9385031,107.6727976,0,0
v_107.677843_-6.935667,Jalan Cisaranten Kulon,-6.9356674,107.6778428,0,0
v_107.679181_-6.933266,Jalan Cisaranten Kulon,-6.9332658,107.6791806,0,0
v_107.679637_-6.930383,Jalan Cisaranten Kulon,-6.9303828,107.6796366,0,0
v_107.681823_-6.928553,Jalan terdekat,-6.9285528,107.6818231,0,0
v_107.683177_-6.925607,Jalan terdekat,-6.9256068,107.6831773,0,0
v_107.683952_-6.922731,Jalan terdekat,-6.9227314,107.6839519,0,0
v_107.684598_-6.920066,Jalan terdekat,-6.9200657,107.6845984,0,0
v_107.684227_-6.917297,Jalan terdekat,-6.9172973,107.6842272,0,0
v_107.684398_-6.914551,Jalan Cicukang,-6.9145507,107.6843982,0,0
v_107.683468_-6.911597,Jalan Cicukang,-6.9115966,107.6834678,0,0
11047579524,UPTD Laboratorium Lingkungan Hidup,-6.9074116,107.6864696,0,0
v_107.688822_-6.909182,Jalan Abdul Haris Nasution,-6.9091822,107.6888218,0,0
v_107.690464_-6.911429,Jalan Abdul Haris Nasution,-6.9114295,107.6904642,0,0
v_107.693200_-6.912898,Jalan Abdul Haris Nasution,-6.9128981,107.6932002,0,0
v_107.696640_-6.913994,Jalan Abdul Haris Nasution,-6.9139937,107.6966396,0,0
v_107.699387_-6.914092,Jalan Abdul Haris Nasution,-6.9140921,107.6993869,0,0
11079993716,Ujungberung,-6.9140461,107.7028132,0,0
v_107.700009_-6.914134,Jalan Abdul Haris Nasution,-6.914134,107.7000087,0,0
2477149675,SDN Andir Kidul,-6.9136497,107.6955657,0,0
v_107.692568_-6.912699,Jalan Abdul Haris Nasution,-6.9126992,107.6925681,0,0
v_107.690286_-6.911206,Jalan Abdul Haris Nasution,-6.9112063,107.6902863,0,0
12806309257,Seberang SMAN 24 Bandung,-6.9084047,107.6881997,0,0
11047579523,Pusjatan,-6.907525,107.6867495,0,0
3251007173,Gerbang Pusjatan,-6.907087,107.6856912,0,0
v_107.684211_-6.909639,Jalan Cicukang,-6.9096389,107.6842106,0,0
v_107.684578_-6.914725,Jalan Cicukang,-6.9147246,107.6845783,0,0
v_107.684044_-6.917744,Jalan terdekat,-6.9177435,107.6840438,0,0
v_107.684367_-6.920425,Jalan terdekat,-6.9204245,107.6843675,0,0
v_107.683817_-6.923297,Jalan terdekat,-6.9232967,107.6838165,0,0
v_107.682927_-6.926320,Jalan terdekat,-6.9263197,107.6829274,0,0
v_107.681446_-6.928803,Jalan terdekat,-6.9288033,107.6814464,0,0
v_107.679490_-6.931038,Jalan Cisaranten Kulon,-6.9310378,107.6794904,0,0
v_107.679378_-6.933784,Jalan Cisaranten Kulon,-6.9337843,107.6793777,0,0
v_107.682152_-6.937732,Jalan Soekarno-Hatta,-6.9377322,107.6821521,0,0
v_107.686163_-6.937450,Jalan Soekarno-Hatta,-6.9374498,107.6861627,0,0
v_107.677138_-6.943535,Jalan Cipamokolan,-6.9435353,107.6771381,0,0
v_107.676131_-6.946126,Jalan Cipamokolan,-6.9461257,107.6761311,0,0
v_107.676061_-6.948925,Jalan Cipamokolan,-6.9489249,107.6760613,0,0
v_107.676504_-6.951675,Jalan terdekat,-6.9516752,107.6765038,0,0
v_107.676335_-6.954955,Jalan terdekat,-6.9549548,107.6763347,0,0
v_107.677437_-6.957622,Jalan terdekat,-6.9576215,107.6774369,0,0
v_107.677026_-6.960310,Jalan terdekat,-6.9603096,107.6770259,0,0
v_107.676537_-6.963101,Jalan terdekat,-6.963101,107.6765372,0,0
v_107.673819_-6.963833,Jalan Derwati,-6.9638334,107.6738195,0,0
v_107.671555_-6.961986,Jalan Marga Cinta,-6.9619861,107.6715551,0,0
11313188130,Pusdiklat Geologi Cisitu,-6.8796599,107.6120393,0,0
v_107.602256_-6.917344,Jalan Dulatip,-6.9173444,107.6022556,0,0
11711275750,KEB Hana Bank,-6.9205571,107.6020569,0,0
v_107.598520_-6.920140,Jalan Jendral Sudirman,-6.9201398,107.5985204,0,0
v_107.598660_-6.923156,Jalan Astana Anyar,-6.9231557,107.5986598,0,0
v_107.601783_-6.923575,Jalan Kalipah Apo,-6.9235754,107.6017833,0,0
3246190447,Terminal Tegallega,-6.9338128,107.6027695,0,0
6443280171,Astana Anyar RSIA Kota Bandung,-6.9293977,107.600717,0,0
12806765752,Cibadak Astanaanyar,-6.9209178,107.5984181,0,0
12809269114,Seberang SMAN 4 Bandung,-6.9194582,107.5983096,0,0
29392595,UNISBA,-6.903986,107.6082182,0,0
12813184472,Sangkuriang,-6.8843045,107.6116232,0,0
v_107.568724_-6.949531,Jalan Cibolerang,-6.9495311,107.568724,0,0
3115112896,Mesjid Jami Al Hamidah Cibolerang,-6.9487566,107.565655,0,0
v_107.568757_-6.949520,Jalan Cibolerang,-6.9495195,107.5687568,0,0
v_107.572026_-6.950204,Jalan Cibolerang,-6.950204,107.5720264,0,0
v_107.574768_-6.950760,Jalan Cibolerang,-6.9507599,107.5747677,0,0
v_107.577385_-6.951599,Jalan Cibolerang,-6.9515987,107.5773847,0,0
v_107.580018_-6.952457,Jalan Cibolerang,-6.9524574,107.580018,0,0
v_107.582711_-6.953025,Jalan Cibolerang,-6.9530255,107.5827111,0,0
v_107.585396_-6.952064,Jalan Kyai Haji Wahid Hasyim,-6.9520643,107.5853961,0,0
v_107.587042_-6.949559,Jalan Kyai Haji Wahid Hasyim,-6.949559,107.5870424,0,0
v_107.590155_-6.944935,Jalan Kyai Haji Wahid Hasyim,-6.9449353,107.5901553,0,0
v_107.591651_-6.942522,Jalan Kyai Haji Wahid Hasyim,-6.9425217,107.5916513,0,0
12628901396,SDN Babakan Tarogong,-6.9384872,107.594148,0,0
12808948210,Patung Ikan,-6.937657,107.610179,0,0
v_107.614114_-6.937784,Jalan BKR,-6.9377842,107.6141135,0,0
v_107.617667_-6.937988,Jalan BKR,-6.9379879,107.6176675,0,0
v_107.620444_-6.937955,Jalan BKR,-6.9379553,107.6204439,0,0
3272575985,BKR Buah Batu,-6.9365872,107.6231054,0,0
v_107.641606_-6.954368,Jalan Marga Cinta,-6.9543676,107.6416057,0,0
v_107.644410_-6.954799,Jalan Marga Cinta,-6.954799,107.6444102,0,0
v_107.647339_-6.955039,Jalan Marga Cinta,-6.9550386,107.647339,0,0
12808948211,Simpang Buah Batu BKR,-6.9373473,107.6222364,0,0
v_107.619583_-6.938183,Jalan BKR,-6.9381826,107.6195826,0,0
v_107.616771_-6.938057,Jalan BKR,-6.9380574,107.6167712,0,0
v_107.613824_-6.937869,Jalan BKR,-6.9378694,107.6138239,0,0
v_107.597138_-6.937801,Jalan Peta,-6.937801,107.5971376,0,0
v_107.596703_-6.940486,Jalan Leuwi Panjang,-6.940486,107.5967033,0,0
v_107.595899_-6.943279,Jalan Leuwi Panjang,-6.9432792,107.5958988,0,0
v_107.587653_-6.948689,Jalan Kyai Haji Wahid Hasyim,-6.9486889,107.5876533,0,0
v_107.586114_-6.950948,Jalan Kyai Haji Wahid Hasyim,-6.9509476,107.5861141,0,0
v_107.584475_-6.953525,Jalan Kyai Haji Wahid Hasyim,-6.9535253,107.584475,0,0
v_107.581800_-6.952873,Jalan Cibolerang,-6.9528734,107.5818003,0,0
v_107.578877_-6.952203,Jalan Cibolerang,-6.952203,107.5788774,0,0
v_107.576401_-6.951073,Jalan Cibolerang,-6.9510727,107.5764014,0,0
v_107.573374_-6.950502,Jalan Cibolerang,-6.9505019,107.5733738,0,0
v_107.570504_-6.949858,Jalan Cibolerang,-6.9498575,107.5705042,0,0
12013198354,Terminal Elang,-6.9144895,107.5753136,0,0
v_107.576871_-6.916820,Jalan Garuda,-6.91682,107.5768707,0,0
v_107.579447_-6.917803,Jalan Jendral Sudirman,-6.9178028,107.5794474,0,0
v_107.582334_-6.918156,Jalan Jendral Sudirman,-6.9181562,107.5823341,0,0
v_107.586478_-6.918666,Jalan Jendral Sudirman,-6.9186655,107.586478,0,0
v_107.586069_-6.921789,Jalan Jamika,-6.9217892,107.5860687,0,0
v_107.585692_-6.925028,Jalan Jamika,-6.9250277,107.5856919,0,0
v_107.588776_-6.925812,Jalan Pasir Koja,-6.9258124,107.5887765,0,0
v_107.591763_-6.926026,Jalan Pasir Koja,-6.9260265,107.5917633,0,0
v_107.594702_-6.926339,Jalan Pasir Koja,-6.9263393,107.5947017,0,0
v_107.598185_-6.926727,Jalan Pasir Koja,-6.9267271,107.5981846,0,0
11739021644,Taman Tegallega,-6.9339734,107.603223,0,0
v_107.611041_-6.937685,Jalan BKR,-6.9376854,107.6110405,0,0
v_107.612804_-6.939745,Jalan Sriwijaya,-6.9397452,107.6128043,0,0
v_107.612819_-6.943173,Jalan Sriwijaya,-6.9431725,107.6128194,0,0
v_107.615590_-6.942995,Jalan Kembar Timur II,-6.9429954,107.6155897,0,0
v_107.618308_-6.943699,Jalan Pasir Salam,-6.9436988,107.6183083,0,0
v_107.621032_-6.944004,Jalan Pasir Salam,-6.9440038,107.6210323,0,0
v_107.621390_-6.948108,Jalan Pasir Salam,-6.9481081,107.6213904,0,0
v_107.692839_-6.934470,Jalan Rumah Sakit,-6.9344705,107.692839,0,0
12806516343,Seberang Jalan Pasar Induk,-6.9308368,107.6935374,0,0
v_107.694483_-6.928260,Jalan Rumah Sakit,-6.9282603,107.6944834,0,0
v_107.695495_-6.925558,Jalan Rumah Sakit,-6.9255578,107.6954953,0,0
v_107.696726_-6.922974,Jalan Rumah Sakit,-6.9229736,107.6967262,0,0
v_107.697961_-6.919757,Jalan Rumah Sakit,-6.919757,107.6979614,0,0
12638331186,RSUD Ujungberung,-6.9158662,107.6992861,0,0
v_107.698369_-6.918677,Jalan Rumah Sakit,-6.9186772,107.6983691,0,0
v_107.697466_-6.921431,Jalan Rumah Sakit,-6.9214314,107.6974662,0,0
v_107.696210_-6.923905,Jalan Rumah Sakit,-6.9239046,107.69621,0,0
v_107.694916_-6.927085,Jalan Rumah Sakit,-6.9270848,107.6949163,0,0
v_107.693880_-6.929886,Jalan Rumah Sakit,-6.9298858,107.6938799,0,0
v_107.693002_-6.932581,Jalan Rumah Sakit,-6.9325813,107.6930017,0,0
v_107.620000_-6.949160,Jalan Soekarno-Hatta,-6.9491604,107.6200002,0,0
v_107.621198_-6.945771,Jalan Pasir Salam,-6.9457709,107.6211978,0,0
v_107.619325_-6.943721,Jalan Pasir Salam,-6.9437206,107.6193253,0,0
v_107.616153_-6.943438,Jalan Pasir Salam,-6.9434381,107.6161533,0,0
v_107.616026_-6.940167,Jalan Pasirluyu Barat,-6.9401671,107.6160256,0,0
11739021646,Taman Tegallega,-6.9365059,107.6030596,0,0
11739021654,Pintu Masuk Terminal Tegallega,-6.9338521,107.6024577,0,0
v_107.598635_-6.929997,Jalan Panjunan,-6.9299972,107.5986352,0,0
v_107.598079_-6.927268,Jalan Kopo,-6.9272681,107.5980791,0,0
v_107.595345_-6.926403,Jalan Pasir Koja,-6.9264031,107.5953448,0,0
v_107.591928_-6.926043,Jalan Pasir Koja,-6.9260427,107.5919281,0,0
v_107.589109_-6.925800,Jalan Pasir Koja,-6.9257996,107.5891087,0,0
v_107.586442_-6.926410,Jalan Pasir Koja,-6.9264095,107.586442,0,0
12629197818,Overpass Mengger,-6.9619679,107.6229457,0,0
v_107.622389_-6.955950,Jalan terdekat,-6.9559496,107.6223888,0,0
v_107.622990_-6.958689,Jalan terdekat,-6.958689,107.6229895,0,0
v_107.622242_-6.954388,Jalan terdekat,-6.9543881,107.6222422,0,0
v_107.624223_-6.949501,Jalan Soekarno-Hatta,-6.9495008,107.6242225,0,0
v_107.635939_-6.927677,Jalan Jenderal Gatot Subroto,-6.927677,107.6359386,0,0
12813438858,Asrama Pussenkav,-6.9258471,107.6326164,0,0
v_107.629941_-6.925129,Jalan Jenderal Gatot Subroto,-6.9251288,107.6299412,0,0
12806717342,Sumber Rasa,-6.924387,107.6270579,0,0
v_107.624361_-6.923802,Jalan Jenderal Gatot Subroto,-6.9238018,107.6243612,0,0
v_107.621511_-6.922915,Jalan Jenderal Gatot Subroto,-6.9229149,107.6215111,0,0
v_107.619745_-6.925417,Jalan Burangrang,-6.9254171,107.6197453,0,0
v_107.619017_-6.928127,Jalan Sadakeling,-6.9281269,107.6190166,0,0
v_107.616014_-6.928566,Jalan Cikawao,-6.9285662,107.6160139,0,0
v_107.613430_-6.927365,Jalan Cikawao,-6.9273648,107.6134302,0,0
v_107.610031_-6.929017,Jalan Pungkur,-6.9290167,107.6100312,0,0
v_107.618129_-6.928372,Jalan Sadakeling,-6.9283719,107.6181288,0,0
5853120078,Sekolah BPI,-6.9234243,107.6199018,0,0
v_107.622671_-6.923108,Jalan Jenderal Gatot Subroto,-6.9231079,107.6226711,0,0
v_107.629958_-6.925063,Jalan Jenderal Gatot Subroto,-6.925063,107.6299576,0,0
v_107.632721_-6.925822,Jalan Jenderal Gatot Subroto,-6.9258218,107.6327213,0,0
29354702,Pasar Baru,-6.9164303,107.6044519,0,0
v_107.604225_-6.919226,Jalan Otto Iskandardinata,-6.9192265,107.6042248,0,0
11739021639,Toko Mas ABC,-6.9230192,107.6039434,0,0
11739021642,Jalan Ibu Inggit Garnasih,-6.9314959,107.6039218,0,0
v_107.574196_-6.910290,Jalan Dadali,-6.9102903,107.5741958,0,0
3270445565,Terminal Antapani,-6.915304,107.6659285,0,0
v_107.663663_-6.917202,Jalan Cibatu,-6.9172021,107.6636633,0,0
v_107.660715_-6.917475,Jalan Purwakarta,-6.9174748,107.6607151,0,0
v_107.657555_-6.917330,Jalan Purwakarta,-6.9173304,107.657555,0,0
