{
  "type": "FeatureCollection",
  "features": [
    {
      "type": "Feature",
      "geometry": {
        "type": "Point",
        "coordinates": [
          107.5753653,
          -6.9129722
        ]
      },
      "properties": {
        "id": "11711326972",
        "name": "Plaza Telkom Rajawali",
        "role": "stop_entry_only",
        "mode": "bus"
      }
    },
    {
      "type": "Feature",
      "geometry": {
        "type": "Point",
        "coordinates": [
          107.5781901,
          -6.9137773
        ]
      },
      "properties": {
        "id": "11735239264",
        "name": "Rajawali 1",
        "role": "stop",
        "mode": "bus"
      }
    },
    {
      "type": "Feature",
      "geometry": {
        "type": "Point",
        "coordinates": [
          107.5828928,
          -6.9149105
        ]
      },
      "properties": {
        "id": "11735239266",
        "name": "Dunguscariang",
        "role": "stop",
        "mode": "bus"
      }
    },
    {
      "type": "Feature",
      "geometry": {
        "type": "Point",
        "coordinates": [
          107.5853751,
          -6.9157549
        ]
      },
      "properties": {
        "id": "1911635044",
        "name": "Yayasan LPPN",
        "role": "stop",
        "mode": "bus"
      }
    },
    {
      "type": "Feature",
      "geometry": {
        "type": "Point",
        "coordinates": [
          107.5884105,
          -6.9162695
        ]
      },
      "properties": {
        "id": "v_107.588410_-6.916270",
        "name": "Jalan Rajawali Timur",
        "role": "virtual",
        "mode": "bus"
      }
    },
    {
      "type": "Feature",
      "geometry": {
        "type": "Point",
        "coordinates": [
          107.5917121,
          -6.9165436
        ]
      },
      "properties": {
        "id": "11735239268",
        "name": "SMA Trinitas",
        "role": "stop",
        "mode": "bus"
      }
    },
    {
      "type": "Feature",
      "geometry": {
        "type": "Point",
        "coordinates": [
          107.5966005,
          -6.9163694
        ]
      },
      "properties": {
        "id": "11735248671",
        "name": "Rumah Sakit Kebon Jati",
        "role": "stop",
        "mode": "bus"
      }
    },
    {
      "type": "Feature",
      "geometry": {
        "type": "Point",
        "coordinates": [
          107.5988546,
          -6.916282
        ]
      },
      "properties": {
        "id": "25434237",
        "name": "GKI Kebonjati",
        "role": "stop",
        "mode": "bus"
      }
    },
    {
      "type": "Feature",
      "geometry": {
        "type": "Point",
        "coordinates": [
          107.599627,
          -6.9162422
        ]
      },
      "properties": {
        "id": "11735248674",
        "name": "SMA Pasundan",
        "role": "stop",
        "mode": "bus"
      }
    },
    {
      "type": "Feature",
      "geometry": {
        "type": "Point",
        "coordinates": [
          107.6024001,
          -6.9161478
        ]
      },
      "properties": {
        "id": "1013407725",
        "name": "Stasiun Hall",
        "role": "stop",
        "mode": "bus"
      }
    },
    {
      "type": "Feature",
      "geometry": {
        "type": "Point",
        "coordinates": [
          107.6044519,
          -6.9164303
        ]
      },
      "properties": {
        "id": "29354702",
        "name": "Pasar Baru",
        "role": "stop",
        "mode": "bus"
      }
    },
    {
      "type": "Feature",
      "geometry": {
        "type": "Point",
        "coordinates": [
          107.6042248,
          -6.9192265
        ]
      },
      "properties": {
        "id": "v_107.604225_-6.919226",
        "name": "Jalan Otto Iskandardinata",
        "role": "virtual",
        "mode": "bus"
      }
    },
    {
      "type": "Feature",
      "geometry": {
        "type": "Point",
        "coordinates": [
          107.6040142,
          -6.9219758
        ]
      },
      "properties": {
        "id": "10778322188",
        "name": "Dalem Kaum",
        "role": "stop",
        "mode": "bus"
      }
    },
    {
      "type": "Feature",
      "geometry": {
        "type": "Point",
        "coordinates": [
          107.6039434,
          -6.9230192
        ]
      },
      "properties": {
        "id": "11739021639",
        "name": "Toko Mas ABC",
        "role": "stop",
        "mode": "bus"
      }
    },
    {
      "type": "Feature",
      "geometry": {
        "type": "Point",
        "coordinates": [
          107.6036329,
          -6.9280445
        ]
      },
      "properties": {
        "id": "11739021641",
        "name": "Simpang Ijan",
        "role": "stop",
        "mode": "bus"
      }
    },
    {
      "type": "Feature",
      "geometry": {
        "type": "Point",
        "coordinates": [
          107.6039218,
          -6.9314959
        ]
      },
      "properties": {
        "id": "11739021642",
        "name": "Jalan Ibu Inggit Garnasih",
        "role": "stop",
        "mode": "bus"
      }
    },
    {
      "type": "Feature",
      "geometry": {
        "type": "Point",
        "coordinates": [
          107.6058121,
          -6.9276265
        ]
      },
      "properties": {
        "id": "3374033509",
        "name": "Terminal Abdul Muis/Kebon Kalapa",
        "role": "stop_exit_only",
        "mode": "bus"
      }
    }
  ]
}