{
  "type": "FeatureCollection",
  "features": [
    {
      "type": "Feature",
      "geometry": {
        "type": "Point",
        "coordinates": [
          107.6058121,
          -6.9276265
        ]
      },
      "properties": {
        "id": "3374033509",
        "name": "Terminal Abdul Muis/Kebon Kalapa",
        "role": "stop_entry_only",
        "mode": "bus"
      }
    },
    {
      "type": "Feature",
      "geometry": {
        "type": "Point",
        "coordinates": [
          107.6059915,
          -6.926739
        ]
      },
      "properties": {
        "id": "12626529705",
        "name": "ITC Kebon Kalapa",
        "role": "stop",
        "mode": "bus"
      }
    },
    {
      "type": "Feature",
      "geometry": {
        "type": "Point",
        "coordinates": [
          107.606261,
          -6.9238597
        ]
      },
      "properties": {
        "id": "11898859975",
        "name": "Grand Yogya Kepatihan",
        "role": "stop",
        "mode": "bus"
      }
    },
    {
      "type": "Feature",
      "geometry": {
        "type": "Point",
        "coordinates": [
          107.6063778,
          -6.922496
        ]
      },
      "properties": {
        "id": "v_107.606378_-6.922496",
        "name": "Jalan Dewi Sartika",
        "role": "virtual",
        "mode": "bus"
      }
    },
    {
      "type": "Feature",
      "geometry": {
        "type": "Point",
        "coordinates": [
          107.6084422,
          -6.9226352
        ]
      },
      "properties": {
        "id": "v_107.608442_-6.922635",
        "name": "Jalan Dalem Kaum",
        "role": "virtual",
        "mode": "bus"
      }
    },
    {
      "type": "Feature",
      "geometry": {
        "type": "Point",
        "coordinates": [
          107.6098141,
          -6.9227936
        ]
      },
      "properties": {
        "id": "v_107.609814_-6.922794",
        "name": "Jalan Dalem Kaum",
        "role": "virtual",
        "mode": "bus"
      }
    },
    {
      "type": "Feature",
      "geometry": {
        "type": "Point",
        "coordinates": [
          107.6113765,
          -6.922975
        ]
      },
      "properties": {
        "id": "v_107.611377_-6.922975",
        "name": "Jalan Dalem Kaum",
        "role": "virtual",
        "mode": "bus"
      }
    },
    {
      "type": "Feature",
      "geometry": {
        "type": "Point",
        "coordinates": [
          107.611699,
          -6.9246866
        ]
      },
      "properties": {
        "id": "v_107.611699_-6.924687",
        "name": "Jalan Lengkong Besar",
        "role": "virtual",
        "mode": "bus"
      }
    },
    {
      "type": "Feature",
      "geometry": {
        "type": "Point",
        "coordinates": [
          107.6125973,
          -6.9262285
        ]
      },
      "properties": {
        "id": "1956195997",
        "name": "Jalan Jati",
        "role": "stop",
        "mode": "bus"
      }
    },
    {
      "type": "Feature",
      "geometry": {
        "type": "Point",
        "coordinates": [
          107.6134302,
          -6.9273648
        ]
      },
      "properties": {
        "id": "v_107.613430_-6.927365",
        "name": "Jalan Cikawao",
        "role": "virtual",
        "mode": "bus"
      }
    },
    {
      "type": "Feature",
      "geometry": {
        "type": "Point",
        "coordinates": [
          107.6151523,
          -6.928135
        ]
      },
      "properties": {
        "id": "v_107.615152_-6.928135",
        "name": "Jalan Cikawao",
        "role": "virtual",
        "mode": "bus"
      }
    },
    {
      "type": "Feature",
      "geometry": {
        "type": "Point",
        "coordinates": [
          107.6164635,
          -6.9287163
        ]
      },
      "properties": {
        "id": "v_107.616463_-6.928716",
        "name": "Jalan Cikawao",
        "role": "virtual",
        "mode": "bus"
      }
    },
    {
      "type": "Feature",
      "geometry": {
        "type": "Point",
        "coordinates": [
          107.6170464,
          -6.9299362
        ]
      },
      "properties": {
        "id": "v_107.617046_-6.929936",
        "name": "Jalan Sadakeling",
        "role": "virtual",
        "mode": "bus"
      }
    },
    {
      "type": "Feature",
      "geometry": {
        "type": "Point",
        "coordinates": [
          107.6183599,
          -6.9316133
        ]
      },
      "properties": {
        "id": "3376282080",
        "name": "Banteng Sadakeling",
        "role": "stop",
        "mode": "bus"
      }
    },
    {
      "type": "Feature",
      "geometry": {
        "type": "Point",
        "coordinates": [
          107.619075,
          -6.931384
        ]
      },
      "properties": {
        "id": "1982390333",
        "name": "SMK Medina",
        "role": "stop",
        "mode": "bus"
      }
    },
    {
      "type": "Feature",
      "geometry": {
        "type": "Point",
        "coordinates": [
          107.6203316,
          -6.9317067
        ]
      },
      "properties": {
        "id": "2250581874",
        "name": "GOR Lodaya",
        "role": "stop",
        "mode": "bus"
      }
    },
    {
      "type": "Feature",
      "geometry": {
        "type": "Point",
        "coordinates": [
          107.6219116,
          -6.9328188
        ]
      },
      "properties": {
        "id": "v_107.621912_-6.932819",
        "name": "Jalan Kyai Haji Ahmad Dahlan",
        "role": "virtual",
        "mode": "bus"
      }
    },
    {
      "type": "Feature",
      "geometry": {
        "type": "Point",
        "coordinates": [
          107.6232495,
          -6.9338032
        ]
      },
      "properties": {
        "id": "v_107.623250_-6.933803",
        "name": "Jalan Kyai Haji Ahmad Dahlan",
        "role": "virtual",
        "mode": "bus"
      }
    },
    {
      "type": "Feature",
      "geometry": {
        "type": "Point",
        "coordinates": [
          107.6251981,
          -6.9343038
        ]
      },
      "properties": {
        "id": "11707031579",
        "name": "Hotel Horison B",
        "role": "stop",
        "mode": "bus"
      }
    },
    {
      "type": "Feature",
      "geometry": {
        "type": "Point",
        "coordinates": [
          107.6252887,
          -6.9343354
        ]
      },
      "properties": {
        "id": "7702036194",
        "name": "Hotel Horison A",
        "role": "stop",
        "mode": "bus"
      }
    },
    {
      "type": "Feature",
      "geometry": {
        "type": "Point",
        "coordinates": [
          107.6242435,
          -6.9356055
        ]
      },
      "properties": {
        "id": "v_107.624244_-6.935606",
        "name": "Jalan Pelajar Pejuang 45",
        "role": "virtual",
        "mode": "bus"
      }
    },
    {
      "type": "Feature",
      "geometry": {
        "type": "Point",
        "coordinates": [
          107.6231803,
          -6.9366396
        ]
      },
      "properties": {
        "id": "v_107.623180_-6.936640",
        "name": "Jalan Pelajar Pejuang 45",
        "role": "virtual",
        "mode": "bus"
      }
    },
    {
      "type": "Feature",
      "geometry": {
        "type": "Point",
        "coordinates": [
          107.6239237,
          -6.9381835
        ]
      },
      "properties": {
        "id": "v_107.623924_-6.938184",
        "name": "Jalan Buah Batu",
        "role": "virtual",
        "mode": "bus"
      }
    },
    {
      "type": "Feature",
      "geometry": {
        "type": "Point",
        "coordinates": [
          107.6248837,
          -6.9391749
        ]
      },
      "properties": {
        "id": "v_107.624884_-6.939175",
        "name": "Jalan Buah Batu",
        "role": "virtual",
        "mode": "bus"
      }
    },
    {
      "type": "Feature",
      "geometry": {
        "type": "Point",
        "coordinates": [
          107.625925,
          -6.9402599
        ]
      },
      "properties": {
        "id": "12808948214",
        "name": "Selontongan",
        "role": "stop",
        "mode": "bus"
      }
    },
    {
      "type": "Feature",
      "geometry": {
        "type": "Point",
        "coordinates": [
          107.6270904,
          -6.9414742
        ]
      },
      "properties": {
        "id": "v_107.627090_-6.941474",
        "name": "Jalan Buah Batu",
        "role": "virtual",
        "mode": "bus"
      }
    },
    {
      "type": "Feature",
      "geometry": {
        "type": "Point",
        "coordinates": [
          107.6282283,
          -6.9426596
        ]
      },
      "properties": {
        "id": "12808948215",
        "name": "Kliningan Buahbatu",
        "role": "stop",
        "mode": "bus"
      }
    },
    {
      "type": "Feature",
      "geometry": {
        "type": "Point",
        "coordinates": [
          107.630216,
          -6.9447298
        ]
      },
      "properties": {
        "id": "v_107.630216_-6.944730",
        "name": "Jalan Buah Batu",
        "role": "virtual",
        "mode": "bus"
      }
    },
    {
      "type": "Feature",
      "geometry": {
        "type": "Point",
        "coordinates": [
          107.6312283,
          -6.9457923
        ]
      },
      "properties": {
        "id": "v_107.631228_-6.945792",
        "name": "Jalan Buah Batu",
        "role": "virtual",
        "mode": "bus"
      }
    },
    {
      "type": "Feature",
      "geometry": {
        "type": "Point",
        "coordinates": [
          107.6322352,
          -6.9468242
        ]
      },
      "properties": {
        "id": "v_107.632235_-6.946824",
        "name": "Jalan Buah Batu",
        "role": "virtual",
        "mode": "bus"
      }
    },
    {
      "type": "Feature",
      "geometry": {
        "type": "Point",
        "coordinates": [
          107.6339239,
          -6.9484693
        ]
      },
      "properties": {
        "id": "12626499695",
        "name": "Taman Buah Batu",
        "role": "stop",
        "mode": "bus"
      }
    },
    {
      "type": "Feature",
      "geometry": {
        "type": "Point",
        "coordinates": [
          107.6357751,
          -6.9503784
        ]
      },
      "properties": {
        "id": "12626499694",
        "name": "Swadarma BNI",
        "role": "stop",
        "mode": "bus"
      }
    },
    {
      "type": "Feature",
      "geometry": {
        "type": "Point",
        "coordinates": [
          107.6368785,
          -6.9514617
        ]
      },
      "properties": {
        "id": "v_107.636878_-6.951462",
        "name": "Jalan Buah Batu",
        "role": "virtual",
        "mode": "bus"
      }
    },
    {
      "type": "Feature",
      "geometry": {
        "type": "Point",
        "coordinates": [
          107.6387006,
          -6.9534876
        ]
      },
      "properties": {
        "id": "12626499692",
        "name": "Pasar Kordon B",
        "role": "stop",
        "mode": "bus"
      }
    },
    {
      "type": "Feature",
      "geometry": {
        "type": "Point",
        "coordinates": [
          107.6393343,
          -6.9559465
        ]
      },
      "properties": {
        "id": "v_107.639334_-6.955946",
        "name": "Jalan Buah Batu",
        "role": "virtual",
        "mode": "bus"
      }
    },
    {
      "type": "Feature",
      "geometry": {
        "type": "Point",
        "coordinates": [
          107.6394982,
          -6.9584038
        ]
      },
      "properties": {
        "id": "12626499689",
        "name": "Bluebird B",
        "role": "stop",
        "mode": "bus"
      }
    },
    {
      "type": "Feature",
      "geometry": {
        "type": "Point",
        "coordinates": [
          107.6392201,
          -6.9597843
        ]
      },
      "properties": {
        "id": "v_107.639220_-6.959784",
        "name": "Jalan Buah Batu",
        "role": "virtual",
        "mode": "bus"
      }
    },
    {
      "type": "Feature",
      "geometry": {
        "type": "Point",
        "coordinates": [
          107.6387229,
          -6.9618482
        ]
      },
      "properties": {
        "id": "v_107.638723_-6.961848",
        "name": "Jalan Buah Batu",
        "role": "virtual",
        "mode": "bus"
      }
    },
    {
      "type": "Feature",
      "geometry": {
        "type": "Point",
        "coordinates": [
          107.6381038,
          -6.9649573
        ]
      },
      "properties": {
        "id": "12626499688",
        "name": "Puskesmas Kujangsari B",
        "role": "stop",
        "mode": "bus"
      }
    },
    {
      "type": "Feature",
      "geometry": {
        "type": "Point",
        "coordinates": [
          107.6378871,
          -6.9657129
        ]
      },
      "properties": {
        "id": "6609327003",
        "name": "Cipagalo",
        "role": "stop_exit_only",
        "mode": "bus"
      }
    }
  ]
}