{
  "type": "FeatureCollection",
  "features": [
    {
      "type": "Feature",
      "geometry": {
        "type": "Point",
        "coordinates": [
          107.6058121,
          -6.9276265
        ]
      },
      "properties": {
        "id": "3374033509",
        "name": "Terminal Abdul Muis/Kebon Kalapa",
        "role": "stop_entry_only",
        "mode": "bus"
      }
    },
    {
      "type": "Feature",
      "geometry": {
        "type": "Point",
        "coordinates": [
          107.6059915,
          -6.926739
        ]
      },
      "properties": {
        "id": "12626529705",
        "name": "ITC Kebon Kalapa",
        "role": "stop",
        "mode": "bus"
      }
    },
    {
      "type": "Feature",
      "geometry": {
        "type": "Point",
        "coordinates": [
          107.606261,
          -6.9238597
        ]
      },
      "properties": {
        "id": "11898859975",
        "name": "Grand Yogya Kepatihan",
        "role": "stop",
        "mode": "bus"
      }
    },
    {
      "type": "Feature",
      "geometry": {
        "type": "Point",
        "coordinates": [
          107.6087199,
          -6.9226665
        ]
      },
      "properties": {
        "id": "v_107.608720_-6.922667",
        "name": "Jalan Dalem Kaum",
        "role": "virtual",
        "mode": "bus"
      }
    },
    {
      "type": "Feature",
      "geometry": {
        "type": "Point",
        "coordinates": [
          107.6118585,
          -6.9230332
        ]
      },
      "properties": {
        "id": "v_107.611858_-6.923033",
        "name": "Jalan Dalem Kaum",
        "role": "virtual",
        "mode": "bus"
      }
    },
    {
      "type": "Feature",
      "geometry": {
        "type": "Point",
        "coordinates": [
          107.6125973,
          -6.9262285
        ]
      },
      "properties": {
        "id": "1956195997",
        "name": "Jalan Jati",
        "role": "stop",
        "mode": "bus"
      }
    },
    {
      "type": "Feature",
      "geometry": {
        "type": "Point",
        "coordinates": [
          107.6151523,
          -6.928135
        ]
      },
      "properties": {
        "id": "v_107.615152_-6.928135",
        "name": "Jalan Cikawao",
        "role": "virtual",
        "mode": "bus"
      }
    },
    {
      "type": "Feature",
      "geometry": {
        "type": "Point",
        "coordinates": [
          107.6183599,
          -6.9316133
        ]
      },
      "properties": {
        "id": "3376282080",
        "name": "Banteng Sadakeling",
        "role": "stop",
        "mode": "bus"
      }
    },
    {
      "type": "Feature",
      "geometry": {
        "type": "Point",
        "coordinates": [
          107.619075,
          -6.931384
        ]
      },
      "properties": {
        "id": "1982390333",
        "name": "SMK Medina",
        "role": "stop",
        "mode": "bus"
      }
    },
    {
      "type": "Feature",
      "geometry": {
        "type": "Point",
        "coordinates": [
          107.6203316,
          -6.9317067
        ]
      },
      "properties": {
        "id": "2250581874",
        "name": "GOR Lodaya",
        "role": "stop",
        "mode": "bus"
      }
    },
    {
      "type": "Feature",
      "geometry": {
        "type": "Point",
        "coordinates": [
          107.6251981,
          -6.9343038
        ]
      },
      "properties": {
        "id": "11707031579",
        "name": "Hotel Horison B",
        "role": "stop",
        "mode": "bus"
      }
    },
    {
      "type": "Feature",
      "geometry": {
        "type": "Point",
        "coordinates": [
          107.6252887,
          -6.9343354
        ]
      },
      "properties": {
        "id": "7702036194",
        "name": "Hotel Horison A",
        "role": "stop",
        "mode": "bus"
      }
    },
    {
      "type": "Feature",
      "geometry": {
        "type": "Point",
        "coordinates": [
          107.6231803,
          -6.9366396
        ]
      },
      "properties": {
        "id": "v_107.623180_-6.936640",
        "name": "Jalan Pelajar Pejuang 45",
        "role": "virtual",
        "mode": "bus"
      }
    },
    {
      "type": "Feature",
      "geometry": {
        "type": "Point",
        "coordinates": [
          107.625925,
          -6.9402599
        ]
      },
      "properties": {
        "id": "12808948214",
        "name": "Selontongan",
        "role": "stop",
        "mode": "bus"
      }
    },
    {
      "type": "Feature",
      "geometry": {
        "type": "Point",
        "coordinates": [
          107.6282283,
          -6.9426596
        ]
      },
      "properties": {
        "id": "12808948215",
        "name": "Kliningan Buahbatu",
        "role": "stop",
        "mode": "bus"
      }
    },
    {
      "type": "Feature",
      "geometry": {
        "type": "Point",
        "coordinates": [
          107.630216,
          -6.9447298
        ]
      },
      "properties": {
        "id": "v_107.630216_-6.944730",
        "name": "Jalan Buah Batu",
        "role": "virtual",
        "mode": "bus"
      }
    },
    {
      "type": "Feature",
      "geometry": {
        "type": "Point",
        "coordinates": [
          107.6339239,
          -6.9484693
        ]
      },
      "properties": {
        "id": "12626499695",
        "name": "Taman Buah Batu",
        "role": "stop",
        "mode": "bus"
      }
    },
    {
      "type": "Feature",
      "geometry": {
        "type": "Point",
        "coordinates": [
          107.6357751,
          -6.9503784
        ]
      },
      "properties": {
        "id": "12626499694",
        "name": "Swadarma BNI",
        "role": "stop",
        "mode": "bus"
      }
    },
    {
      "type": "Feature",
      "geometry": {
        "type": "Point",
        "coordinates": [
          107.6387006,
          -6.9534876
        ]
      },
      "properties": {
        "id": "12626499692",
        "name": "Pasar Kordon B",
        "role": "stop",
        "mode": "bus"
      }
    },
    {
      "type": "Feature",
      "geometry": {
        "type": "Point",
        "coordinates": [
          107.6394982,
          -6.9584038
        ]
      },
      "properties": {
        "id": "12626499689",
        "name": "Bluebird B",
        "role": "stop",
        "mode": "bus"
      }
    },
    {
      "type": "Feature",
      "geometry": {
        "type": "Point",
        "coordinates": [
          107.6387229,
          -6.9618482
        ]
      },
      "properties": {
        "id": "v_107.638723_-6.961848",
        "name": "Jalan Buah Batu",
        "role": "virtual",
        "mode": "bus"
      }
    },
    {
      "type": "Feature",
      "geometry": {
        "type": "Point",
        "coordinates": [
          107.6381038,
          -6.9649573
        ]
      },
      "properties": {
        "id": "12626499688",
        "name": "Puskesmas Kujangsari B",
        "role": "stop",
        "mode": "bus"
      }
    },
    {
      "type": "Feature",
      "geometry": {
        "type": "Point",
        "coordinates": [
          107.6378871,
          -6.9657129
        ]
      },
      "properties": {
        "id": "6609327003",
        "name": "Cipagalo",
        "role": "stop_exit_only",
        "mode": "bus"
      }
    }
  ]
}