{
  "type": "FeatureCollection",
  "features": [
    {
      "type": "Feature",
      "geometry": {
        "type": "Point",
        "coordinates": [
          107.5755571,
          -6.9135373
        ]
      },
      "properties": {
        "id": "12627968405",
        "name": "Terminal Elang",
        "role": "stop_entry_only",
        "bus": "yes",
        "public_transport": "stop_position"
      }
    },
    {
      "type": "Feature",
      "geometry": {
        "type": "Point",
        "coordinates": [
          107.575247,
          -6.9252035
        ]
      },
      "properties": {
        "id": "12808867767",
        "name": "Holis 1",
        "role": "stop",
        "bus": "yes",
        "public_transport": "stop_position"
      }
    },
    {
      "type": "Feature",
      "geometry": {
        "type": "Point",
        "coordinates": [
          107.5763049,
          -6.9313117
        ]
      },
      "properties": {
        "id": "12808867765",
        "name": "Sumbersari 1",
        "role": "stop",
        "bus": "yes",
        "public_transport": "stop_position"
      }
    },
    {
      "type": "Feature",
      "geometry": {
        "type": "Point",
        "coordinates": [
          107.576671,
          -6.9323901
        ]
      },
      "properties": {
        "id": "12626357398",
        "name": "Sumber Sari Junction",
        "role": "stop",
        "bus": "yes",
        "public_transport": "stop_position"
      }
    },
    {
      "type": "Feature",
      "geometry": {
        "type": "Point",
        "coordinates": [
          107.5831212,
          -6.9419015
        ]
      },
      "properties": {
        "id": "12626357399",
        "name": "Pasar Induk Caringin",
        "role": "stop",
        "bus": "yes",
        "public_transport": "stop_position"
      }
    },
    {
      "type": "Feature",
      "geometry": {
        "type": "Point",
        "coordinates": [
          107.5850407,
          -6.9434372
        ]
      },
      "properties": {
        "id": "12808867764",
        "name": "Simpang Caringin",
        "role": "stop",
        "bus": "yes",
        "public_transport": "stop_position"
      }
    },
    {
      "type": "Feature",
      "geometry": {
        "type": "Point",
        "coordinates": [
          107.5934341,
          -6.9468277
        ]
      },
      "properties": {
        "id": "11295303565",
        "name": "Leuwipanjang Soekarno Hatta",
        "role": "stop",
        "bus": "yes",
        "public_transport": "stop_position"
      }
    },
    {
      "type": "Feature",
      "geometry": {
        "type": "Point",
        "coordinates": [
          107.6022466,
          -6.9478017
        ]
      },
      "properties": {
        "id": "12808867762",
        "name": "Inhoftank",
        "role": "stop",
        "bus": "yes",
        "public_transport": "stop_position"
      }
    },
    {
      "type": "Feature",
      "geometry": {
        "type": "Point",
        "coordinates": [
          107.6051379,
          -6.9479853
        ]
      },
      "properties": {
        "id": "12808867760",
        "name": "Seberang Ampera Soekarno Hatta",
        "role": "stop",
        "bus": "yes",
        "public_transport": "stop_position"
      }
    },
    {
      "type": "Feature",
      "geometry": {
        "type": "Point",
        "coordinates": [
          107.6067107,
          -6.9480912
        ]
      },
      "properties": {
        "id": "12808867756",
        "name": "Karasak Utara",
        "role": "stop",
        "bus": "yes",
        "public_transport": "stop_position"
      }
    },
    {
      "type": "Feature",
      "geometry": {
        "type": "Point",
        "coordinates": [
          107.6121553,
          -6.9484924
        ]
      },
      "properties": {
        "id": "3272360374",
        "name": "PLN UP3 Bandung B",
        "role": "stop",
        "bus": "yes",
        "highway": "bus_stop",
        "public_transport": "stop_position"
      }
    },
    {
      "type": "Feature",
      "geometry": {
        "type": "Point",
        "coordinates": [
          107.619152,
          -6.9489877
        ]
      },
      "properties": {
        "id": "3384018110",
        "name": "PT LEN Industri B",
        "role": "stop",
        "bus": "yes",
        "highway": "bus_stop",
        "public_transport": "stop_position"
      }
    },
    {
      "type": "Feature",
      "geometry": {
        "type": "Point",
        "coordinates": [
          107.6248137,
          -6.9494301
        ]
      },
      "properties": {
        "id": "12626499699",
        "name": "LPKIA B",
        "role": "stop",
        "bus": "yes",
        "public_transport": "stop_position"
      }
    },
    {
      "type": "Feature",
      "geometry": {
        "type": "Point",
        "coordinates": [
          107.6280918,
          -6.9493306
        ]
      },
      "properties": {
        "id": "12626499698",
        "name": "Bangunan Mart B",
        "role": "stop",
        "bus": "yes",
        "public_transport": "stop_position"
      }
    },
    {
      "type": "Feature",
      "geometry": {
        "type": "Point",
        "coordinates": [
          107.6348946,
          -6.9474943
        ]
      },
      "properties": {
        "id": "12806868676",
        "name": "Griya Hemat",
        "role": "stop",
        "bus": "yes",
        "public_transport": "stop_position"
      }
    },
    {
      "type": "Feature",
      "geometry": {
        "type": "Point",
        "coordinates": [
          107.638444,
          -6.9464022
        ]
      },
      "properties": {
        "id": "12806868672",
        "name": "Sekelimus Utara",
        "role": "stop",
        "bus": "yes",
        "public_transport": "stop_position"
      }
    },
    {
      "type": "Feature",
      "geometry": {
        "type": "Point",
        "coordinates": [
          107.6428119,
          -6.9450226
        ]
      },
      "properties": {
        "id": "5825209951",
        "name": "Simpang Samsat Kiaracondong",
        "role": "stop",
        "bus": "yes",
        "public_transport": "stop_position"
      }
    },
    {
      "type": "Feature",
      "geometry": {
        "type": "Point",
        "coordinates": [
          107.6438888,
          -6.944662
        ]
      },
      "properties": {
        "id": "12806851389",
        "name": "STT Mandala",
        "role": "stop",
        "bus": "yes",
        "public_transport": "stop_position"
      }
    },
    {
      "type": "Feature",
      "geometry": {
        "type": "Point",
        "coordinates": [
          107.6464874,
          -6.9438278
        ]
      },
      "properties": {
        "id": "12806851390",
        "name": "SMK Medika Com",
        "role": "stop",
        "bus": "yes",
        "public_transport": "stop_position"
      }
    },
    {
      "type": "Feature",
      "geometry": {
        "type": "Point",
        "coordinates": [
          107.6505153,
          -6.9425403
        ]
      },
      "properties": {
        "id": "12806851392",
        "name": "Unibi",
        "role": "stop",
        "bus": "yes",
        "public_transport": "stop_position"
      }
    },
    {
      "type": "Feature",
      "geometry": {
        "type": "Point",
        "coordinates": [
          107.6528692,
          -6.941787
        ]
      },
      "properties": {
        "id": "12806851396",
        "name": "Cidurian Utara",
        "role": "stop",
        "bus": "yes",
        "public_transport": "stop_position"
      }
    },
    {
      "type": "Feature",
      "geometry": {
        "type": "Point",
        "coordinates": [
          107.6569119,
          -6.9405212
        ]
      },
      "properties": {
        "id": "12806851393",
        "name": "SMKN 9 Bandung",
        "role": "stop",
        "bus": "yes",
        "public_transport": "stop_position"
      }
    },
    {
      "type": "Feature",
      "geometry": {
        "type": "Point",
        "coordinates": [
          107.6582639,
          -6.9400924
        ]
      },
      "properties": {
        "id": "3375689664",
        "name": "Jasa Raharja Jabar",
        "role": "stop",
        "bus": "yes",
        "public_transport": "stop_position"
      }
    },
    {
      "type": "Feature",
      "geometry": {
        "type": "Point",
        "coordinates": [
          107.6601512,
          -6.9395718
        ]
      },
      "properties": {
        "id": "12806851400",
        "name": "Suparma",
        "role": "stop",
        "bus": "yes",
        "public_transport": "stop_position"
      }
    },
    {
      "type": "Feature",
      "geometry": {
        "type": "Point",
        "coordinates": [
          107.6635594,
          -6.9390207
        ]
      },
      "properties": {
        "id": "12806868601",
        "name": "Kawaluyaan",
        "role": "stop",
        "bus": "yes",
        "public_transport": "stop_position"
      }
    },
    {
      "type": "Feature",
      "geometry": {
        "type": "Point",
        "coordinates": [
          107.6672726,
          -6.938728
        ]
      },
      "properties": {
        "id": "12806868603",
        "name": "Sanggar Hurip",
        "role": "stop",
        "bus": "yes",
        "public_transport": "stop_position"
      }
    },
    {
      "type": "Feature",
      "geometry": {
        "type": "Point",
        "coordinates": [
          107.6775339,
          -6.9379974
        ]
      },
      "properties": {
        "id": "12806868618",
        "name": "Cisaranten Kulon",
        "role": "stop",
        "bus": "yes",
        "public_transport": "stop_position"
      }
    },
    {
      "type": "Feature",
      "geometry": {
        "type": "Point",
        "coordinates": [
          107.6794352,
          -6.9378628
        ]
      },
      "properties": {
        "id": "12806868620",
        "name": "KPP Pratama Cicadas",
        "role": "stop",
        "bus": "yes",
        "public_transport": "stop_position"
      }
    },
    {
      "type": "Feature",
      "geometry": {
        "type": "Point",
        "coordinates": [
          107.6925095,
          -6.9377585
        ]
      },
      "properties": {
        "id": "3272722527",
        "name": "Simpang Gedebage Selatan",
        "role": "stop",
        "bus": "yes",
        "public_transport": "stop_position"
      }
    },
    {
      "type": "Feature",
      "geometry": {
        "type": "Point",
        "coordinates": [
          107.6992029,
          -6.955658
        ]
      },
      "properties": {
        "id": "11730486996",
        "name": "Summarecon Mall Bandung",
        "role": "stop_exit_only",
        "bus": "yes",
        "public_transport": "stop_position"
      }
    }
  ]
}