{
  "type": "FeatureCollection",
  "features": [
    {
      "type": "Feature",
      "geometry": {
        "type": "Point",
        "coordinates": [
          107.5755571,
          -6.9135373
        ]
      },
      "properties": {
        "id": 12627968405,
        "role": "stop_entry_only",
        "bus": "yes",
        "name": "Terminal Elang",
        "public_transport": "stop_position"
      }
    },
    {
      "type": "Feature",
      "geometry": {
        "type": "Point",
        "coordinates": [
          107.575247,
          -6.9252035
        ]
      },
      "properties": {
        "id": 12808867767,
        "role": "stop",
        "bus": "yes",
        "name": "Holis 1",
        "public_transport": "stop_position"
      }
    },
    {
      "type": "Feature",
      "geometry": {
        "type": "Point",
        "coordinates": [
          107.5763049,
          -6.9313117
        ]
      },
      "properties": {
        "id": 12808867765,
        "role": "stop",
        "bus": "yes",
        "name": "Sumbersari 1",
        "public_transport": "stop_position"
      }
    },
    {
      "type": "Feature",
      "geometry": {
        "type": "Point",
        "coordinates": [
          107.576671,
          -6.9323901
        ]
      },
      "properties": {
        "id": 12626357398,
        "role": "stop",
        "bus": "yes",
        "name": "Sumber Sari Junction",
        "public_transport": "stop_position"
      }
    },
    {
      "type": "Feature",
      "geometry": {
        "type": "Point",
        "coordinates": [
          107.5831212,
          -6.9419015
        ]
      },
      "properties": {
        "id": 12626357399,
        "role": "stop",
        "bus": "yes",
        "name": "Pasar Induk Caringin",
        "public_transport": "stop_position"
      }
    },
    {
      "type": "Feature",
      "geometry": {
        "type": "Point",
        "coordinates": [
          107.5850407,
          -6.9434372
        ]
      },
      "properties": {
        "id": 12808867764,
        "role": "stop",
        "bus": "yes",
        "name": "Simpang Caringin",
        "public_transport": "stop_position"
      }
    },
    {
      "type": "Feature",
      "geometry": {
        "type": "Point",
        "coordinates": [
          107.5934341,
          -6.9468277
        ]
      },
      "properties": {
        "id": 11295303565,
        "role": "stop",
        "bus": "yes",
        "name": "Leuwipanjang Soekarno Hatta",
        "public_transport": "stop_position"
      }
    },
    {
      "type": "Feature",
      "geometry": {
        "type": "Point",
        "coordinates": [
          107.6022466,
          -6.9478017
        ]
      },
      "properties": {
        "id": 12808867762,
        "role": "stop",
        "bus": "yes",
        "name": "Inhoftank",
        "public_transport": "stop_position"
      }
    },
    {
      "type": "Feature",
      "geometry": {
        "type": "Point",
        "coordinates": [
          107.6051379,
          -6.9479853
        ]
      },
      "properties": {
        "id": 12808867760,
        "role": "stop",
        "bus": "yes",
        "name": "Seberang Ampera Soekarno Hatta",
        "public_transport": "stop_position"
      }
    },
    {
      "type": "Feature",
      "geometry": {
        "type": "Point",
        "coordinates": [
          107.6067107,
          -6.9480912
        ]
      },
      "properties": {
        "id": 12808867756,
        "role": "stop",
        "bus": "yes",
        "name": "Karasak Utara",
        "public_transport": "stop_position"
      }
    },
    {
      "type": "Feature",
      "geometry": {
        "type": "Point",
        "coordinates": [
          107.6121553,
          -6.9484924
        ]
      },
      "properties": {
        "id": 3272360374,
        "role": "stop",
        "bus": "yes",
        "highway": "bus_stop",
        "name": "PLN UP3 Bandung B",
        "public_transport": "stop_position"
      }
    },
    {
      "type": "Feature",
      "geometry": {
        "type": "Point",
        "coordinates": [
          107.619152,
          -6.9489877
        ]
      },
      "properties": {
        "id": 3384018110,
        "role": "stop",
        "bus": "yes",
        "highway": "bus_stop",
        "name": "PT LEN Industri B",
        "public_transport": "stop_position"
      }
    },
    {
      "type": "Feature",
      "geometry": {
        "type": "Point",
        "coordinates": [
          107.6248137,
          -6.9494301
        ]
      },
      "properties": {
        "id": 12626499699,
        "role": "stop",
        "bus": "yes",
        "name": "LPKIA B",
        "public_transport": "stop_position"
      }
    },
    {
      "type": "Feature",
      "geometry": {
        "type": "Point",
        "coordinates": [
          107.6280918,
          -6.9493306
        ]
      },
      "properties": {
        "id": 12626499698,
        "role": "stop",
        "bus": "yes",
        "name": "Bangunan Mart B",
        "public_transport": "stop_position"
      }
    },
    {
      "type": "Feature",
      "geometry": {
        "type": "Point",
        "coordinates": [
          107.6348946,
          -6.9474943
        ]
      },
      "properties": {
        "id": 12806868676,
        "role": "stop",
        "bus": "yes",
        "name": "Griya Hemat",
        "public_transport": "stop_position"
      }
    },
    {
      "type": "Feature",
      "geometry": {
        "type": "Point",
        "coordinates": [
          107.638444,
          -6.9464022
        ]
      },
      "properties": {
        "id": 12806868672,
        "role": "stop",
        "bus": "yes",
        "name": "Sekelimus Utara",
        "public_transport": "stop_position"
      }
    },
    {
      "type": "Feature",
      "geometry": {
        "type": "Point",
        "coordinates": [
          107.6428119,
          -6.9450226
        ]
      },
      "properties": {
        "id": 5825209951,
        "role": "stop",
        "bus": "yes",
        "name": "Simpang Samsat Kiaracondong",
        "public_transport": "stop_position"
      }
    },
    {
      "type": "Feature",
      "geometry": {
        "type": "Point",
        "coordinates": [
          107.6438888,
          -6.944662
        ]
      },
      "properties": {
        "id": 12806851389,
        "role": "stop",
        "bus": "yes",
        "name": "STT Mandala",
        "public_transport": "stop_position"
      }
    },
    {
      "type": "Feature",
      "geometry": {
        "type": "Point",
        "coordinates": [
          107.6464874,
          -6.9438278
        ]
      },
      "properties": {
        "id": 12806851390,
        "role": "stop",
        "bus": "yes",
        "name": "SMK Medika Com",
        "public_transport": "stop_position"
      }
    },
    {
      "type": "Feature",
      "geometry": {
        "type": "Point",
        "coordinates": [
          107.6505153,
          -6.9425403
        ]
      },
      "properties": {
        "id": 12806851392,
        "role": "stop",
        "bus": "yes",
        "name": "Unibi",
        "public_transport": "stop_position"
      }
    },
    {
      "type": "Feature",
      "geometry": {
        "type": "Point",
        "coordinates": [
          107.6528692,
          -6.941787
        ]
      },
      "properties": {
        "id": 12806851396,
        "role": "stop",
        "bus": "yes",
        "name": "Cidurian Utara",
        "public_transport": "stop_position"
      }
    },
    {
      "type": "Feature",
      "geometry": {
        "type": "Point",
        "coordinates": [
          107.6569119,
          -6.9405212
        ]
      },
      "properties": {
        "id": 12806851393,
        "role": "stop",
        "bus": "yes",
        "name": "SMKN 9 Bandung",
        "public_transport": "stop_position"
      }
    },
    {
      "type": "Feature",
      "geometry": {
        "type": "Point",
        "coordinates": [
          107.6582639,
          -6.9400924
        ]
      },
      "properties": {
        "id": 3375689664,
        "role": "stop",
        "bus": "yes",
        "name": "Jasa Raharja Jabar",
        "public_transport": "stop_position"
      }
    },
    {
      "type": "Feature",
      "geometry": {
        "type": "Point",
        "coordinates": [
          107.6601512,
          -6.9395718
        ]
      },
      "properties": {
        "id": 12806851400,
        "role": "stop",
        "bus": "yes",
        "name": "Suparma",
        "public_transport": "stop_position"
      }
    },
    {
      "type": "Feature",
      "geometry": {
        "type": "Point",
        "coordinates": [
          107.6635594,
          -6.9390207
        ]
      },
      "properties": {
        "id": 12806868601,
        "role": "stop",
        "bus": "yes",
        "name": "Kawaluyaan",
        "public_transport": "stop_position"
      }
    },
    {
      "type": "Feature",
      "geometry": {
        "type": "Point",
        "coordinates": [
          107.6672726,
          -6.938728
        ]
      },
      "properties": {
        "id": 12806868603,
        "role": "stop",
        "bus": "yes",
        "name": "Sanggar Hurip",
        "public_transport": "stop_position"
      }
    },
    {
      "type": "Feature",
      "geometry": {
        "type": "Point",
        "coordinates": [
          107.6775339,
          -6.9379974
        ]
      },
      "properties": {
        "id": 12806868618,
        "role": "stop",
        "bus": "yes",
        "name": "Cisaranten Kulon",
        "public_transport": "stop_position"
      }
    },
    {
      "type": "Feature",
      "geometry": {
        "type": "Point",
        "coordinates": [
          107.6794352,
          -6.9378628
        ]
      },
      "properties": {
        "id": 12806868620,
        "role": "stop",
        "bus": "yes",
        "name": "KPP Pratama Cicadas",
        "public_transport": "stop_position"
      }
    },
    {
      "type": "Feature",
      "geometry": {
        "type": "Point",
        "coordinates": [
          107.6925095,
          -6.9377585
        ]
      },
      "properties": {
        "id": 3272722527,
        "role": "stop",
        "bus": "yes",
        "name": "Simpang Gedebage Selatan",
        "public_transport": "stop_position"
      }
    },
    {
      "type": "Feature",
      "geometry": {
        "type": "Point",
        "coordinates": [
          107.6992029,
          -6.955658
        ]
      },
      "properties": {
        "id": 11730486996,
        "role": "stop_exit_only",
        "bus": "yes",
        "name": "Summarecon Mall Bandung",
        "public_transport": "stop_position"
      }
    }
  ]
}