{
  "type": "FeatureCollection",
  "features": [
    {
      "type": "Feature",
      "geometry": {
        "type": "Point",
        "coordinates": [
          107.7732376,
          -6.932299
        ]
      },
      "properties": {
        "id": "10697346845",
        "name": "UNPAD Jatinangor",
        "role": "stop_entry_only",
        "bus": "yes",
        "public_transport": "stop_position"
      }
    },
    {
      "type": "Feature",
      "geometry": {
        "type": "Point",
        "coordinates": [
          107.7712431,
          -6.933968
        ]
      },
      "properties": {
        "id": "11711185243",
        "name": "Jatinangor Town Square",
        "role": "stop",
        "bus": "yes",
        "public_transport": "stop_position"
      }
    },
    {
      "type": "Feature",
      "geometry": {
        "type": "Point",
        "coordinates": [
          107.7651014,
          -6.9357446
        ]
      },
      "properties": {
        "id": "5867026762",
        "name": "IPDN B",
        "role": "stop",
        "bus": "yes",
        "public_transport": "stop_position",
        "ref": "IPDN B"
      }
    },
    {
      "type": "Feature",
      "geometry": {
        "type": "Point",
        "coordinates": [
          107.7557736,
          -6.9426257
        ]
      },
      "properties": {
        "id": "11711185188",
        "name": "Cileunyi B",
        "role": "stop",
        "bus": "yes",
        "public_transport": "stop_position"
      }
    },
    {
      "type": "Feature",
      "geometry": {
        "type": "Point",
        "coordinates": [
          107.6115567,
          -6.9547392
        ]
      },
      "properties": {
        "id": "11711185185",
        "name": "Jalan Haji Tatang Sumantri",
        "role": "stop",
        "bus": "yes",
        "public_transport": "stop_position"
      }
    },
    {
      "type": "Feature",
      "geometry": {
        "type": "Point",
        "coordinates": [
          107.6087518,
          -6.9483342
        ]
      },
      "properties": {
        "id": "11707031627",
        "name": "Simpang By Pass Soekarno Hatta B",
        "role": "stop",
        "bus": "yes",
        "public_transport": "stop_position"
      }
    },
    {
      "type": "Feature",
      "geometry": {
        "type": "Point",
        "coordinates": [
          107.6067624,
          -6.9375463
        ]
      },
      "properties": {
        "id": "11707031601",
        "name": "PT INTI B (BKR 5)",
        "role": "stop",
        "bus": "yes",
        "public_transport": "stop_position"
      }
    },
    {
      "type": "Feature",
      "geometry": {
        "type": "Point",
        "coordinates": [
          107.6251981,
          -6.9343038
        ]
      },
      "properties": {
        "id": "11707031579",
        "name": "Hotel Horison B",
        "role": "stop",
        "bus": "yes",
        "public_transport": "stop_position"
      }
    },
    {
      "type": "Feature",
      "geometry": {
        "type": "Point",
        "coordinates": [
          107.6312506,
          -6.9184177
        ]
      },
      "properties": {
        "id": "11707030859",
        "name": "Bandung Creative Hub B",
        "role": "stop",
        "bus": "yes",
        "public_transport": "stop_position"
      }
    },
    {
      "type": "Feature",
      "geometry": {
        "type": "Point",
        "coordinates": [
          107.6339654,
          -6.9129263
        ]
      },
      "properties": {
        "id": "11955476811",
        "name": "SPBU Ahmad Yani",
        "role": "stop",
        "bus": "yes",
        "public_transport": "stop_position"
      }
    },
    {
      "type": "Feature",
      "geometry": {
        "type": "Point",
        "coordinates": [
          107.6297079,
          -6.907261
        ]
      },
      "properties": {
        "id": "11707030833",
        "name": "SDN 062 Ciujung Bandung (Lapangan Supratman B)",
        "role": "stop",
        "bus": "yes",
        "public_transport": "stop_position"
      }
    },
    {
      "type": "Feature",
      "geometry": {
        "type": "Point",
        "coordinates": [
          107.6241682,
          -6.9011517
        ]
      },
      "properties": {
        "id": "11707030828",
        "name": "PUSDAI B",
        "role": "stop",
        "bus": "yes",
        "public_transport": "stop_position"
      }
    },
    {
      "type": "Feature",
      "geometry": {
        "type": "Point",
        "coordinates": [
          107.6201283,
          -6.9012501
        ]
      },
      "properties": {
        "id": "11707030827",
        "name": "Lapangan Gasibu B",
        "role": "stop",
        "bus": "yes",
        "public_transport": "stop_position"
      }
    },
    {
      "type": "Feature",
      "geometry": {
        "type": "Point",
        "coordinates": [
          107.6161572,
          -6.8979434
        ]
      },
      "properties": {
        "id": "11707030825",
        "name": "Panatayudha B",
        "role": "stop",
        "bus": "yes",
        "public_transport": "stop_position"
      }
    },
    {
      "type": "Feature",
      "geometry": {
        "type": "Point",
        "coordinates": [
          107.6180361,
          -6.8934568
        ]
      },
      "properties": {
        "id": "3375793673",
        "name": "UNPAD Dipatiukur",
        "role": "stop_exit_only",
        "bus": "yes",
        "public_transport": "stop_position"
      }
    }
  ]
}